{"results": [{"fsq_id": "4e1c4c481fc714dc5c3143ed", "categories": [{"id": 13006, "name": "Beer Bar", "short_name": "Beer Bar", "plural_name": "Beer Bars", "icon": {"prefix": "https://ss3.4sqi.net/img/categories_v2/nightlife/pub_", "suffix": ".png"}}, {"id": 13031, "name": "Burger Joint", "short_name": "Burgers", "plural_name": "Burger Joints", "icon": {"prefix": "https://ss3.4sqi.net/img/categories_v2/food/burger_", "suffix": ".png"}}], "chains": [], "closed_bucket": "Unsure", "distance": 884, "geocodes": {"main": {"latitude": 55.868325, "longitude": -4.292289}, "roof": {"latitude": 55.868325, "longitude": -4.292289}}, "link": "/v3/places/4e1c4c481fc714dc5c3143ed", "location": {"address": "1397 Argyle St", "admin_region": "Scotland", "country": "GB", "formatted_address": "1397 Argyle St, Glasgow, Glasgow City, G3 8AN", "locality": "Glasgow", "post_town": "Glasgow", "postcode": "G3 8AN", "region": "Glasgow City"}, "name": "BrewDog Glasgow", "related_places": {}, "timezone": "Europe/London"}, {"fsq_id": "4b7b007cf964a5205b4b2fe3", "categories": [{"id": 13199, "name": "Indian Restaurant", "short_name": "Indian", "plural_name": "Indian Restaurants", "icon": {"prefix": "https://ss3.4sqi.net/img/categories_v2/food/indian_", "suffix": ".png"}}], "chains": [], "closed_bucket": "Unsure", "distance": 931, "geocodes": {"main": {"latitude": 55.867287, "longitude": -4.2911}, "roof": {"latitude": 55.867287, "longitude": -4.2911}}, "link": "/v3/places/4b7b007cf964a5205b4b2fe3", "location": {"address": "1355 Argyle St", "admin_region": "Scotland", "country": "GB", "formatted_address": "1355 Argyle St, Glasgow, Glasgow City, G3 8AD", "locality": "Glasgow", "post_town": "Glasgow", "postcode": "G3 8AD", "region": "Glasgow City"}, "name": "Mother India's Cafe", "related_places": {}, "timezone": "Europe/London"}, {"fsq_id": "54c61ff3498ec3e20f6a64b2", "categories": [{"id": 13035, "name": "Coffee Shop", "short_name": "Coffee Shop", "plural_name": "Coffee Shops", "icon": {"prefix": "https://ss3.4sqi.net/img/categories_v2/food/coffeeshop_", "suffix": ".png"}}, {"id": 13065, "name": "Restaurant", "short_name": "Restaurant", "plural_name": "Restaurants", "icon": {"prefix": "https://ss3.4sqi.net/img/categories_v2/food/default_", "suffix": ".png"}}], "chains": [], "closed_bucket": "LikelyOpen", "distance": 902, "geocodes": {"main": {"latitude": 55.870559, "longitude": -4.316758}, "roof": {"latitude": 55.870559, "longitude": -4.316758}}, "link": "/v3/places/54c61ff3498ec3e20f6a64b2", "location": {"address": "579 Dumbarton Rd", "admin_region": "Scotland", "country": "GB", "cross_street": "Meadow Rd", "formatted_address": "579 Dumbarton Rd (Meadow Rd), Glasgow, Glasgow City, G11 6HY", "locality": "Glasgow", "post_town": "Glasgow", "postcode": "G11 6HY", "region": "Glasgow City"}, "name": "Meadow Road Coffee", "related_places": {}, "timezone": "Europe/London"}, {"fsq_id": "56752941498ef438347e5c5e", "categories": [{"id": 13002, "name": "Bakery", "short_name": "Bakery", "plural_name": "Bakeries", "icon": {"prefix": "https://ss3.4sqi.net/img/categories_v2/food/bakery_", "suffix": ".png"}}, {"id": 13035, "name": "Coffee Shop", "short_name": "Coffee Shop", "plural_name": "Coffee Shops", "icon": {"prefix": "https://ss3.4sqi.net/img/categories_v2/food/coffeeshop_", "suffix": ".png"}}, {"id": 13145, "name": "Fast Food Restaurant", "short_name": "Fast Food", "plural_name": "Fast Food Restaurants", "icon": {"prefix": "https://ss3.4sqi.net/img/categories_v2/food/fastfood_", "suffix": ".png"}}], "chains": [], "closed_bucket": "LikelyOpen", "distance": 851, "geocodes": {"main": {"latitude": 55.86693, "longitude": -4.291825}, "roof": {"latitude": 55.86693, "longitude": -4.291825}}, "link": "/v3/places/56752941498ef438347e5c5e", "location": {"address": "27 Old Dumbarton Rd", "admin_region": "Scotland", "country": "GB", "cross_street": "", "formatted_address": "27 Old Dumbarton Rd, Glasgow, Glasgow City, G3 8RD", "locality": "Glasgow", "post_town": "Glasgow", "postcode": "G3 8RD", "region": "Glasgow City"}, "name": "Tantrum Doughnuts", "related_places": {}, "timezone": "Europe/London"}, {"fsq_id": "57f54b2d498e574bd31426ea", "categories": [{"id": 13064, "name": "Pizzeria", "short_name": "Pizza", "plural_name": "Pizzerias", "icon": {"prefix": "https://ss3.4sqi.net/img/categories_v2/food/pizza_", "suffix": ".png"}}, {"id": 13236, "name": "Italian Restaurant", "short_name": "Italian", "plural_name": "Italian Restaurants", "icon": {"prefix": "https://ss3.4sqi.net/img/categories_v2/food/italian_", "suffix": ".png"}}], "chains": [], "closed_bucket": "LikelyOpen", "distance": 908, "geocodes": {"main": {"latitude": 55.867785, "longitude": -4.291606}, "roof": {"latitude": 55.867785, "longitude": -4.291606}}, "link": "/v3/places/57f54b2d498e574bd31426ea", "location": {"address": "1377 Argyle St", "admin_region": "Scotland", "country": "GB", "cross_street": "", "formatted_address": "1377 Argyle St, Glasgow, G3 8AF", "locality": "Glasgow", "post_town": "Glasgow", "postcode": "G3 8AF"}, "name": "Baffo", "related_places": {}, "timezone": "Europe/London"}, {"fsq_id": "5635275a498e569169b27825", "categories": [{"id": 13145, "name": "Fast Food Restaurant", "short_name": "Fast Food", "plural_name": "Fast Food Restaurants", "icon": {"prefix": "https://ss3.4sqi.net/img/categories_v2/food/fastfood_", "suffix": ".png"}}, {"id": 13289, "name": "Korean Restaurant", "short_name": "Korean", "plural_name": "Korean Restaurants", "icon": {"prefix": "https://ss3.4sqi.net/img/categories_v2/food/korean_", "suffix": ".png"}}], "chains": [], "closed_bucket": "Unsure", "distance": 800, "geocodes": {"main": {"latitude": 55.871878, "longitude": -4.298324}, "roof": {"latitude": 55.871878, "longitude": -4.298324}}, "link": "/v3/places/5635275a498e569169b27825", "location": {"address": "14 Chancellor St", "admin_region": "Scotland", "country": "GB", "cross_street": "", "formatted_address": "14 Chancellor St, Glasgow, Glasgow City, G11 5RQ", "locality": "Glasgow", "post_town": "Glasgow", "postcode": "G11 5RQ", "region": "Glasgow City"}, "name": "Kimchi Cult", "related_places": {}, "timezone": "Europe/London"}, {"fsq_id": "50d20bc9e4b029fc6804c7a9", "categories": [{"id": 13003, "name": "Bar", "short_name": "Bar", "plural_name": "Bars", "icon": {"prefix": "https://ss3.4sqi.net/img/categories_v2/nightlife/pub_", "suffix": ".png"}}, {"id": 13065, "name": "Restaurant", "short_name": "Restaurant", "plural_name": "Restaurants", "icon": {"prefix": "https://ss3.4sqi.net/img/categories_v2/food/default_", "suffix": ".png"}}], "chains": [], "closed_bucket": "Unsure", "distance": 705, "geocodes": {"main": {"latitude": 55.871394, "longitude": -4.300342}, "roof": {"latitude": 55.871394, "longitude": -4.300342}}, "link": "/v3/places/50d20bc9e4b029fc6804c7a9", "location": {"address": "16 Dowanhill St", "admin_region": "Scotland", "country": "GB", "cross_street": "Dalcross Street", "formatted_address": "16 Dowanhill St (Dalcross Street), Glasgow, G11 5QS", "locality": "Glasgow", "post_town": "Glasgow", "postcode": "G11 5QS"}, "name": "The Sparkle Horse", "related_places": {}, "timezone": "Europe/London"}, {"fsq_id": "59d12b1befa82a766c5f27ec", "categories": [{"id": 13064, "name": "Pizzeria", "short_name": "Pizza", "plural_name": "Pizzerias", "icon": {"prefix": "https://ss3.4sqi.net/img/categories_v2/food/pizza_", "suffix": ".png"}}], "chains": [], "closed_bucket": "VeryLikelyOpen", "distance": 860, "geocodes": {"main": {"latitude": 55.870558, "longitude": -4.315847}, "roof": {"latitude": 55.870558, "longitude": -4.315847}}, "link": "/v3/places/59d12b1befa82a766c5f27ec", "location": {"address": "561 Dumbarton Rd", "admin_region": "Scotland", "country": "GB", "cross_street": "", "formatted_address": "561 Dumbarton Rd, Glasgow, Glasgow City, G11 6HU", "locality": "Glasgow", "post_town": "Glasgow", "postcode": "G11 6HU", "region": "Glasgow City"}, "name": "Basta", "related_places": {}, "timezone": "Europe/London"}, {"fsq_id": "4b71383ef964a520023d2de3", "categories": [{"id": 13199, "name": "Indian Restaurant", "short_name": "Indian", "plural_name": "Indian Restaurants", "icon": {"prefix": "https://ss3.4sqi.net/img/categories_v2/food/indian_", "suffix": ".png"}}], "chains": [], "closed_bucket": "Unsure", "distance": 804, "geocodes": {"main": {"latitude": 55.867306, "longitude": -4.292607}, "roof": {"latitude": 55.867306, "longitude": -4.292607}}, "link": "/v3/places/4b71383ef964a520023d2de3", "location": {"address": "76 Old Dumbarton Rd", "admin_region": "Scotland", "country": "GB", "formatted_address": "76 Old Dumbarton Rd, Glasgow, Glasgow City, G3 8RE", "locality": "Glasgow", "post_town": "Glasgow", "postcode": "G3 8RE", "region": "Glasgow City"}, "name": "Banana Leaf", "related_places": {}, "timezone": "Europe/London"}, {"fsq_id": "4bc8632f14d7952115eb68e9", "categories": [{"id": 13034, "name": "Caf\u00e9", "short_name": "Caf\u00e9", "plural_name": "Caf\u00e9s", "icon": {"prefix": "https://ss3.4sqi.net/img/categories_v2/food/cafe_", "suffix": ".png"}}, {"id": 13035, "name": "Coffee Shop", "short_name": "Coffee Shop", "plural_name": "Coffee Shops", "icon": {"prefix": "https://ss3.4sqi.net/img/categories_v2/food/coffeeshop_", "suffix": ".png"}}, {"id": 13065, "name": "Restaurant", "short_name": "Restaurant", "plural_name": "Restaurants", "icon": {"prefix": "https://ss3.4sqi.net/img/categories_v2/food/default_", "suffix": ".png"}}], "chains": [], "closed_bucket": "LikelyOpen", "distance": 634, "geocodes": {"main": {"latitude": 55.870727, "longitude": -4.300952}, "roof": {"latitude": 55.870727, "longitude": -4.300952}}, "link": "/v3/places/4bc8632f14d7952115eb68e9", "location": {"address": "167 Dumbarton Rd", "admin_region": "Scotland", "country": "GB", "cross_street": "", "formatted_address": "167 Dumbarton Rd, Glasgow, Glasgow City, G11 6AA", "locality": "Glasgow", "post_town": "Glasgow", "postcode": "G11 6AA", "region": "Glasgow City"}, "name": "Big Mouth Coffee Co", "related_places": {}, "timezone": "Europe/London"}, {"fsq_id": "4d0263ce3fd4224b72abb677", "categories": [{"id": 13018, "name": "Pub", "short_name": "Pub", "plural_name": "Pubs", "icon": {"prefix": "https://ss3.4sqi.net/img/categories_v2/nightlife/pub_", "suffix": ".png"}}], "chains": [], "closed_bucket": "Unsure", "distance": 632, "geocodes": {"drop_off": {"latitude": 55.870369, "longitude": -4.29944}, "front_door": {"latitude": 55.870348, "longitude": -4.299355}, "main": {"latitude": 55.870348, "longitude": -4.299355}, "roof": {"latitude": 55.870338, "longitude": -4.299468}}, "link": "/v3/places/4d0263ce3fd4224b72abb677", "location": {"address": "141 Dumbarton Rd", "admin_region": "Scotland", "country": "GB", "cross_street": "Byres Road", "formatted_address": "141 Dumbarton Rd (Byres Road), Glasgow, Glasgow City, G11 6PR", "locality": "Glasgow", "post_town": "Glasgow", "postcode": "G11 6PR", "region": "Glasgow City"}, "name": "Three Judges", "related_places": {}, "timezone": "Europe/London"}, {"fsq_id": "4d134b5f0ad2f04d1d59b254", "categories": [{"id": 13199, "name": "Indian Restaurant", "short_name": "Indian", "plural_name": "Indian Restaurants", "icon": {"prefix": "https://ss3.4sqi.net/img/categories_v2/food/indian_", "suffix": ".png"}}], "chains": [], "closed_bucket": "VeryLikelyOpen", "distance": 984, "geocodes": {"main": {"latitude": 55.866309, "longitude": -4.289772}, "roof": {"latitude": 55.866309, "longitude": -4.289772}}, "link": "/v3/places/4d134b5f0ad2f04d1d59b254", "location": {"address": "1293 Argyle St", "admin_region": "Scotland", "country": "GB", "cross_street": "", "formatted_address": "1293 Argyle St, Glasgow, Glasgow City, G3 8TL", "locality": "Glasgow", "post_town": "Glasgow", "postcode": "G3 8TL", "region": "Glasgow City"}, "name": "Green Chilli Cafe", "related_places": {}, "timezone": "Europe/London"}, {"fsq_id": "57cf101c498e00f91f9e64cc", "categories": [{"id": 13006, "name": "Beer Bar", "short_name": "Beer Bar", "plural_name": "Beer Bars", "icon": {"prefix": "https://ss3.4sqi.net/img/categories_v2/nightlife/pub_", "suffix": ".png"}}, {"id": 13018, "name": "Pub", "short_name": "Pub", "plural_name": "Pubs", "icon": {"prefix": "https://ss3.4sqi.net/img/categories_v2/nightlife/pub_", "suffix": ".png"}}, {"id": 13065, "name": "Restaurant", "short_name": "Restaurant", "plural_name": "Restaurants", "icon": {"prefix": "https://ss3.4sqi.net/img/categories_v2/food/default_", "suffix": ".png"}}], "chains": [], "closed_bucket": "LikelyOpen", "distance": 636, "geocodes": {"drop_off": {"latitude": 55.870744, "longitude": -4.300571}, "main": {"latitude": 55.870642, "longitude": -4.300599}, "roof": {"latitude": 55.870642, "longitude": -4.300599}}, "link": "/v3/places/57cf101c498e00f91f9e64cc", "location": {"address": "165 Dumbarton Rd", "admin_region": "Scotland", "country": "GB", "cross_street": "", "formatted_address": "165 Dumbarton Rd, Glasgow, G11 6AA", "locality": "Glasgow", "post_town": "Glasgow", "postcode": "G11 6AA"}, "name": "Bag O Nails", "related_places": {}, "timezone": "Europe/London"}, {"fsq_id": "591a0dcd81348848d830ae17", "categories": [{"id": 13065, "name": "Restaurant", "short_name": "Restaurant", "plural_name": "Restaurants", "icon": {"prefix": "https://ss3.4sqi.net/img/categories_v2/food/default_", "suffix": ".png"}}], "chains": [], "closed_bucket": "LikelyOpen", "distance": 676, "geocodes": {"drop_off": {"latitude": 55.871534, "longitude": -4.302502}, "main": {"latitude": 55.871626, "longitude": -4.302733}, "roof": {"latitude": 55.871626, "longitude": -4.302733}}, "link": "/v3/places/591a0dcd81348848d830ae17", "location": {"address": "27 Hyndland St", "admin_region": "Scotland", "country": "GB", "cross_street": "", "formatted_address": "27 Hyndland St, Glasgow, Glasgow City, G11 5QF", "locality": "Glasgow", "post_town": "Glasgow", "postcode": "G11 5QF", "region": "Glasgow City"}, "name": "Partick Duck Club", "related_places": {}, "timezone": "Europe/London"}, {"fsq_id": "57ff424738fa621fceda6354", "categories": [{"id": 13035, "name": "Coffee Shop", "short_name": "Coffee Shop", "plural_name": "Coffee Shops", "icon": {"prefix": "https://ss3.4sqi.net/img/categories_v2/food/coffeeshop_", "suffix": ".png"}}, {"id": 13065, "name": "Restaurant", "short_name": "Restaurant", "plural_name": "Restaurants", "icon": {"prefix": "https://ss3.4sqi.net/img/categories_v2/food/default_", "suffix": ".png"}}], "chains": [], "closed_bucket": "LikelyOpen", "distance": 590, "geocodes": {"drop_off": {"latitude": 55.870798, "longitude": -4.307859}, "main": {"latitude": 55.8707, "longitude": -4.307858}, "roof": {"latitude": 55.8707, "longitude": -4.307858}}, "link": "/v3/places/57ff424738fa621fceda6354", "location": {"address": "381 Dumbarton Rd", "admin_region": "Scotland", "country": "GB", "cross_street": "Vine Street", "formatted_address": "381 Dumbarton Rd (Vine Street), Glasgow, Glasgow City, G11 6BA", "locality": "Glasgow", "post_town": "Glasgow", "postcode": "G11 6BA", "region": "Glasgow City"}, "name": "Caffe Monza", "related_places": {}, "timezone": "Europe/London"}, {"fsq_id": "4d876a92651041bd10349b30", "categories": [{"id": 13039, "name": "Deli", "short_name": "Deli", "plural_name": "Delis", "icon": {"prefix": "https://ss3.4sqi.net/img/categories_v2/food/deli_", "suffix": ".png"}}, {"id": 13145, "name": "Fast Food Restaurant", "short_name": "Fast Food", "plural_name": "Fast Food Restaurants", "icon": {"prefix": "https://ss3.4sqi.net/img/categories_v2/food/fastfood_", "suffix": ".png"}}, {"id": 13334, "name": "Sandwich Spot", "short_name": "Sandwich Spot", "plural_name": "Sandwich Spots", "icon": {"prefix": "https://ss3.4sqi.net/img/categories_v2/food/deli_", "suffix": ".png"}}], "chains": [{"id": "ab4bee40-d68a-012e-5619-003048cad9da", "name": "Subway"}], "closed_bucket": "VeryLikelyOpen", "distance": 653, "geocodes": {"main": {"latitude": 55.870824, "longitude": -4.300184}, "roof": {"latitude": 55.870824, "longitude": -4.300184}}, "link": "/v3/places/4d876a92651041bd10349b30", "location": {"address": "172 Dumbarton Rd", "admin_region": "Scotland", "country": "GB", "formatted_address": "172 Dumbarton Rd, Glasgow, G11 6XE", "locality": "Glasgow", "post_town": "Glasgow", "postcode": "G11 6XE"}, "name": "Subway", "related_places": {}, "timezone": "Europe/London"}, {"fsq_id": "4ee28df99a521fcbefc9cf9a", "categories": [{"id": 13003, "name": "Bar", "short_name": "Bar", "plural_name": "Bars", "icon": {"prefix": "https://ss3.4sqi.net/img/categories_v2/nightlife/pub_", "suffix": ".png"}}], "chains": [], "closed_bucket": "LikelyOpen", "distance": 831, "geocodes": {"main": {"latitude": 55.866966, "longitude": -4.292106}, "roof": {"latitude": 55.866966, "longitude": -4.292106}}, "link": "/v3/places/4ee28df99a521fcbefc9cf9a", "location": {"address": "41 Old Dumbarton Rd", "admin_region": "Scotland", "country": "GB", "cross_street": "Yorkhill St", "formatted_address": "41 Old Dumbarton Rd (Yorkhill St), Glasgow, G3 8RD", "locality": "Glasgow", "post_town": "Glasgow", "postcode": "G3 8RD"}, "name": "Dukes Bar", "related_places": {}, "timezone": "Europe/London"}, {"fsq_id": "4b8135e7f964a520949a30e3", "categories": [{"id": 13031, "name": "Burger Joint", "short_name": "Burgers", "plural_name": "Burger Joints", "icon": {"prefix": "https://ss3.4sqi.net/img/categories_v2/food/burger_", "suffix": ".png"}}, {"id": 13145, "name": "Fast Food Restaurant", "short_name": "Fast Food", "plural_name": "Fast Food Restaurants", "icon": {"prefix": "https://ss3.4sqi.net/img/categories_v2/food/fastfood_", "suffix": ".png"}}], "chains": [{"id": "ab4a3530-d68a-012e-5619-003048cad9da", "name": "McDonald's"}], "closed_bucket": "VeryLikelyOpen", "distance": 875, "geocodes": {"main": {"latitude": 55.872141, "longitude": -4.313057}, "roof": {"latitude": 55.872141, "longitude": -4.313057}}, "link": "/v3/places/4b8135e7f964a520949a30e3", "location": {"address": "West End Retail Park", "admin_region": "Scotland", "country": "GB", "cross_street": "at Dumbarton Rd", "formatted_address": "West End Retail Park (at Dumbarton Rd), Glasgow, Glasgow City, G11 7RY", "locality": "Glasgow", "post_town": "Glasgow", "postcode": "G11 7RY", "region": "Glasgow City"}, "name": "McDonald's", "related_places": {}, "timezone": "Europe/London"}, {"fsq_id": "4e8ef9707ee6c06365c0a110", "categories": [{"id": 13039, "name": "Deli", "short_name": "Deli", "plural_name": "Delis", "icon": {"prefix": "https://ss3.4sqi.net/img/categories_v2/food/deli_", "suffix": ".png"}}, {"id": 13145, "name": "Fast Food Restaurant", "short_name": "Fast Food", "plural_name": "Fast Food Restaurants", "icon": {"prefix": "https://ss3.4sqi.net/img/categories_v2/food/fastfood_", "suffix": ".png"}}, {"id": 13334, "name": "Sandwich Spot", "short_name": "Sandwich Spot", "plural_name": "Sandwich Spots", "icon": {"prefix": "https://ss3.4sqi.net/img/categories_v2/food/deli_", "suffix": ".png"}}], "chains": [{"id": "ab4bee40-d68a-012e-5619-003048cad9da", "name": "Subway"}], "closed_bucket": "VeryLikelyOpen", "distance": 504, "geocodes": {"main": {"latitude": 55.862844, "longitude": -4.311642}, "roof": {"latitude": 55.862844, "longitude": -4.311642}}, "link": "/v3/places/4e8ef9707ee6c06365c0a110", "location": {"address": "795 Govan Cross Shopping Center", "address_extended": "Unit 3", "admin_region": "Scotland", "country": "GB", "formatted_address": "795 Govan Cross Shopping Center, Glasgow, G51 3JW", "locality": "Glasgow", "post_town": "Glasgow", "postcode": "G51 3JW"}, "name": "Subway", "related_places": {"parent": {"fsq_id": "4ca47d54d5a2a1433df85190", "categories": [{"id": 17115, "name": "Shopping Plaza", "short_name": "Shopping Plaza", "plural_name": "Shopping Plazas", "icon": {"prefix": "https://ss3.4sqi.net/img/categories_v2/shops/mall_", "suffix": ".png"}}], "name": "Govan Cross Shopping Centre"}}, "timezone": "Europe/London"}, {"fsq_id": "529f473d11d244431bf81587", "categories": [{"id": 13003, "name": "Bar", "short_name": "Bar", "plural_name": "Bars", "icon": {"prefix": "https://ss3.4sqi.net/img/categories_v2/nightlife/pub_", "suffix": ".png"}}, {"id": 13057, "name": "Gastropub", "short_name": "Gastropub", "plural_name": "Gastropubs", "icon": {"prefix": "https://ss3.4sqi.net/img/categories_v2/food/gastropub_", "suffix": ".png"}}], "chains": [], "closed_bucket": "LikelyOpen", "distance": 629, "geocodes": {"main": {"latitude": 55.870641, "longitude": -4.309819}, "roof": {"latitude": 55.870641, "longitude": -4.309819}}, "link": "/v3/places/529f473d11d244431bf81587", "location": {"address": "427-429 Dumbarton Rd", "admin_region": "Scotland", "country": "GB", "cross_street": "", "formatted_address": "427-429 Dumbarton Rd, Glasgow, G11 6DD", "locality": "Glasgow", "post_town": "Glasgow", "postcode": "G11 6DD"}, "name": "Deoch an Dorus", "related_places": {}, "timezone": "Europe/London"}, {"fsq_id": "4c3a2d4f2c8020a120f58d00", "categories": [{"id": 13003, "name": "Bar", "short_name": "Bar", "plural_name": "Bars", "icon": {"prefix": "https://ss3.4sqi.net/img/categories_v2/nightlife/pub_", "suffix": ".png"}}], "chains": [], "closed_bucket": "VeryLikelyOpen", "distance": 706, "geocodes": {"main": {"latitude": 55.870161, "longitude": -4.297043}, "roof": {"latitude": 55.870161, "longitude": -4.297043}}, "link": "/v3/places/4c3a2d4f2c8020a120f58d00", "location": {"address": "5-13 Thurso St", "country": "GB", "cross_street": "", "formatted_address": "5-13 Thurso St, Glasgow, Glasgow City", "locality": "Glasgow", "post_town": "Glasgow", "region": "Glasgow City"}, "name": "Gallus", "related_places": {}, "timezone": "Europe/London"}, {"fsq_id": "526ba0c3498ed07193995d14", "categories": [{"id": 13034, "name": "Caf\u00e9", "short_name": "Caf\u00e9", "plural_name": "Caf\u00e9s", "icon": {"prefix": "https://ss3.4sqi.net/img/categories_v2/food/cafe_", "suffix": ".png"}}, {"id": 13065, "name": "Restaurant", "short_name": "Restaurant", "plural_name": "Restaurants", "icon": {"prefix": "https://ss3.4sqi.net/img/categories_v2/food/default_", "suffix": ".png"}}], "chains": [], "closed_bucket": "LikelyOpen", "distance": 471, "geocodes": {"main": {"latitude": 55.862838, "longitude": -4.310836}, "roof": {"latitude": 55.862838, "longitude": -4.310836}}, "link": "/v3/places/526ba0c3498ed07193995d14", "location": {"address": "794 Govan Rd", "admin_region": "Scotland", "country": "GB", "cross_street": "", "formatted_address": "794 Govan Rd, Glasgow, G51 2YL", "locality": "Glasgow", "post_town": "Glasgow", "postcode": "G51 2YL"}, "name": "Cafe 13", "related_places": {}, "timezone": "Europe/London"}, {"fsq_id": "4be1b9e787e42d7f97ad870b", "categories": [{"id": 13003, "name": "Bar", "short_name": "Bar", "plural_name": "Bars", "icon": {"prefix": "https://ss3.4sqi.net/img/categories_v2/nightlife/pub_", "suffix": ".png"}}], "chains": [], "closed_bucket": "VeryLikelyOpen", "distance": 552, "geocodes": {"main": {"latitude": 55.863336, "longitude": -4.313165}, "roof": {"latitude": 55.863336, "longitude": -4.313165}}, "link": "/v3/places/4be1b9e787e42d7f97ad870b", "location": {"country": "GB", "formatted_address": ""}, "name": "The Brechin", "related_places": {}, "timezone": "Europe/London"}, {"fsq_id": "6162cbbce3eba6051865dde8", "categories": [{"id": 13001, "name": "Bagel Shop", "short_name": "Bagels", "plural_name": "Bagel Shops", "icon": {"prefix": "https://ss3.4sqi.net/img/categories_v2/food/bagels_", "suffix": ".png"}}, {"id": 13145, "name": "Fast Food Restaurant", "short_name": "Fast Food", "plural_name": "Fast Food Restaurants", "icon": {"prefix": "https://ss3.4sqi.net/img/categories_v2/food/fastfood_", "suffix": ".png"}}], "chains": [], "closed_bucket": "Unsure", "distance": 577, "geocodes": {"drop_off": {"latitude": 55.870818, "longitude": -4.305165}, "main": {"latitude": 55.87096, "longitude": -4.305166}, "roof": {"latitude": 55.87096, "longitude": -4.305166}}, "link": "/v3/places/6162cbbce3eba6051865dde8", "location": {"address": "292 Dumbarton Rd Patrick", "admin_region": "Scotland", "country": "GB", "cross_street": "", "formatted_address": "292 Dumbarton Rd Patrick, Glasgow, Glasgow City, G11 6TD", "locality": "Glasgow", "post_town": "Glasgow", "postcode": "G11 6TD", "region": "Glasgow City"}, "name": "Brawsome Bagels", "related_places": {}, "timezone": "Europe/London"}, {"fsq_id": "518503aa498e995ad7e0f562", "categories": [{"id": 13018, "name": "Pub", "short_name": "Pub", "plural_name": "Pubs", "icon": {"prefix": "https://ss3.4sqi.net/img/categories_v2/nightlife/pub_", "suffix": ".png"}}, {"id": 13065, "name": "Restaurant", "short_name": "Restaurant", "plural_name": "Restaurants", "icon": {"prefix": "https://ss3.4sqi.net/img/categories_v2/food/default_", "suffix": ".png"}}], "chains": [], "closed_bucket": "LikelyOpen", "distance": 584, "geocodes": {"main": {"latitude": 55.870958, "longitude": -4.30152}, "roof": {"latitude": 55.870958, "longitude": -4.30152}}, "link": "/v3/places/518503aa498e995ad7e0f562", "location": {"address": "206 Dumbarton Rd, Partick", "admin_region": "Scotland", "country": "GB", "cross_street": "", "formatted_address": "206 Dumbarton Rd, Partick, Glasgow, Glasgow City, G11 6UN", "locality": "Glasgow", "post_town": "Glasgow", "postcode": "G11 6UN", "region": "Glasgow City"}, "name": "Lios Mor", "related_places": {}, "timezone": "Europe/London"}, {"fsq_id": "4dc52632c65b89d3ca6613c5", "categories": [{"id": 13034, "name": "Caf\u00e9", "short_name": "Caf\u00e9", "plural_name": "Caf\u00e9s", "icon": {"prefix": "https://ss3.4sqi.net/img/categories_v2/food/cafe_", "suffix": ".png"}}, {"id": 13035, "name": "Coffee Shop", "short_name": "Coffee Shop", "plural_name": "Coffee Shops", "icon": {"prefix": "https://ss3.4sqi.net/img/categories_v2/food/coffeeshop_", "suffix": ".png"}}, {"id": 13065, "name": "Restaurant", "short_name": "Restaurant", "plural_name": "Restaurants", "icon": {"prefix": "https://ss3.4sqi.net/img/categories_v2/food/default_", "suffix": ".png"}}], "chains": [], "closed_bucket": "LikelyOpen", "distance": 585, "geocodes": {"main": {"latitude": 55.871124, "longitude": -4.305978}, "roof": {"latitude": 55.871124, "longitude": -4.305978}}, "link": "/v3/places/4dc52632c65b89d3ca6613c5", "location": {"address": "9 Gardner St", "admin_region": "Scotland", "country": "GB", "cross_street": "", "formatted_address": "9 Gardner St, Glasgow, Glasgow City, G11 5NR", "locality": "Glasgow", "post_town": "Glasgow", "postcode": "G11 5NR", "region": "Glasgow City"}, "name": "Tea Garden", "related_places": {}, "timezone": "Europe/London"}, {"fsq_id": "0f9eb7a50a2c48fc1462d423", "categories": [{"id": 13065, "name": "Restaurant", "short_name": "Restaurant", "plural_name": "Restaurants", "icon": {"prefix": "https://ss3.4sqi.net/img/categories_v2/food/default_", "suffix": ".png"}}], "chains": [], "closed_bucket": "VeryLikelyOpen", "distance": 587, "geocodes": {"drop_off": {"latitude": 55.870005, "longitude": -4.299605}, "main": {"latitude": 55.869998, "longitude": -4.299878}, "roof": {"latitude": 55.869998, "longitude": -4.299878}}, "link": "/v3/places/0f9eb7a50a2c48fc1462d423", "location": {"address": "2 Partick Bridge St", "admin_region": "Scotland", "country": "GB", "formatted_address": "2 Partick Bridge St, Glasgow, G11 6PL", "locality": "Glasgow", "post_town": "Glasgow", "postcode": "G11 6PL"}, "name": "Bibimbap West End", "related_places": {}, "timezone": "Europe/London"}, {"fsq_id": "606873ebf9f8281db6d0d7fb", "categories": [{"id": 13032, "name": "Cafe, Coffee, and Tea House", "short_name": "Cafe, Coffee, and Tea House", "plural_name": "Cafes, Coffee, and Tea Houses", "icon": {"prefix": "https://ss3.4sqi.net/img/categories_v2/food/coffeeshop_", "suffix": ".png"}}, {"id": 13379, "name": "Vietnamese Restaurant", "short_name": "Vietnamese", "plural_name": "Vietnamese Restaurants", "icon": {"prefix": "https://ss3.4sqi.net/img/categories_v2/food/vietnamese_", "suffix": ".png"}}], "chains": [], "closed_bucket": "LikelyOpen", "distance": 592, "geocodes": {"drop_off": {"latitude": 55.870789, "longitude": -4.308699}, "main": {"latitude": 55.870652, "longitude": -4.308698}, "roof": {"latitude": 55.870652, "longitude": -4.308698}}, "link": "/v3/places/606873ebf9f8281db6d0d7fb", "location": {"address": "401 Dumbarton Rd", "admin_region": "Scotland", "country": "GB", "cross_street": "", "formatted_address": "401 Dumbarton Rd, Glasgow, Glasgow City, G11 6BE", "locality": "Glasgow", "post_town": "Glasgow", "postcode": "G11 6BE", "region": "Glasgow City"}, "name": "Banh Mi & Tea", "related_places": {}, "timezone": "Europe/London"}, {"fsq_id": "58cc2a421174200c2f08a5f4", "categories": [{"id": 13046, "name": "Ice Cream Parlor", "short_name": "Ice Cream", "plural_name": "Ice Cream Parlors", "icon": {"prefix": "https://ss3.4sqi.net/img/categories_v2/food/icecream_", "suffix": ".png"}}, {"id": 13065, "name": "Restaurant", "short_name": "Restaurant", "plural_name": "Restaurants", "icon": {"prefix": "https://ss3.4sqi.net/img/categories_v2/food/default_", "suffix": ".png"}}], "chains": [], "closed_bucket": "VeryLikelyOpen", "distance": 612, "geocodes": {"drop_off": {"latitude": 55.860351, "longitude": -4.30359}, "main": {"latitude": 55.860195, "longitude": -4.303637}, "roof": {"latitude": 55.860195, "longitude": -4.303637}}, "link": "/v3/places/58cc2a421174200c2f08a5f4", "location": {"address": "585 Govan Rd", "admin_region": "Scotland", "country": "GB", "cross_street": "", "formatted_address": "585 Govan Rd, Glasgow, G51 2AS", "locality": "Glasgow", "post_town": "Glasgow", "postcode": "G51 2AS"}, "name": "Harleys Ice Cream Parlour", "related_places": {}, "timezone": "Europe/London"}, {"fsq_id": "5a19a5503731ee4c48d53435", "categories": [{"id": 13352, "name": "Thai Restaurant", "short_name": "Thai", "plural_name": "Thai Restaurants", "icon": {"prefix": "https://ss3.4sqi.net/img/categories_v2/food/thai_", "suffix": ".png"}}], "chains": [], "closed_bucket": "LikelyOpen", "distance": 625, "geocodes": {"main": {"latitude": 55.870211, "longitude": -4.299849}, "roof": {"latitude": 55.870211, "longitude": -4.299849}}, "link": "/v3/places/5a19a5503731ee4c48d53435", "location": {"address": "2 Partick Bridge St", "admin_region": "Scotland", "country": "GB", "cross_street": "2 Partick Bridge Street", "formatted_address": "2 Partick Bridge St (2 Partick Bridge Street), Glasgow, Glasgow City, G11 6PL", "locality": "Glasgow", "post_town": "Glasgow", "postcode": "G11 6PL", "region": "Glasgow City"}, "name": "Nam Tuk", "related_places": {}, "timezone": "Europe/London"}, {"fsq_id": "0f8bda6b6c6448584631c039", "categories": [{"id": 13003, "name": "Bar", "short_name": "Bar", "plural_name": "Bars", "icon": {"prefix": "https://ss3.4sqi.net/img/categories_v2/nightlife/pub_", "suffix": ".png"}}], "chains": [], "closed_bucket": "LikelyOpen", "distance": 626, "geocodes": {"main": {"latitude": 55.870642, "longitude": -4.300599}, "roof": {"latitude": 55.870642, "longitude": -4.300599}}, "link": "/v3/places/0f8bda6b6c6448584631c039", "location": {"address": "163 Dumbarton Rd", "admin_region": "Scotland", "country": "GB", "formatted_address": "163 Dumbarton Rd, Glasgow, G11 6AA", "locality": "Glasgow", "post_town": "Glasgow", "postcode": "G11 6AA"}, "name": "Partick Tavern", "related_places": {}, "timezone": "Europe/London"}, {"fsq_id": "4bdd742e4ffaa593ce726ff7", "categories": [{"id": 13032, "name": "Cafe, Coffee, and Tea House", "short_name": "Cafe, Coffee, and Tea House", "plural_name": "Cafes, Coffee, and Tea Houses", "icon": {"prefix": "https://ss3.4sqi.net/img/categories_v2/food/coffeeshop_", "suffix": ".png"}}, {"id": 13065, "name": "Restaurant", "short_name": "Restaurant", "plural_name": "Restaurants", "icon": {"prefix": "https://ss3.4sqi.net/img/categories_v2/food/default_", "suffix": ".png"}}], "chains": [], "closed_bucket": "LikelyOpen", "distance": 629, "geocodes": {"main": {"latitude": 55.870976, "longitude": -4.301205}, "roof": {"latitude": 55.870976, "longitude": -4.301205}}, "link": "/v3/places/4bdd742e4ffaa593ce726ff7", "location": {"address": "200 Dumbarton Rd", "admin_region": "Scotland", "country": "GB", "cross_street": "", "formatted_address": "200 Dumbarton Rd, Glasgow, Glasgow City, G11 6UN", "locality": "Glasgow", "post_town": "Glasgow", "postcode": "G11 6UN", "region": "Glasgow City"}, "name": "Cullis Cafe Diner", "related_places": {}, "timezone": "Europe/London"}, {"fsq_id": "535339a2498ea554d0d1f468", "categories": [{"id": 13003, "name": "Bar", "short_name": "Bar", "plural_name": "Bars", "icon": {"prefix": "https://ss3.4sqi.net/img/categories_v2/nightlife/pub_", "suffix": ".png"}}, {"id": 13383, "name": "Steakhouse", "short_name": "Steakhouse", "plural_name": "Steakhouses", "icon": {"prefix": "https://ss3.4sqi.net/img/categories_v2/food/steakhouse_", "suffix": ".png"}}], "chains": [], "closed_bucket": "LikelyOpen", "distance": 630, "geocodes": {"main": {"latitude": 55.87018, "longitude": -4.299463}, "roof": {"latitude": 55.87018, "longitude": -4.299463}}, "link": "/v3/places/535339a2498ea554d0d1f468", "location": {"address": "9-21 Partick Bridge St", "admin_region": "Scotland", "country": "GB", "formatted_address": "9-21 Partick Bridge St, Glasgow, G11 6PN", "locality": "Glasgow", "post_town": "Glasgow", "postcode": "G11 6PN"}, "name": "Hyde Bar & Dining", "related_places": {}, "timezone": "Europe/London"}, {"fsq_id": "96494a7f98794f4a37f19ed4", "categories": [{"id": 13035, "name": "Coffee Shop", "short_name": "Coffee Shop", "plural_name": "Coffee Shops", "icon": {"prefix": "https://ss3.4sqi.net/img/categories_v2/food/coffeeshop_", "suffix": ".png"}}, {"id": 13065, "name": "Restaurant", "short_name": "Restaurant", "plural_name": "Restaurants", "icon": {"prefix": "https://ss3.4sqi.net/img/categories_v2/food/default_", "suffix": ".png"}}], "chains": [], "closed_bucket": "LikelyOpen", "distance": 651, "geocodes": {"main": {"latitude": 55.870854, "longitude": -4.30057}, "roof": {"latitude": 55.870854, "longitude": -4.30057}}, "link": "/v3/places/96494a7f98794f4a37f19ed4", "location": {"address": "180 Dumbarton Rd", "admin_region": "Scotland", "country": "GB", "formatted_address": "180 Dumbarton Rd, Glasgow, G11 6XE", "locality": "Glasgow", "post_town": "Glasgow", "postcode": "G11 6XE"}, "name": "Abarcrombys", "related_places": {}, "timezone": "Europe/London"}, {"fsq_id": "beee60ef9bcb4210057922ab", "categories": [{"id": 13068, "name": "American Restaurant", "short_name": "American", "plural_name": "American Restaurants", "icon": {"prefix": "https://ss3.4sqi.net/img/categories_v2/food/default_", "suffix": ".png"}}], "chains": [], "closed_bucket": "LikelyOpen", "distance": 658, "geocodes": {"drop_off": {"latitude": 55.870178, "longitude": -4.298284}, "main": {"latitude": 55.870088, "longitude": -4.298303}, "roof": {"latitude": 55.870088, "longitude": -4.298303}}, "link": "/v3/places/beee60ef9bcb4210057922ab", "location": {"address": "102 Dumbarton Rd", "admin_region": "Scotland", "country": "GB", "formatted_address": "102 Dumbarton Rd, Glasgow, G11 6NX", "locality": "Glasgow", "post_town": "Glasgow", "postcode": "G11 6NX"}, "name": "Trideca Diner", "related_places": {}, "timezone": "Europe/London"}, {"fsq_id": "4cc743570fa2721e902a5db1", "categories": [{"id": 13099, "name": "Chinese Restaurant", "short_name": "Chinese", "plural_name": "Chinese Restaurants", "icon": {"prefix": "https://ss3.4sqi.net/img/categories_v2/food/asian_", "suffix": ".png"}}, {"id": 13145, "name": "Fast Food Restaurant", "short_name": "Fast Food", "plural_name": "Fast Food Restaurants", "icon": {"prefix": "https://ss3.4sqi.net/img/categories_v2/food/fastfood_", "suffix": ".png"}}], "chains": [], "closed_bucket": "LikelyOpen", "distance": 672, "geocodes": {"drop_off": {"latitude": 55.870144, "longitude": -4.298122}, "main": {"latitude": 55.870258, "longitude": -4.298098}, "roof": {"latitude": 55.870258, "longitude": -4.298098}}, "link": "/v3/places/4cc743570fa2721e902a5db1", "location": {"address": "96 Dumbarton Rd", "admin_region": "Scotland", "country": "GB", "cross_street": "", "formatted_address": "96 Dumbarton Rd, Glasgow, Glasgow City, G11 6NX", "locality": "Glasgow", "post_town": "Glasgow", "postcode": "G11 6NX", "region": "Glasgow City"}, "name": "Rice & Noodle", "related_places": {}, "timezone": "Europe/London"}, {"fsq_id": "5deaade92361ea00081b554d", "categories": [{"id": 13377, "name": "Vegan and Vegetarian Restaurant", "short_name": "Vegan and Vegetarian Restaurant", "plural_name": "Vegan and Vegetarian Restaurants", "icon": {"prefix": "https://ss3.4sqi.net/img/categories_v2/food/vegetarian_", "suffix": ".png"}}], "chains": [], "closed_bucket": "VeryLikelyOpen", "distance": 683, "geocodes": {"drop_off": {"latitude": 55.870754, "longitude": -4.311508}, "main": {"latitude": 55.87086, "longitude": -4.311509}, "roof": {"latitude": 55.87086, "longitude": -4.311509}}, "link": "/v3/places/5deaade92361ea00081b554d", "location": {"address": "494 Dumbarton Rd", "admin_region": "Scotland", "country": "GB", "cross_street": "", "formatted_address": "494 Dumbarton Rd, Glasgow, Glasgow City, G11 6SL", "locality": "Glasgow", "post_town": "Glasgow", "postcode": "G11 6SL", "region": "Glasgow City"}, "name": "Suissi Vegan Kitchen", "related_places": {}, "timezone": "Europe/London"}, {"fsq_id": "52504c67498e9e2eb8cbf9f3", "categories": [{"id": 13016, "name": "Lounge", "short_name": "Lounge", "plural_name": "Lounges", "icon": {"prefix": "https://ss3.4sqi.net/img/categories_v2/nightlife/default_", "suffix": ".png"}}, {"id": 13022, "name": "Sports Bar", "short_name": "Sports Bar", "plural_name": "Sports Bars", "icon": {"prefix": "https://ss3.4sqi.net/img/categories_v2/nightlife/sportsbar_", "suffix": ".png"}}], "chains": [], "closed_bucket": "VeryLikelyOpen", "distance": 701, "geocodes": {"main": {"latitude": 55.863373, "longitude": -4.313447}, "roof": {"latitude": 55.863373, "longitude": -4.313447}}, "link": "/v3/places/52504c67498e9e2eb8cbf9f3", "location": {"address": "803 Govan Rd", "admin_region": "Scotland", "country": "GB", "cross_street": "", "formatted_address": "803 Govan Rd, Govan, Glasgow City, G51 3DJ", "locality": "Govan", "post_town": "Glasgow", "postcode": "G51 3DJ", "region": "Glasgow City"}, "name": "Brechin Bar", "related_places": {}, "timezone": "Europe/London"}, {"fsq_id": "4dc6f85b52b1e8f9f7fa4354", "categories": [{"id": 13018, "name": "Pub", "short_name": "Pub", "plural_name": "Pubs", "icon": {"prefix": "https://ss3.4sqi.net/img/categories_v2/nightlife/pub_", "suffix": ".png"}}], "chains": [], "closed_bucket": "VeryLikelyOpen", "distance": 704, "geocodes": {"main": {"latitude": 55.870611, "longitude": -4.312167}, "roof": {"latitude": 55.870611, "longitude": -4.312167}}, "link": "/v3/places/4dc6f85b52b1e8f9f7fa4354", "location": {"address": "483 Dumbarton Rd", "admin_region": "Scotland", "country": "GB", "cross_street": "", "formatted_address": "483 Dumbarton Rd, Glasgow, Glasgow City, G11 6EJ", "locality": "Glasgow", "post_town": "Glasgow", "postcode": "G11 6EJ", "region": "Glasgow City"}, "name": "The Rosevale Tavern", "related_places": {}, "timezone": "Europe/London"}, {"fsq_id": "5b8adc07234724002c521848", "categories": [{"id": 13236, "name": "Italian Restaurant", "short_name": "Italian", "plural_name": "Italian Restaurants", "icon": {"prefix": "https://ss3.4sqi.net/img/categories_v2/food/italian_", "suffix": ".png"}}, {"id": 13345, "name": "Spanish Restaurant", "short_name": "Spanish", "plural_name": "Spanish Restaurants", "icon": {"prefix": "https://ss3.4sqi.net/img/categories_v2/food/spanish_", "suffix": ".png"}}], "chains": [], "closed_bucket": "LikelyOpen", "distance": 708, "geocodes": {"main": {"latitude": 55.871844, "longitude": -4.3026}, "roof": {"latitude": 55.871844, "longitude": -4.3026}}, "link": "/v3/places/5b8adc07234724002c521848", "location": {"address": "39-41 Hyndland St", "admin_region": "Scotland", "country": "GB", "cross_street": "", "formatted_address": "39-41 Hyndland St, Glasgow, Glasgow City, G11 5QF", "locality": "Glasgow", "post_town": "Glasgow", "postcode": "G11 5QF", "region": "Glasgow City"}, "name": "Rossini", "related_places": {}, "timezone": "Europe/London"}, {"fsq_id": "64a44a7aaf401651d63db2a8", "categories": [{"id": 13148, "name": "French Restaurant", "short_name": "French", "plural_name": "French Restaurants", "icon": {"prefix": "https://ss3.4sqi.net/img/categories_v2/food/french_", "suffix": ".png"}}, {"id": 13334, "name": "Sandwich Spot", "short_name": "Sandwich Spot", "plural_name": "Sandwich Spots", "icon": {"prefix": "https://ss3.4sqi.net/img/categories_v2/food/deli_", "suffix": ".png"}}], "chains": [], "closed_bucket": "Unsure", "distance": 710, "geocodes": {"main": {"latitude": 55.870989, "longitude": -4.299006}}, "link": "/v3/places/64a44a7aaf401651d63db2a8", "location": {"address": "21 Byres Road", "admin_region": "Scotland", "country": "GB", "cross_street": "", "formatted_address": "21 Byres Road, Glasgow, Glasgow City, G11 5RD", "locality": "Glasgow", "post_town": "Glasgow", "postcode": "G11 5RD", "region": "Glasgow City"}, "name": "Le Petit Coq", "related_places": {}, "timezone": "Europe/London"}, {"fsq_id": "57cb0ed5498ec51d0b10af25", "categories": [{"id": 13072, "name": "Asian Restaurant", "short_name": "Asian", "plural_name": "Asian Restaurants", "icon": {"prefix": "https://ss3.4sqi.net/img/categories_v2/food/asian_", "suffix": ".png"}}], "chains": [], "closed_bucket": "Unsure", "distance": 745, "geocodes": {"main": {"latitude": 55.871115, "longitude": -4.312569}, "roof": {"latitude": 55.871115, "longitude": -4.312569}}, "link": "/v3/places/57cb0ed5498ec51d0b10af25", "location": {"address": "16 Crow Rd", "admin_region": "Scotland", "country": "GB", "cross_street": "", "formatted_address": "16 Crow Rd, Glasgow, Glasgow City, G11 7RT", "locality": "Glasgow", "post_town": "Glasgow", "postcode": "G11 7RT", "region": "Glasgow City"}, "name": "The Best Curry", "related_places": {}, "timezone": "Europe/London"}, {"fsq_id": "5495ccd3498e80c1f991370b", "categories": [{"id": 13199, "name": "Indian Restaurant", "short_name": "Indian", "plural_name": "Indian Restaurants", "icon": {"prefix": "https://ss3.4sqi.net/img/categories_v2/food/indian_", "suffix": ".png"}}], "chains": [], "closed_bucket": "LikelyOpen", "distance": 747, "geocodes": {"drop_off": {"latitude": 55.871198, "longitude": -4.298554}, "main": {"latitude": 55.871332, "longitude": -4.298657}, "roof": {"latitude": 55.871332, "longitude": -4.298657}}, "link": "/v3/places/5495ccd3498e80c1f991370b", "location": {"address": "41 Byres Rd", "admin_region": "Scotland", "country": "GB", "cross_street": "", "formatted_address": "41 Byres Rd, Glasgow, Glasgow City, G11 5RG", "locality": "Glasgow", "post_town": "Glasgow", "postcode": "G11 5RG", "region": "Glasgow City"}, "name": "Little Curry House", "related_places": {}, "timezone": "Europe/London"}, {"fsq_id": "5b8002af234724002c324dec", "categories": [{"id": 13003, "name": "Bar", "short_name": "Bar", "plural_name": "Bars", "icon": {"prefix": "https://ss3.4sqi.net/img/categories_v2/nightlife/pub_", "suffix": ".png"}}, {"id": 13065, "name": "Restaurant", "short_name": "Restaurant", "plural_name": "Restaurants", "icon": {"prefix": "https://ss3.4sqi.net/img/categories_v2/food/default_", "suffix": ".png"}}], "chains": [], "closed_bucket": "LikelyOpen", "distance": 786, "geocodes": {"drop_off": {"latitude": 55.867273, "longitude": -4.292991}, "main": {"latitude": 55.867125, "longitude": -4.293022}, "roof": {"latitude": 55.867125, "longitude": -4.293022}}, "link": "/v3/places/5b8002af234724002c324dec", "location": {"address": "67 Old Dumbarton Rd", "admin_region": "Scotland", "country": "GB", "cross_street": "", "formatted_address": "67 Old Dumbarton Rd, Glasgow, G3 8RF", "locality": "Glasgow", "post_town": "Glasgow", "postcode": "G3 8RF"}, "name": "The Brunch Club", "related_places": {}, "timezone": "Europe/London"}, {"fsq_id": "5adf40c64acb196e9768faf4", "categories": [{"id": 13035, "name": "Coffee Shop", "short_name": "Coffee Shop", "plural_name": "Coffee Shops", "icon": {"prefix": "https://ss3.4sqi.net/img/categories_v2/food/coffeeshop_", "suffix": ".png"}}, {"id": 13065, "name": "Restaurant", "short_name": "Restaurant", "plural_name": "Restaurants", "icon": {"prefix": "https://ss3.4sqi.net/img/categories_v2/food/default_", "suffix": ".png"}}], "chains": [], "closed_bucket": "VeryLikelyOpen", "distance": 794, "geocodes": {"drop_off": {"latitude": 55.870719, "longitude": -4.314662}, "main": {"latitude": 55.870837, "longitude": -4.314664}, "roof": {"latitude": 55.870837, "longitude": -4.314664}}, "link": "/v3/places/5adf40c64acb196e9768faf4", "location": {"address": "540 Dumbarton Rd", "admin_region": "Scotland", "country": "GB", "cross_street": "", "formatted_address": "540 Dumbarton Rd, Glasgow, Glasgow City", "locality": "Glasgow", "post_town": "Glasgow", "region": "Glasgow City"}, "name": "Space Speciality Coffee House", "related_places": {}, "timezone": "Europe/London"}, {"fsq_id": "88c9be1f92544fa60b77c200", "categories": [{"id": 13199, "name": "Indian Restaurant", "short_name": "Indian", "plural_name": "Indian Restaurants", "icon": {"prefix": "https://ss3.4sqi.net/img/categories_v2/food/indian_", "suffix": ".png"}}, {"id": 13265, "name": "Japanese Curry Restaurant", "short_name": "Japanese Curry", "plural_name": "Japanese Curry Restaurants", "icon": {"prefix": "https://ss3.4sqi.net/img/categories_v2/food/default_", "suffix": ".png"}}], "chains": [], "closed_bucket": "LikelyOpen", "distance": 811, "geocodes": {"drop_off": {"latitude": 55.871598, "longitude": -4.313029}, "main": {"latitude": 55.871498, "longitude": -4.313247}, "roof": {"latitude": 55.871498, "longitude": -4.313247}}, "link": "/v3/places/88c9be1f92544fa60b77c200", "location": {"address": "23 Crow Rd", "admin_region": "Scotland", "country": "GB", "formatted_address": "23 Crow Rd, Glasgow, G11 7RT", "locality": "Glasgow", "post_town": "Glasgow", "postcode": "G11 7RT"}, "name": "Harlequin Restaurants", "related_places": {}, "timezone": "Europe/London"}, {"fsq_id": "4d83cc955e70224b157aff08", "categories": [{"id": 13145, "name": "Fast Food Restaurant", "short_name": "Fast Food", "plural_name": "Fast Food Restaurants", "icon": {"prefix": "https://ss3.4sqi.net/img/categories_v2/food/fastfood_", "suffix": ".png"}}], "chains": [], "closed_bucket": "VeryLikelyOpen", "distance": 814, "geocodes": {"main": {"latitude": 55.871544, "longitude": -4.297717}, "roof": {"latitude": 55.871544, "longitude": -4.297717}}, "link": "/v3/places/4d83cc955e70224b157aff08", "location": {"address": "Glasgow, Glasgow City", "admin_region": "Scotland", "country": "GB", "cross_street": "", "formatted_address": "Glasgow, Glasgow City, Glasgow, Glasgow City, G11 5HN", "locality": "Glasgow", "post_town": "Glasgow", "postcode": "G11 5HN", "region": "Glasgow City"}, "name": "University Takeaway", "related_places": {}, "timezone": "Europe/London"}, {"fsq_id": "4d1a69cbc5f5b1f7a197d336", "categories": [{"id": 13099, "name": "Chinese Restaurant", "short_name": "Chinese", "plural_name": "Chinese Restaurants", "icon": {"prefix": "https://ss3.4sqi.net/img/categories_v2/food/asian_", "suffix": ".png"}}], "chains": [], "closed_bucket": "VeryLikelyOpen", "distance": 821, "geocodes": {"main": {"latitude": 55.870916, "longitude": -4.315122}, "roof": {"latitude": 55.870916, "longitude": -4.315122}}, "link": "/v3/places/4d1a69cbc5f5b1f7a197d336", "location": {"address": "1B Apsley St", "admin_region": "Scotland", "country": "GB", "cross_street": "", "formatted_address": "1B Apsley St, Glasgow, Glasgow City, G11 7SZ", "locality": "Glasgow", "post_town": "Glasgow", "postcode": "G11 7SZ", "region": "Glasgow City"}, "name": "China Red", "related_places": {}, "timezone": "Europe/London"}, {"fsq_id": "50704149e4b06e5e717947ce", "categories": [{"id": 13034, "name": "Caf\u00e9", "short_name": "Caf\u00e9", "plural_name": "Caf\u00e9s", "icon": {"prefix": "https://ss3.4sqi.net/img/categories_v2/food/cafe_", "suffix": ".png"}}, {"id": 13035, "name": "Coffee Shop", "short_name": "Coffee Shop", "plural_name": "Coffee Shops", "icon": {"prefix": "https://ss3.4sqi.net/img/categories_v2/food/coffeeshop_", "suffix": ".png"}}, {"id": 13236, "name": "Italian Restaurant", "short_name": "Italian", "plural_name": "Italian Restaurants", "icon": {"prefix": "https://ss3.4sqi.net/img/categories_v2/food/italian_", "suffix": ".png"}}], "chains": [], "closed_bucket": "VeryLikelyOpen", "distance": 823, "geocodes": {"main": {"latitude": 55.864121, "longitude": -4.318764}, "roof": {"latitude": 55.864121, "longitude": -4.318764}}, "link": "/v3/places/50704149e4b06e5e717947ce", "location": {"address": "13 Elder St", "admin_region": "Scotland", "country": "GB", "cross_street": "", "formatted_address": "13 Elder St, Glasgow, G51 3DY", "locality": "Glasgow", "post_town": "Glasgow", "postcode": "G51 3DY"}, "name": "No 13 Cafe", "related_places": {}, "timezone": "Europe/London"}, {"fsq_id": "5334373dd4d24eb2b974f5f5", "categories": [{"id": 13051, "name": "Fish and Chips Shop", "short_name": "Fish and Chips Shop", "plural_name": "Fish and Chips Shops", "icon": {"prefix": "https://ss3.4sqi.net/img/categories_v2/food/fishandchips_", "suffix": ".png"}}], "chains": [], "closed_bucket": "Unsure", "distance": 825, "geocodes": {"main": {"latitude": 55.867264, "longitude": -4.292431}, "roof": {"latitude": 55.867264, "longitude": -4.292431}}, "link": "/v3/places/5334373dd4d24eb2b974f5f5", "location": {"address": "76 Old Dumbarton Rd", "admin_region": "Scotland", "country": "GB", "formatted_address": "76 Old Dumbarton Rd, Glasgow, G3 8RE", "locality": "Glasgow", "post_town": "Glasgow", "postcode": "G3 8RE"}, "name": "West End Fish Bar", "related_places": {}, "timezone": "Europe/London"}], "context": {"geo_bounds": {"circle": {"center": {"latitude": 55.865683, "longitude": -4.305367}, "radius": 1000}}}}