{"results": [{"fsq_id": "4c9da4b6031337044d2c61d5", "categories": [{"id": 13031, "name": "Burger Joint", "short_name": "Burgers", "plural_name": "Burger Joints", "icon": {"prefix": "https://ss3.4sqi.net/img/categories_v2/food/burger_", "suffix": ".png"}}, {"id": 13145, "name": "Fast Food Restaurant", "short_name": "Fast Food", "plural_name": "Fast Food Restaurants", "icon": {"prefix": "https://ss3.4sqi.net/img/categories_v2/food/fastfood_", "suffix": ".png"}}], "chains": [{"id": "ab4a3530-d68a-012e-5619-003048cad9da", "name": "McDonald's"}], "closed_bucket": "VeryLikelyOpen", "distance": 996, "geocodes": {"drop_off": {"latitude": 55.836133, "longitude": -4.16873}, "main": {"latitude": 55.836305, "longitude": -4.168805}, "roof": {"latitude": 55.836305, "longitude": -4.168805}}, "link": "/v3/places/4c9da4b6031337044d2c61d5", "location": {"address": "Westhorn Dr/London Rd", "admin_region": "Scotland", "country": "GB", "cross_street": "Westhorn Dr.", "formatted_address": "Westhorn Dr/London Rd (Westhorn Dr.), Glasgow, Glasgow City, G32 8YX", "locality": "Glasgow", "post_town": "Glasgow", "postcode": "G32 8YX", "region": "Glasgow City"}, "name": "McDonald's", "related_places": {}, "timezone": "Europe/London"}, {"fsq_id": "511a8368e4b0acbffb5168d0", "categories": [{"id": 13003, "name": "Bar", "short_name": "Bar", "plural_name": "Bars", "icon": {"prefix": "https://ss3.4sqi.net/img/categories_v2/nightlife/pub_", "suffix": ".png"}}], "chains": [], "closed_bucket": "VeryLikelyOpen", "distance": 113, "geocodes": {"main": {"latitude": 55.843776, "longitude": -4.174551}, "roof": {"latitude": 55.843776, "longitude": -4.174551}}, "link": "/v3/places/511a8368e4b0acbffb5168d0", "location": {"country": "GB", "cross_street": "", "formatted_address": ""}, "name": "The Bell's", "related_places": {}, "timezone": "Europe/London"}, {"fsq_id": "6c255a2b3bb84b43cc041420", "categories": [{"id": 13030, "name": "Buffet", "short_name": "Buffet", "plural_name": "Buffets", "icon": {"prefix": "https://ss3.4sqi.net/img/categories_v2/food/default_", "suffix": ".png"}}], "chains": [], "closed_bucket": "VeryLikelyOpen", "distance": 137, "geocodes": {"drop_off": {"latitude": 55.84382, "longitude": -4.174033}, "main": {"latitude": 55.844018, "longitude": -4.173997}, "roof": {"latitude": 55.844018, "longitude": -4.173997}}, "link": "/v3/places/6c255a2b3bb84b43cc041420", "location": {"address": "999 Tollcross Rd", "admin_region": "Scotland", "country": "GB", "formatted_address": "999 Tollcross Rd, Glasgow, Glasgow City, G32 8UU", "locality": "Glasgow", "post_town": "Glasgow", "postcode": "G32 8UU", "region": "Glasgow City"}, "name": "Buffet King", "related_places": {}, "timezone": "Europe/London"}, {"fsq_id": "e629b0fced8c43c005af6493", "categories": [{"id": 13065, "name": "Restaurant", "short_name": "Restaurant", "plural_name": "Restaurants", "icon": {"prefix": "https://ss3.4sqi.net/img/categories_v2/food/default_", "suffix": ".png"}}], "chains": [], "closed_bucket": "LikelyOpen", "distance": 256, "geocodes": {"main": {"latitude": 55.843645, "longitude": -4.172201}, "roof": {"latitude": 55.843645, "longitude": -4.172201}}, "link": "/v3/places/e629b0fced8c43c005af6493", "location": {"address": "1077 Tollcross Rd", "admin_region": "Scotland", "country": "GB", "formatted_address": "1077 Tollcross Rd, Glasgow, G32 8UQ", "locality": "Glasgow", "post_town": "Glasgow", "postcode": "G32 8UQ"}, "name": "The Sizzler", "related_places": {}, "timezone": "Europe/London"}, {"fsq_id": "4e4c09e66284a0b024baff9f", "categories": [{"id": 13065, "name": "Restaurant", "short_name": "Restaurant", "plural_name": "Restaurants", "icon": {"prefix": "https://ss3.4sqi.net/img/categories_v2/food/default_", "suffix": ".png"}}], "chains": [], "closed_bucket": "LikelyOpen", "distance": 286, "geocodes": {"drop_off": {"latitude": 55.843427, "longitude": -4.171767}, "main": {"latitude": 55.843566, "longitude": -4.171744}, "roof": {"latitude": 55.843566, "longitude": -4.171744}}, "link": "/v3/places/4e4c09e66284a0b024baff9f", "location": {"address": "1100 Tollcross Rd", "admin_region": "Scotland", "country": "GB", "cross_street": "", "formatted_address": "1100 Tollcross Rd, Glasgow, Glasgow City", "locality": "Glasgow", "post_town": "Glasgow", "region": "Glasgow City"}, "name": "Captain Ruby's", "related_places": {}, "timezone": "Europe/London"}, {"fsq_id": "4f7ddc71e4b0a665d24a18d3", "categories": [{"id": 13018, "name": "Pub", "short_name": "Pub", "plural_name": "Pubs", "icon": {"prefix": "https://ss3.4sqi.net/img/categories_v2/nightlife/pub_", "suffix": ".png"}}], "chains": [], "closed_bucket": "VeryLikelyOpen", "distance": 379, "geocodes": {"drop_off": {"latitude": 55.843209, "longitude": -4.170472}, "main": {"latitude": 55.843376, "longitude": -4.170443}, "roof": {"latitude": 55.843376, "longitude": -4.170443}}, "link": "/v3/places/4f7ddc71e4b0a665d24a18d3", "location": {"admin_region": "Scotland", "country": "GB", "cross_street": "", "formatted_address": "G32 8HB", "post_town": "Harrogate", "postcode": "G32 8HB"}, "name": "The Kimberley", "related_places": {}, "timezone": "Europe/London"}, {"fsq_id": "5c1bf4b2aa6c95002c65f8c4", "categories": [{"id": 13051, "name": "Fish and Chips Shop", "short_name": "Fish and Chips Shop", "plural_name": "Fish and Chips Shops", "icon": {"prefix": "https://ss3.4sqi.net/img/categories_v2/food/fishandchips_", "suffix": ".png"}}, {"id": 13145, "name": "Fast Food Restaurant", "short_name": "Fast Food", "plural_name": "Fast Food Restaurants", "icon": {"prefix": "https://ss3.4sqi.net/img/categories_v2/food/fastfood_", "suffix": ".png"}}, {"id": 13236, "name": "Italian Restaurant", "short_name": "Italian", "plural_name": "Italian Restaurants", "icon": {"prefix": "https://ss3.4sqi.net/img/categories_v2/food/italian_", "suffix": ".png"}}], "chains": [], "closed_bucket": "Unsure", "distance": 397, "geocodes": {"main": {"latitude": 55.84329, "longitude": -4.170091}, "roof": {"latitude": 55.84329, "longitude": -4.170091}}, "link": "/v3/places/5c1bf4b2aa6c95002c65f8c4", "location": {"address": "1145 Tollcross Rd", "admin_region": "Scotland", "country": "GB", "cross_street": "", "formatted_address": "1145 Tollcross Rd, Glasgow, G32 8HB", "locality": "Glasgow", "post_town": "Glasgow", "postcode": "G32 8HB"}, "name": "Captain's Kitchen", "related_places": {}, "timezone": "Europe/London"}, {"fsq_id": "4c55b21130f92d7f241693bc", "categories": [{"id": 13145, "name": "Fast Food Restaurant", "short_name": "Fast Food", "plural_name": "Fast Food Restaurants", "icon": {"prefix": "https://ss3.4sqi.net/img/categories_v2/food/fastfood_", "suffix": ".png"}}, {"id": 13199, "name": "Indian Restaurant", "short_name": "Indian", "plural_name": "Indian Restaurants", "icon": {"prefix": "https://ss3.4sqi.net/img/categories_v2/food/indian_", "suffix": ".png"}}], "chains": [], "closed_bucket": "LikelyOpen", "distance": 591, "geocodes": {"main": {"latitude": 55.84329, "longitude": -4.170091}, "roof": {"latitude": 55.84329, "longitude": -4.170091}}, "link": "/v3/places/4c55b21130f92d7f241693bc", "location": {"address": "1145 Tollcross Rd", "admin_region": "Scotland", "country": "GB", "formatted_address": "1145 Tollcross Rd, Glasgow, Glasgow City, G32 8HB", "locality": "Glasgow", "post_town": "Glasgow", "postcode": "G32 8HB", "region": "Glasgow City"}, "name": "Ruby Murrys", "related_places": {}, "timezone": "Europe/London"}, {"fsq_id": "6ea78be01a1f4a58b65a9e29", "categories": [{"id": 13029, "name": "Brewery", "short_name": "Brewery", "plural_name": "Breweries", "icon": {"prefix": "https://ss3.4sqi.net/img/categories_v2/food/brewery_", "suffix": ".png"}}], "chains": [], "closed_bucket": "Unsure", "distance": 709, "geocodes": {"drop_off": {"latitude": 55.837956, "longitude": -4.177344}, "main": {"latitude": 55.837889, "longitude": -4.177147}, "roof": {"latitude": 55.837889, "longitude": -4.177147}}, "link": "/v3/places/6ea78be01a1f4a58b65a9e29", "location": {"address": "40 Colliery St, Clydegateway East", "admin_region": "Scotland", "country": "GB", "formatted_address": "40 Colliery St, Clydegateway East, Glasgow, G32 8SP", "locality": "Glasgow", "post_town": "Glasgow", "postcode": "G32 8SP"}, "name": "Eden Mill Brewery", "related_places": {}, "timezone": "Europe/London"}, {"fsq_id": "fdbdf37319704c4f60784d33", "categories": [{"id": 13003, "name": "Bar", "short_name": "Bar", "plural_name": "Bars", "icon": {"prefix": "https://ss3.4sqi.net/img/categories_v2/nightlife/pub_", "suffix": ".png"}}], "chains": [], "closed_bucket": "Unsure", "distance": 731, "geocodes": {"main": {"latitude": 55.847258, "longitude": -4.18659}, "roof": {"latitude": 55.847258, "longitude": -4.18659}}, "link": "/v3/places/fdbdf37319704c4f60784d33", "location": {"address": "498 Tollcross Rd", "admin_region": "Scotland", "country": "GB", "formatted_address": "498 Tollcross Rd, Glasgow, G31 4XX", "locality": "Glasgow", "post_town": "Glasgow", "postcode": "G31 4XX"}, "name": "Cotters Bar", "related_places": {}, "timezone": "Europe/London"}, {"fsq_id": "85a6cc0b011f4aebac57d2a3", "categories": [{"id": 13065, "name": "Restaurant", "short_name": "Restaurant", "plural_name": "Restaurants", "icon": {"prefix": "https://ss3.4sqi.net/img/categories_v2/food/default_", "suffix": ".png"}}], "chains": [], "closed_bucket": "LikelyOpen", "distance": 742, "geocodes": {"main": {"latitude": 55.847184, "longitude": -4.165476}, "roof": {"latitude": 55.847184, "longitude": -4.165476}}, "link": "/v3/places/85a6cc0b011f4aebac57d2a3", "location": {"address": "370 Amulree St", "admin_region": "Scotland", "country": "GB", "formatted_address": "370 Amulree St, Glasgow, G32 7SJ", "locality": "Glasgow", "post_town": "Glasgow", "postcode": "G32 7SJ"}, "name": "Shanghai Supplies", "related_places": {}, "timezone": "Europe/London"}, {"fsq_id": "617c57316aa49453aaa80d11", "categories": [{"id": 13003, "name": "Bar", "short_name": "Bar", "plural_name": "Bars", "icon": {"prefix": "https://ss3.4sqi.net/img/categories_v2/nightlife/pub_", "suffix": ".png"}}], "chains": [], "closed_bucket": "VeryLikelyOpen", "distance": 824, "geocodes": {"drop_off": {"latitude": 55.851677, "longitude": -4.176491}, "main": {"latitude": 55.851683, "longitude": -4.176284}, "roof": {"latitude": 55.851683, "longitude": -4.176284}}, "link": "/v3/places/617c57316aa49453aaa80d11", "location": {"address": "10-16 Edrom St", "admin_region": "Scotland", "country": "GB", "cross_street": "", "formatted_address": "10-16 Edrom St, Glasgow, Glasgow City, G32 7DN", "locality": "Glasgow", "post_town": "Glasgow", "postcode": "G32 7DN", "region": "Glasgow City"}, "name": "Palaceum Bar", "related_places": {}, "timezone": "Europe/London"}, {"fsq_id": "550dbe38498eb9b173ba2d2c", "categories": [{"id": 13099, "name": "Chinese Restaurant", "short_name": "Chinese", "plural_name": "Chinese Restaurants", "icon": {"prefix": "https://ss3.4sqi.net/img/categories_v2/food/asian_", "suffix": ".png"}}, {"id": 13145, "name": "Fast Food Restaurant", "short_name": "Fast Food", "plural_name": "Fast Food Restaurants", "icon": {"prefix": "https://ss3.4sqi.net/img/categories_v2/food/fastfood_", "suffix": ".png"}}], "chains": [], "closed_bucket": "LikelyOpen", "distance": 853, "geocodes": {"main": {"latitude": 55.851819, "longitude": -4.173872}, "roof": {"latitude": 55.851819, "longitude": -4.173872}}, "link": "/v3/places/550dbe38498eb9b173ba2d2c", "location": {"address": "900 Shettleston Rd", "admin_region": "Scotland", "country": "GB", "cross_street": "", "formatted_address": "900 Shettleston Rd, Glasgow, G32 7XN", "locality": "Glasgow", "post_town": "Glasgow", "postcode": "G32 7XN"}, "name": "Lucky Way Chinese Carry Out", "related_places": {}, "timezone": "Europe/London"}, {"fsq_id": "4d3049b9a241f04dbad2b227", "categories": [{"id": 13003, "name": "Bar", "short_name": "Bar", "plural_name": "Bars", "icon": {"prefix": "https://ss3.4sqi.net/img/categories_v2/nightlife/pub_", "suffix": ".png"}}, {"id": 13065, "name": "Restaurant", "short_name": "Restaurant", "plural_name": "Restaurants", "icon": {"prefix": "https://ss3.4sqi.net/img/categories_v2/food/default_", "suffix": ".png"}}], "chains": [], "closed_bucket": "VeryLikelyOpen", "distance": 870, "geocodes": {"main": {"latitude": 55.852155, "longitude": -4.175387}, "roof": {"latitude": 55.852155, "longitude": -4.175387}}, "link": "/v3/places/4d3049b9a241f04dbad2b227", "location": {"address": "843 Shettleston Rd", "admin_region": "Scotland", "country": "GB", "cross_street": "Shettleston Road", "formatted_address": "843 Shettleston Rd (Shettleston Road), Glasgow, G32 7NR", "locality": "Glasgow", "post_town": "Glasgow", "postcode": "G32 7NR"}, "name": "The Town Tavern", "related_places": {}, "timezone": "Europe/London"}, {"fsq_id": "5f60eced0ed4c262cbc42c75", "categories": [{"id": 13145, "name": "Fast Food Restaurant", "short_name": "Fast Food", "plural_name": "Fast Food Restaurants", "icon": {"prefix": "https://ss3.4sqi.net/img/categories_v2/food/fastfood_", "suffix": ".png"}}, {"id": 13236, "name": "Italian Restaurant", "short_name": "Italian", "plural_name": "Italian Restaurants", "icon": {"prefix": "https://ss3.4sqi.net/img/categories_v2/food/italian_", "suffix": ".png"}}], "chains": [], "closed_bucket": "Unsure", "distance": 895, "geocodes": {"drop_off": {"latitude": 55.851718, "longitude": -4.170202}, "main": {"latitude": 55.851868, "longitude": -4.170197}, "roof": {"latitude": 55.851868, "longitude": -4.170197}}, "link": "/v3/places/5f60eced0ed4c262cbc42c75", "location": {"address": "1003 Shettleston Rd", "admin_region": "Scotland", "country": "GB", "cross_street": "", "formatted_address": "1003 Shettleston Rd, Glasgow, Glasgow City, G32 7PB", "locality": "Glasgow", "post_town": "Glasgow", "postcode": "G32 7PB", "region": "Glasgow City"}, "name": "Nello\u2019s", "related_places": {}, "timezone": "Europe/London"}, {"fsq_id": "53636455498e1736912e18df", "categories": [{"id": 13051, "name": "Fish and Chips Shop", "short_name": "Fish and Chips Shop", "plural_name": "Fish and Chips Shops", "icon": {"prefix": "https://ss3.4sqi.net/img/categories_v2/food/fishandchips_", "suffix": ".png"}}], "chains": [], "closed_bucket": "LikelyOpen", "distance": 927, "geocodes": {"main": {"latitude": 55.851526, "longitude": -4.168786}, "roof": {"latitude": 55.851526, "longitude": -4.168786}}, "link": "/v3/places/53636455498e1736912e18df", "location": {"address": "1094 Shettleston Rd", "admin_region": "Scotland", "country": "GB", "cross_street": "", "formatted_address": "1094 Shettleston Rd, Glasgow, Glasgow City, G32 7PH", "locality": "Glasgow", "post_town": "Glasgow", "postcode": "G32 7PH", "region": "Glasgow City"}, "name": "Chippyland", "related_places": {}, "timezone": "Europe/London"}, {"fsq_id": "4c556601fd2ea593db22a92b", "categories": [{"id": 13018, "name": "Pub", "short_name": "Pub", "plural_name": "Pubs", "icon": {"prefix": "https://ss3.4sqi.net/img/categories_v2/nightlife/pub_", "suffix": ".png"}}, {"id": 13065, "name": "Restaurant", "short_name": "Restaurant", "plural_name": "Restaurants", "icon": {"prefix": "https://ss3.4sqi.net/img/categories_v2/food/default_", "suffix": ".png"}}], "chains": [], "closed_bucket": "VeryLikelyOpen", "distance": 997, "geocodes": {"main": {"latitude": 55.836046, "longitude": -4.169673}, "roof": {"latitude": 55.836046, "longitude": -4.169673}}, "link": "/v3/places/4c556601fd2ea593db22a92b", "location": {"address": "Off London Rd", "admin_region": "Scotland", "country": "GB", "formatted_address": "Off London Rd, Cambuslang, South Lanarkshire, G32 8EY", "locality": "Cambuslang", "post_town": "Glasgow", "postcode": "G32 8EY", "region": "South Lanarkshire"}, "name": "Orion Way Table Table", "related_places": {}, "timezone": "Europe/London"}, {"fsq_id": "f4b9438f84194446ae632e6a", "categories": [{"id": 13035, "name": "Coffee Shop", "short_name": "Coffee Shop", "plural_name": "Coffee Shops", "icon": {"prefix": "https://ss3.4sqi.net/img/categories_v2/food/coffeeshop_", "suffix": ".png"}}, {"id": 13236, "name": "Italian Restaurant", "short_name": "Italian", "plural_name": "Italian Restaurants", "icon": {"prefix": "https://ss3.4sqi.net/img/categories_v2/food/italian_", "suffix": ".png"}}], "chains": [], "closed_bucket": "LikelyOpen", "distance": 664, "geocodes": {"drop_off": {"latitude": 55.842867, "longitude": -4.166122}, "main": {"latitude": 55.842792, "longitude": -4.165841}, "roof": {"latitude": 55.842792, "longitude": -4.165841}}, "link": "/v3/places/f4b9438f84194446ae632e6a", "location": {"admin_region": "Scotland", "country": "GB", "formatted_address": "G32 7TW", "post_town": "Glasgow", "postcode": "G32 7TW"}, "name": "Cafe olive tollcross", "related_places": {}}, {"fsq_id": "f11b6e0616a24bf9bccf7c20", "categories": [{"id": 13065, "name": "Restaurant", "short_name": "Restaurant", "plural_name": "Restaurants", "icon": {"prefix": "https://ss3.4sqi.net/img/categories_v2/food/default_", "suffix": ".png"}}], "chains": [], "closed_bucket": "LikelyOpen", "distance": 742, "geocodes": {"drop_off": {"latitude": 55.847115, "longitude": -4.165269}, "main": {"latitude": 55.847184, "longitude": -4.165476}, "roof": {"latitude": 55.847184, "longitude": -4.165476}}, "link": "/v3/places/f11b6e0616a24bf9bccf7c20", "location": {"address": "370 Amulree St", "admin_region": "Scotland", "country": "GB", "formatted_address": "370 Amulree St, Glasgow, G32 7SJ", "locality": "Glasgow", "post_town": "Glasgow", "postcode": "G32 7SJ"}, "name": "Shanghai Supplies", "related_places": {}}, {"fsq_id": "3829f28eeca648b9e96f3f6b", "categories": [{"id": 13003, "name": "Bar", "short_name": "Bar", "plural_name": "Bars", "icon": {"prefix": "https://ss3.4sqi.net/img/categories_v2/nightlife/pub_", "suffix": ".png"}}], "chains": [], "closed_bucket": "Unsure", "distance": 886, "geocodes": {"main": {"latitude": 55.852061, "longitude": -4.173318}, "roof": {"latitude": 55.852061, "longitude": -4.173318}}, "link": "/v3/places/3829f28eeca648b9e96f3f6b", "location": {"address": "929 Shettleston Rd", "admin_region": "Scotland", "country": "GB", "formatted_address": "929 Shettleston Rd, Glasgow, G32 7NU", "locality": "Glasgow", "post_town": "Glasgow", "postcode": "G32 7NU"}, "name": "Gantry Bar", "related_places": {}}, {"fsq_id": "e1ca1c53834e4d38118c09e1", "categories": [{"id": 13065, "name": "Restaurant", "short_name": "Restaurant", "plural_name": "Restaurants", "icon": {"prefix": "https://ss3.4sqi.net/img/categories_v2/food/default_", "suffix": ".png"}}], "chains": [], "closed_bucket": "LikelyOpen", "distance": 944, "geocodes": {"main": {"latitude": 55.83664, "longitude": -4.16941}, "roof": {"latitude": 55.83664, "longitude": -4.16941}}, "link": "/v3/places/e1ca1c53834e4d38118c09e1", "location": {"address": "Westhorn Dr, East Investment Park", "admin_region": "Scotland", "country": "GB", "formatted_address": "Westhorn Dr, East Investment Park, Glasgow, G32 8YX", "locality": "Glasgow", "post_town": "Glasgow", "postcode": "G32 8YX"}, "name": "KFC Glasgow London Road Dt", "related_places": {}}, {"fsq_id": "0ce373089faf4ffaf24009a0", "categories": [{"id": 13145, "name": "Fast Food Restaurant", "short_name": "Fast Food", "plural_name": "Fast Food Restaurants", "icon": {"prefix": "https://ss3.4sqi.net/img/categories_v2/food/fastfood_", "suffix": ".png"}}], "chains": [], "closed_bucket": "Unsure", "distance": 947, "geocodes": {"main": {"latitude": 55.836579, "longitude": -4.169548}, "roof": {"latitude": 55.836579, "longitude": -4.169548}}, "link": "/v3/places/0ce373089faf4ffaf24009a0", "location": {"address": "10 Westhorn Dr", "admin_region": "Scotland", "country": "GB", "formatted_address": "10 Westhorn Dr, Glasgow, G32 8YX", "locality": "Glasgow", "post_town": "Glasgow", "postcode": "G32 8YX"}, "name": "Kfc London Road", "related_places": {}}], "context": {"geo_bounds": {"circle": {"center": {"latitude": 55.84425, "longitude": -4.176167}, "radius": 1000}}}}