{"results": [{"fsq_id": "4b83f936f964a520191931e3", "categories": [{"id": 13236, "name": "Italian Restaurant", "short_name": "Italian", "plural_name": "Italian Restaurants", "icon": {"prefix": "https://ss3.4sqi.net/img/categories_v2/food/italian_", "suffix": ".png"}}], "chains": [], "closed_bucket": "LikelyOpen", "distance": 76, "geocodes": {"drop_off": {"latitude": 55.828575, "longitude": -4.283373}, "main": {"latitude": 55.828431, "longitude": -4.283239}, "roof": {"latitude": 55.828431, "longitude": -4.283239}}, "link": "/v3/places/4b83f936f964a520191931e3", "location": {"address": "85 Kilmarnock Rd", "admin_region": "Scotland", "country": "GB", "formatted_address": "85 Kilmarnock Rd, Glasgow, Glasgow City, G41 3YR", "locality": "Glasgow", "post_town": "Glasgow", "postcode": "G41 3YR", "region": "Glasgow City"}, "name": "Oro", "related_places": {}, "timezone": "Europe/London"}, {"fsq_id": "5af6b5d1c876c8002cdb8a28", "categories": [{"id": 13035, "name": "Coffee Shop", "short_name": "Coffee Shop", "plural_name": "Coffee Shops", "icon": {"prefix": "https://ss3.4sqi.net/img/categories_v2/food/coffeeshop_", "suffix": ".png"}}, {"id": 13065, "name": "Restaurant", "short_name": "Restaurant", "plural_name": "Restaurants", "icon": {"prefix": "https://ss3.4sqi.net/img/categories_v2/food/default_", "suffix": ".png"}}], "chains": [], "closed_bucket": "LikelyOpen", "distance": 924, "geocodes": {"drop_off": {"latitude": 55.827276, "longitude": -4.268118}, "main": {"latitude": 55.827134, "longitude": -4.268139}, "roof": {"latitude": 55.827134, "longitude": -4.268139}}, "link": "/v3/places/5af6b5d1c876c8002cdb8a28", "location": {"address": "50 Battlefield Rd", "admin_region": "Scotland", "country": "GB", "cross_street": "", "formatted_address": "50 Battlefield Rd, Glasgow, Glasgow City, G42 9QF", "locality": "Glasgow", "post_town": "Glasgow", "postcode": "G42 9QF", "region": "Glasgow City"}, "name": "Grain and Grind", "related_places": {}, "timezone": "Europe/London"}, {"fsq_id": "54a1633e498e3242ba8466d5", "categories": [{"id": 13039, "name": "Deli", "short_name": "Deli", "plural_name": "Delis", "icon": {"prefix": "https://ss3.4sqi.net/img/categories_v2/food/deli_", "suffix": ".png"}}], "chains": [], "closed_bucket": "VeryLikelyOpen", "distance": 139, "geocodes": {"drop_off": {"latitude": 55.82981, "longitude": -4.280968}, "main": {"latitude": 55.829935, "longitude": -4.280903}, "roof": {"latitude": 55.829935, "longitude": -4.280903}}, "link": "/v3/places/54a1633e498e3242ba8466d5", "location": {"address": "11 Skirving St, Shawlands", "admin_region": "Scotland", "country": "GB", "cross_street": "", "formatted_address": "11 Skirving St, Shawlands, Glasgow, Glasgow City", "locality": "Glasgow", "post_town": "Glasgow", "region": "Glasgow City"}, "name": "Deli Zola Glasgow", "related_places": {}, "timezone": "Europe/London"}, {"fsq_id": "56e55931498e9430413d1959", "categories": [{"id": 13034, "name": "Caf\u00e9", "short_name": "Caf\u00e9", "plural_name": "Caf\u00e9s", "icon": {"prefix": "https://ss3.4sqi.net/img/categories_v2/food/cafe_", "suffix": ".png"}}, {"id": 13065, "name": "Restaurant", "short_name": "Restaurant", "plural_name": "Restaurants", "icon": {"prefix": "https://ss3.4sqi.net/img/categories_v2/food/default_", "suffix": ".png"}}], "chains": [], "closed_bucket": "VeryLikelyOpen", "distance": 256, "geocodes": {"main": {"latitude": 55.830657, "longitude": -4.28026}, "roof": {"latitude": 55.830657, "longitude": -4.28026}}, "link": "/v3/places/56e55931498e9430413d1959", "location": {"address": "1109 Pollokshaws Rd", "admin_region": "Scotland", "country": "GB", "cross_street": "", "formatted_address": "1109 Pollokshaws Rd, Glasgow, G41 3YG", "locality": "Glasgow", "post_town": "Glasgow", "postcode": "G41 3YG"}, "name": "Cafe Strange Brew", "related_places": {}, "timezone": "Europe/London"}, {"fsq_id": "5030ca70e4b047efee0958cf", "categories": [{"id": 10039, "name": "Music Venue", "short_name": "Music Venue", "plural_name": "Music Venues", "icon": {"prefix": "https://ss3.4sqi.net/img/categories_v2/arts_entertainment/musicvenue_", "suffix": ".png"}}, {"id": 13034, "name": "Caf\u00e9", "short_name": "Caf\u00e9", "plural_name": "Caf\u00e9s", "icon": {"prefix": "https://ss3.4sqi.net/img/categories_v2/food/cafe_", "suffix": ".png"}}, {"id": 13065, "name": "Restaurant", "short_name": "Restaurant", "plural_name": "Restaurants", "icon": {"prefix": "https://ss3.4sqi.net/img/categories_v2/food/default_", "suffix": ".png"}}], "chains": [], "closed_bucket": "LikelyOpen", "distance": 429, "geocodes": {"main": {"latitude": 55.832088, "longitude": -4.278273}, "roof": {"latitude": 55.832088, "longitude": -4.278273}}, "link": "/v3/places/5030ca70e4b047efee0958cf", "location": {"address": "1006a Pollokshaws Rd", "admin_region": "Scotland", "country": "GB", "formatted_address": "1006a Pollokshaws Rd, Glasgow, G41 2HG", "locality": "Glasgow", "post_town": "Glasgow", "postcode": "G41 2HG"}, "name": "The Glad Cafe", "related_places": {}, "timezone": "Europe/London"}, {"fsq_id": "4c8a19302e3337048b47c041", "categories": [{"id": 13034, "name": "Caf\u00e9", "short_name": "Caf\u00e9", "plural_name": "Caf\u00e9s", "icon": {"prefix": "https://ss3.4sqi.net/img/categories_v2/food/cafe_", "suffix": ".png"}}, {"id": 13065, "name": "Restaurant", "short_name": "Restaurant", "plural_name": "Restaurants", "icon": {"prefix": "https://ss3.4sqi.net/img/categories_v2/food/default_", "suffix": ".png"}}], "chains": [], "closed_bucket": "LikelyOpen", "distance": 373, "geocodes": {"main": {"latitude": 55.831797, "longitude": -4.279665}, "roof": {"latitude": 55.831797, "longitude": -4.279665}}, "link": "/v3/places/4c8a19302e3337048b47c041", "location": {"address": "21-23 Minard Rd", "admin_region": "Scotland", "country": "GB", "cross_street": "Frankfort Street", "formatted_address": "21-23 Minard Rd (Frankfort Street), Glasgow, Glasgow City, G41 2HR", "locality": "Glasgow", "post_town": "Glasgow", "postcode": "G41 2HR", "region": "Glasgow City"}, "name": "Brooklyn Cafe", "related_places": {}, "timezone": "Europe/London"}, {"fsq_id": "546df31e498eeca6e6ab282c", "categories": [{"id": 13065, "name": "Restaurant", "short_name": "Restaurant", "plural_name": "Restaurants", "icon": {"prefix": "https://ss3.4sqi.net/img/categories_v2/food/default_", "suffix": ".png"}}], "chains": [], "closed_bucket": "VeryLikelyOpen", "distance": 695, "geocodes": {"main": {"latitude": 55.823516, "longitude": -4.28806}, "roof": {"latitude": 55.823516, "longitude": -4.28806}}, "link": "/v3/places/546df31e498eeca6e6ab282c", "location": {"address": "16 Newlandsfield Rd", "admin_region": "Scotland", "country": "GB", "cross_street": "", "formatted_address": "16 Newlandsfield Rd, Glasgow, G43 2XU", "locality": "Glasgow", "post_town": "Glasgow", "postcode": "G43 2XU"}, "name": "Loks Bar & Kitchen", "related_places": {}, "timezone": "Europe/London"}, {"fsq_id": "587e6f224745864e1c0f9821", "categories": [{"id": 13051, "name": "Fish and Chips Shop", "short_name": "Fish and Chips Shop", "plural_name": "Fish and Chips Shops", "icon": {"prefix": "https://ss3.4sqi.net/img/categories_v2/food/fishandchips_", "suffix": ".png"}}, {"id": 13338, "name": "Seafood Restaurant", "short_name": "Seafood", "plural_name": "Seafood Restaurants", "icon": {"prefix": "https://ss3.4sqi.net/img/categories_v2/food/seafood_", "suffix": ".png"}}], "chains": [], "closed_bucket": "LikelyOpen", "distance": 324, "geocodes": {"main": {"latitude": 55.831506, "longitude": -4.279236}, "roof": {"latitude": 55.831506, "longitude": -4.279236}}, "link": "/v3/places/587e6f224745864e1c0f9821", "location": {"address": "1044 Pollokshaws Rd", "admin_region": "Scotland", "country": "GB", "cross_street": "", "formatted_address": "1044 Pollokshaws Rd, Glasgow, G41 3EB", "locality": "Glasgow", "post_town": "Glasgow", "postcode": "G41 3EB"}, "name": "Salt & Vinegar", "related_places": {}, "timezone": "Europe/London"}, {"fsq_id": "4c0ba0c3ffb8c9b6667b6d61", "categories": [{"id": 13236, "name": "Italian Restaurant", "short_name": "Italian", "plural_name": "Italian Restaurants", "icon": {"prefix": "https://ss3.4sqi.net/img/categories_v2/food/italian_", "suffix": ".png"}}], "chains": [], "closed_bucket": "Unsure", "distance": 442, "geocodes": {"main": {"latitude": 55.831967, "longitude": -4.278549}, "roof": {"latitude": 55.831967, "longitude": -4.278549}}, "link": "/v3/places/4c0ba0c3ffb8c9b6667b6d61", "location": {"address": "1012 Pollokshaws Rd", "admin_region": "Scotland", "country": "GB", "formatted_address": "1012 Pollokshaws Rd, Glasgow, Glasgow City, G41 2HG", "locality": "Glasgow", "post_town": "Glasgow", "postcode": "G41 2HG", "region": "Glasgow City"}, "name": "Buongiorno", "related_places": {}, "timezone": "Europe/London"}, {"fsq_id": "4eabdf0cb6347a596aa599db", "categories": [{"id": 13034, "name": "Caf\u00e9", "short_name": "Caf\u00e9", "plural_name": "Caf\u00e9s", "icon": {"prefix": "https://ss3.4sqi.net/img/categories_v2/food/cafe_", "suffix": ".png"}}, {"id": 13035, "name": "Coffee Shop", "short_name": "Coffee Shop", "plural_name": "Coffee Shops", "icon": {"prefix": "https://ss3.4sqi.net/img/categories_v2/food/coffeeshop_", "suffix": ".png"}}, {"id": 13065, "name": "Restaurant", "short_name": "Restaurant", "plural_name": "Restaurants", "icon": {"prefix": "https://ss3.4sqi.net/img/categories_v2/food/default_", "suffix": ".png"}}], "chains": [], "closed_bucket": "VeryLikelyOpen", "distance": 43, "geocodes": {"main": {"latitude": 55.829334, "longitude": -4.282181}, "roof": {"latitude": 55.829334, "longitude": -4.282181}}, "link": "/v3/places/4eabdf0cb6347a596aa599db", "location": {"address": "35 Kilmarnock Rd", "admin_region": "Scotland", "country": "GB", "cross_street": "", "formatted_address": "35 Kilmarnock Rd, Glasgow, Glasgow City, G41 3YN", "locality": "Glasgow", "post_town": "Glasgow", "postcode": "G41 3YN", "region": "Glasgow City"}, "name": "Gizzi Espresso Bar", "related_places": {}, "timezone": "Europe/London"}, {"fsq_id": "4ba55019f964a5207af938e3", "categories": [{"id": 13018, "name": "Pub", "short_name": "Pub", "plural_name": "Pubs", "icon": {"prefix": "https://ss3.4sqi.net/img/categories_v2/nightlife/pub_", "suffix": ".png"}}, {"id": 13065, "name": "Restaurant", "short_name": "Restaurant", "plural_name": "Restaurants", "icon": {"prefix": "https://ss3.4sqi.net/img/categories_v2/food/default_", "suffix": ".png"}}], "chains": [], "closed_bucket": "Unsure", "distance": 704, "geocodes": {"main": {"latitude": 55.827677, "longitude": -4.271553}, "roof": {"latitude": 55.827677, "longitude": -4.271553}}, "link": "/v3/places/4ba55019f964a5207af938e3", "location": {"address": "16 Algie St", "admin_region": "Scotland", "country": "GB", "formatted_address": "16 Algie St, Glasgow, Glasgow City, G41 3DJ", "locality": "Glasgow", "post_town": "Glasgow", "postcode": "G41 3DJ", "region": "Glasgow City"}, "name": "Church on the Hill", "related_places": {}, "timezone": "Europe/London"}, {"fsq_id": "4c066f06761ac9b6fce92074", "categories": [{"id": 13025, "name": "Wine Bar", "short_name": "Wine Bar", "plural_name": "Wine Bars", "icon": {"prefix": "https://ss3.4sqi.net/img/categories_v2/food/winery_", "suffix": ".png"}}, {"id": 13065, "name": "Restaurant", "short_name": "Restaurant", "plural_name": "Restaurants", "icon": {"prefix": "https://ss3.4sqi.net/img/categories_v2/food/default_", "suffix": ".png"}}], "chains": [], "closed_bucket": "LikelyOpen", "distance": 209, "geocodes": {"main": {"latitude": 55.830675, "longitude": -4.280856}, "roof": {"latitude": 55.830675, "longitude": -4.280856}}, "link": "/v3/places/4c066f06761ac9b6fce92074", "location": {"address": "1110 Pollokshaws Rd", "admin_region": "Scotland", "country": "GB", "cross_street": "", "formatted_address": "1110 Pollokshaws Rd, Glasgow, Glasgow City, G41 2HG", "locality": "Glasgow", "post_town": "Glasgow", "postcode": "G41 2HG", "region": "Glasgow City"}, "name": "Linen 1906", "related_places": {}, "timezone": "Europe/London"}, {"fsq_id": "4c1e4e76b9f876b03fde7e46", "categories": [{"id": 13064, "name": "Pizzeria", "short_name": "Pizza", "plural_name": "Pizzerias", "icon": {"prefix": "https://ss3.4sqi.net/img/categories_v2/food/pizza_", "suffix": ".png"}}, {"id": 13236, "name": "Italian Restaurant", "short_name": "Italian", "plural_name": "Italian Restaurants", "icon": {"prefix": "https://ss3.4sqi.net/img/categories_v2/food/italian_", "suffix": ".png"}}], "chains": [], "closed_bucket": "VeryLikelyOpen", "distance": 357, "geocodes": {"main": {"latitude": 55.83156, "longitude": -4.279202}, "roof": {"latitude": 55.83156, "longitude": -4.279202}}, "link": "/v3/places/4c1e4e76b9f876b03fde7e46", "location": {"address": "1038-1040 Pollokshaws Rd", "admin_region": "Scotland", "country": "GB", "formatted_address": "1038-1040 Pollokshaws Rd, Shawlands, Glasgow City, G41 3EB", "locality": "Shawlands", "post_town": "Glasgow", "postcode": "G41 3EB", "region": "Glasgow City"}, "name": "Di Maggio's - South Side", "related_places": {}, "timezone": "Europe/London"}, {"fsq_id": "4bc74c7d6501c9b6b0243e29", "categories": [{"id": 13065, "name": "Restaurant", "short_name": "Restaurant", "plural_name": "Restaurants", "icon": {"prefix": "https://ss3.4sqi.net/img/categories_v2/food/default_", "suffix": ".png"}}], "chains": [], "closed_bucket": "LikelyOpen", "distance": 570, "geocodes": {"main": {"latitude": 55.828558, "longitude": -4.273646}, "roof": {"latitude": 55.828558, "longitude": -4.273646}}, "link": "/v3/places/4bc74c7d6501c9b6b0243e29", "location": {"address": "2-4 Camphill Ave", "admin_region": "Scotland", "country": "GB", "cross_street": "", "formatted_address": "2-4 Camphill Ave, Glasgow, Glasgow City, G41 3AY", "locality": "Glasgow", "post_town": "Glasgow", "postcode": "G41 3AY", "region": "Glasgow City"}, "name": "The Ivory Hotel", "related_places": {}, "timezone": "Europe/London"}, {"fsq_id": "4fca1c23e4b04ba0d0d27d2b", "categories": [{"id": 13003, "name": "Bar", "short_name": "Bar", "plural_name": "Bars", "icon": {"prefix": "https://ss3.4sqi.net/img/categories_v2/nightlife/pub_", "suffix": ".png"}}], "chains": [], "closed_bucket": "LikelyOpen", "distance": 494, "geocodes": {"main": {"latitude": 55.832561, "longitude": -4.277377}, "roof": {"latitude": 55.832561, "longitude": -4.277377}}, "link": "/v3/places/4fca1c23e4b04ba0d0d27d2b", "location": {"address": "962 Pollokshaws Rd", "admin_region": "Scotland", "country": "GB", "cross_street": "", "formatted_address": "962 Pollokshaws Rd, Glasgow, G41 2ET", "locality": "Glasgow", "post_town": "Glasgow", "postcode": "G41 2ET"}, "name": "Sweeney's on the Park", "related_places": {}, "timezone": "Europe/London"}, {"fsq_id": "588ddcc46d349d3000c56b41", "categories": [{"id": 13035, "name": "Coffee Shop", "short_name": "Coffee Shop", "plural_name": "Coffee Shops", "icon": {"prefix": "https://ss3.4sqi.net/img/categories_v2/food/coffeeshop_", "suffix": ".png"}}, {"id": 13377, "name": "Vegan and Vegetarian Restaurant", "short_name": "Vegan and Vegetarian Restaurant", "plural_name": "Vegan and Vegetarian Restaurants", "icon": {"prefix": "https://ss3.4sqi.net/img/categories_v2/food/vegetarian_", "suffix": ".png"}}], "chains": [], "closed_bucket": "LikelyOpen", "distance": 8, "geocodes": {"drop_off": {"latitude": 55.829316, "longitude": -4.282513}, "main": {"latitude": 55.829165, "longitude": -4.282386}, "roof": {"latitude": 55.829165, "longitude": -4.282386}}, "link": "/v3/places/588ddcc46d349d3000c56b41", "location": {"address": "51 Kilmarnock Rd", "admin_region": "Scotland", "country": "GB", "cross_street": "", "formatted_address": "51 Kilmarnock Rd, Glasgow, G41 3YN", "locality": "Glasgow", "post_town": "Glasgow", "postcode": "G41 3YN"}, "name": "Soy Division", "related_places": {}, "timezone": "Europe/London"}, {"fsq_id": "5f560a15a878b571b2fc4965", "categories": [{"id": 13035, "name": "Coffee Shop", "short_name": "Coffee Shop", "plural_name": "Coffee Shops", "icon": {"prefix": "https://ss3.4sqi.net/img/categories_v2/food/coffeeshop_", "suffix": ".png"}}, {"id": 13055, "name": "Fried Chicken Joint", "short_name": "Fried Chicken", "plural_name": "Fried Chicken Joints", "icon": {"prefix": "https://ss3.4sqi.net/img/categories_v2/food/friedchicken_", "suffix": ".png"}}, {"id": 13145, "name": "Fast Food Restaurant", "short_name": "Fast Food", "plural_name": "Fast Food Restaurants", "icon": {"prefix": "https://ss3.4sqi.net/img/categories_v2/food/fastfood_", "suffix": ".png"}}], "chains": [], "closed_bucket": "VeryLikelyOpen", "distance": 16, "geocodes": {"main": {"latitude": 55.82911, "longitude": -4.282419}, "roof": {"latitude": 55.82911, "longitude": -4.282419}}, "link": "/v3/places/5f560a15a878b571b2fc4965", "location": {"address": "49 Kilmarnock Rd", "admin_region": "Scotland", "country": "GB", "cross_street": "", "formatted_address": "49 Kilmarnock Rd, Glasgow, Glasgow City, G41 3YN", "locality": "Glasgow", "post_town": "Glasgow", "postcode": "G41 3YN", "region": "Glasgow City"}, "name": "Porto PiriPiri", "related_places": {}, "timezone": "Europe/London"}, {"fsq_id": "5b8993aa8ad62e002c9882dc", "categories": [{"id": 13194, "name": "Himalayan Restaurant", "short_name": "Himalayan", "plural_name": "Himalayan Restaurants", "icon": {"prefix": "https://ss3.4sqi.net/img/categories_v2/food/default_", "suffix": ".png"}}], "chains": [], "closed_bucket": "VeryLikelyOpen", "distance": 43, "geocodes": {"main": {"latitude": 55.828661, "longitude": -4.282896}, "roof": {"latitude": 55.828661, "longitude": -4.282896}}, "link": "/v3/places/5b8993aa8ad62e002c9882dc", "location": {"address": "71 Kilmarnock Rd", "admin_region": "Scotland", "country": "GB", "cross_street": "", "formatted_address": "71 Kilmarnock Rd, Glasgow, Glasgow City, G41 3YR", "locality": "Glasgow", "post_town": "Glasgow", "postcode": "G41 3YR", "region": "Glasgow City"}, "name": "Himalayan Dine", "related_places": {}, "timezone": "Europe/London"}, {"fsq_id": "597c6c71898bdc5ce5ec4332", "categories": [{"id": 13354, "name": "Theme Restaurant", "short_name": "Theme Restaurant", "plural_name": "Theme Restaurants", "icon": {"prefix": "https://ss3.4sqi.net/img/categories_v2/food/default_", "suffix": ".png"}}], "chains": [], "closed_bucket": "Unsure", "distance": 49, "geocodes": {"main": {"latitude": 55.828655, "longitude": -4.283}, "roof": {"latitude": 55.828655, "longitude": -4.283}}, "link": "/v3/places/597c6c71898bdc5ce5ec4332", "location": {"address": "69 Kilmarnock Rd", "admin_region": "Scotland", "country": "GB", "cross_street": "", "formatted_address": "69 Kilmarnock Rd, Glasgow, Glasgow City, G41 3YR", "locality": "Glasgow", "post_town": "Glasgow", "postcode": "G41 3YR", "region": "Glasgow City"}, "name": "Lean Canteen", "related_places": {}, "timezone": "Europe/London"}, {"fsq_id": "4c4dd46d51c2c928272b719d", "categories": [{"id": 12097, "name": "Social Club", "short_name": "Social Club", "plural_name": "Social Clubs", "icon": {"prefix": "https://ss3.4sqi.net/img/categories_v2/building/default_", "suffix": ".png"}}, {"id": 13065, "name": "Restaurant", "short_name": "Restaurant", "plural_name": "Restaurants", "icon": {"prefix": "https://ss3.4sqi.net/img/categories_v2/food/default_", "suffix": ".png"}}], "chains": [], "closed_bucket": "VeryLikelyOpen", "distance": 82, "geocodes": {"main": {"latitude": 55.829753, "longitude": -4.282229}, "roof": {"latitude": 55.829753, "longitude": -4.282229}}, "link": "/v3/places/4c4dd46d51c2c928272b719d", "location": {"address": "1179 Pollokshaws Rd", "admin_region": "Scotland", "country": "GB", "cross_street": "", "formatted_address": "1179 Pollokshaws Rd, Glasgow, G41 3YH", "locality": "Glasgow", "post_town": "Glasgow", "postcode": "G41 3YH"}, "name": "Social Southside", "related_places": {}, "timezone": "Europe/London"}, {"fsq_id": "6efaf11ba2d149c0bb701ad4", "categories": [{"id": 13035, "name": "Coffee Shop", "short_name": "Coffee Shop", "plural_name": "Coffee Shops", "icon": {"prefix": "https://ss3.4sqi.net/img/categories_v2/food/coffeeshop_", "suffix": ".png"}}, {"id": 13036, "name": "Tea Room", "short_name": "Tea Room", "plural_name": "Tea Rooms", "icon": {"prefix": "https://ss3.4sqi.net/img/categories_v2/food/tearoom_", "suffix": ".png"}}, {"id": 13065, "name": "Restaurant", "short_name": "Restaurant", "plural_name": "Restaurants", "icon": {"prefix": "https://ss3.4sqi.net/img/categories_v2/food/default_", "suffix": ".png"}}], "chains": [], "closed_bucket": "VeryLikelyOpen", "distance": 101, "geocodes": {"main": {"latitude": 55.829954, "longitude": -4.28241}, "roof": {"latitude": 55.829954, "longitude": -4.28241}}, "link": "/v3/places/6efaf11ba2d149c0bb701ad4", "location": {"address": "1171 Pollokshaws Rd", "admin_region": "Scotland", "country": "GB", "formatted_address": "1171 Pollokshaws Rd, Glasgow, G41 3NG", "locality": "Glasgow", "post_town": "Glasgow", "postcode": "G41 3NG"}, "name": "Eats by Heavenly Treats", "related_places": {}, "timezone": "Europe/London"}, {"fsq_id": "6190ebd737166e09a80fb67d", "categories": [{"id": 13065, "name": "Restaurant", "short_name": "Restaurant", "plural_name": "Restaurants", "icon": {"prefix": "https://ss3.4sqi.net/img/categories_v2/food/default_", "suffix": ".png"}}], "chains": [], "closed_bucket": "LikelyOpen", "distance": 123, "geocodes": {"drop_off": {"latitude": 55.830079, "longitude": -4.28155}, "main": {"latitude": 55.829905, "longitude": -4.281428}, "roof": {"latitude": 55.829905, "longitude": -4.281428}}, "link": "/v3/places/6190ebd737166e09a80fb67d", "location": {"address": "1 Kilmarnock Rd", "admin_region": "Scotland", "country": "GB", "cross_street": "", "formatted_address": "1 Kilmarnock Rd, Glasgow, Glasgow City, G41 3YN", "locality": "Glasgow", "post_town": "Glasgow", "postcode": "G41 3YN", "region": "Glasgow City"}, "name": "Oscar Bar&Kitchen", "related_places": {}, "timezone": "Europe/London"}, {"fsq_id": "5b5306d293bd63002c001300", "categories": [{"id": 13034, "name": "Caf\u00e9", "short_name": "Caf\u00e9", "plural_name": "Caf\u00e9s", "icon": {"prefix": "https://ss3.4sqi.net/img/categories_v2/food/cafe_", "suffix": ".png"}}, {"id": 13065, "name": "Restaurant", "short_name": "Restaurant", "plural_name": "Restaurants", "icon": {"prefix": "https://ss3.4sqi.net/img/categories_v2/food/default_", "suffix": ".png"}}], "chains": [], "closed_bucket": "Unsure", "distance": 134, "geocodes": {"drop_off": {"latitude": 55.829739, "longitude": -4.280832}, "main": {"latitude": 55.829619, "longitude": -4.280894}, "roof": {"latitude": 55.829619, "longitude": -4.280894}}, "link": "/v3/places/5b5306d293bd63002c001300", "location": {"address": "17 Skirving St", "admin_region": "Scotland", "country": "GB", "cross_street": "", "formatted_address": "17 Skirving St, Glasgow, Glasgow City, G41 3AB", "locality": "Glasgow", "post_town": "Glasgow", "postcode": "G41 3AB", "region": "Glasgow City"}, "name": "Hug Cafe", "related_places": {}, "timezone": "Europe/London"}, {"fsq_id": "724fbd2de4d5ef30a1a81f2e", "categories": [{"id": 13199, "name": "Indian Restaurant", "short_name": "Indian", "plural_name": "Indian Restaurants", "icon": {"prefix": "https://ss3.4sqi.net/img/categories_v2/food/indian_", "suffix": ".png"}}], "chains": [], "closed_bucket": "VeryLikelyOpen", "distance": 182, "geocodes": {"drop_off": {"latitude": 55.82914, "longitude": -4.27968}, "main": {"latitude": 55.828999, "longitude": -4.279754}, "roof": {"latitude": 55.828999, "longitude": -4.279754}}, "link": "/v3/places/724fbd2de4d5ef30a1a81f2e", "location": {"address": "44 Skirving St", "admin_region": "Scotland", "country": "GB", "formatted_address": "44 Skirving St, Glasgow, Glasgow City", "locality": "Glasgow", "post_town": "Glasgow", "region": "Glasgow City"}, "name": "Yaars", "related_places": {}, "timezone": "Europe/London"}, {"fsq_id": "5182b140498e5b375e6bc442", "categories": [{"id": 13099, "name": "Chinese Restaurant", "short_name": "Chinese", "plural_name": "Chinese Restaurants", "icon": {"prefix": "https://ss3.4sqi.net/img/categories_v2/food/asian_", "suffix": ".png"}}], "chains": [], "closed_bucket": "LikelyOpen", "distance": 189, "geocodes": {"main": {"latitude": 55.827114, "longitude": -4.285054}, "roof": {"latitude": 55.827114, "longitude": -4.285054}}, "link": "/v3/places/5182b140498e5b375e6bc442", "location": {"address": "162 Kilmarnock Rd", "admin_region": "Scotland", "country": "GB", "cross_street": "", "formatted_address": "162 Kilmarnock Rd, Glasgow, G41 3PG", "locality": "Glasgow", "post_town": "Glasgow", "postcode": "G41 3PG"}, "name": "Tao Chinese Takeaway", "related_places": {}, "timezone": "Europe/London"}, {"fsq_id": "4cc1d4f982388cfa7ef65b35", "categories": [{"id": 13099, "name": "Chinese Restaurant", "short_name": "Chinese", "plural_name": "Chinese Restaurants", "icon": {"prefix": "https://ss3.4sqi.net/img/categories_v2/food/asian_", "suffix": ".png"}}], "chains": [], "closed_bucket": "VeryLikelyOpen", "distance": 191, "geocodes": {"drop_off": {"latitude": 55.829327, "longitude": -4.280038}, "main": {"latitude": 55.82957, "longitude": -4.279912}, "roof": {"latitude": 55.82957, "longitude": -4.279912}}, "link": "/v3/places/4cc1d4f982388cfa7ef65b35", "location": {"address": "44 Skirving St", "admin_region": "Scotland", "country": "GB", "cross_street": "", "formatted_address": "44 Skirving St, Glasgow, Glasgow City", "locality": "Glasgow", "post_town": "Glasgow", "region": "Glasgow City"}, "name": "Skirving Limited", "related_places": {}, "timezone": "Europe/London"}, {"fsq_id": "5b98a85ea91d4616fc30484d", "categories": [{"id": 13065, "name": "Restaurant", "short_name": "Restaurant", "plural_name": "Restaurants", "icon": {"prefix": "https://ss3.4sqi.net/img/categories_v2/food/default_", "suffix": ".png"}}], "chains": [], "closed_bucket": "Unsure", "distance": 216, "geocodes": {"drop_off": {"latitude": 55.830681, "longitude": -4.280502}, "main": {"latitude": 55.830541, "longitude": -4.280432}, "roof": {"latitude": 55.830541, "longitude": -4.280432}}, "link": "/v3/places/5b98a85ea91d4616fc30484d", "location": {"address": "1117a Pollokshaws Rd", "admin_region": "Scotland", "country": "GB", "formatted_address": "1117a Pollokshaws Rd, Glasgow, Glasgow City, G41 3YH", "locality": "Glasgow", "post_town": "Glasgow", "postcode": "G41 3YH", "region": "Glasgow City"}, "name": "The Coffee Garden", "related_places": {}, "timezone": "Europe/London"}, {"fsq_id": "4c3786b693db0f47a9f31f92", "categories": [{"id": 13018, "name": "Pub", "short_name": "Pub", "plural_name": "Pubs", "icon": {"prefix": "https://ss3.4sqi.net/img/categories_v2/nightlife/pub_", "suffix": ".png"}}], "chains": [], "closed_bucket": "VeryLikelyOpen", "distance": 226, "geocodes": {"drop_off": {"latitude": 55.827314, "longitude": -4.284604}, "main": {"latitude": 55.827448, "longitude": -4.284749}, "roof": {"latitude": 55.827448, "longitude": -4.284749}}, "link": "/v3/places/4c3786b693db0f47a9f31f92", "location": {"address": "137 Kilmarnock Road", "country": "GB", "formatted_address": "137 Kilmarnock Road, Glasgow, Glasgow City, G41 3YT", "locality": "Glasgow", "postcode": "G41 3YT", "region": "Glasgow City"}, "name": "The Millwood", "related_places": {}, "timezone": "Europe/London"}, {"fsq_id": "5b016d69a89b5a0024efece1", "categories": [{"id": 13299, "name": "Malay Restaurant", "short_name": "Malay", "plural_name": "Malay Restaurants", "icon": {"prefix": "https://ss3.4sqi.net/img/categories_v2/food/malaysian_", "suffix": ".png"}}], "chains": [], "closed_bucket": "Unsure", "distance": 231, "geocodes": {"drop_off": {"latitude": 55.830749, "longitude": -4.280368}, "main": {"latitude": 55.830602, "longitude": -4.280294}, "roof": {"latitude": 55.830602, "longitude": -4.280294}}, "link": "/v3/places/5b016d69a89b5a0024efece1", "location": {"address": "1109 Pollokshaws Rd", "admin_region": "Scotland", "country": "GB", "cross_street": "", "formatted_address": "1109 Pollokshaws Rd, Glasgow, Glasgow City, G41 3YG", "locality": "Glasgow", "post_town": "Glasgow", "postcode": "G41 3YG", "region": "Glasgow City"}, "name": "Julie's Kopitiam", "related_places": {}, "timezone": "Europe/London"}, {"fsq_id": "5c016a32894eac002cdaafff", "categories": [{"id": 10018, "name": "Gaming Cafe", "short_name": "Gaming Cafe", "plural_name": "Gaming Cafes", "icon": {"prefix": "https://ss3.4sqi.net/img/categories_v2/shops/gamingcafe_", "suffix": ".png"}}, {"id": 13035, "name": "Coffee Shop", "short_name": "Coffee Shop", "plural_name": "Coffee Shops", "icon": {"prefix": "https://ss3.4sqi.net/img/categories_v2/food/coffeeshop_", "suffix": ".png"}}, {"id": 13065, "name": "Restaurant", "short_name": "Restaurant", "plural_name": "Restaurants", "icon": {"prefix": "https://ss3.4sqi.net/img/categories_v2/food/default_", "suffix": ".png"}}, {"id": 13382, "name": "Snack Place", "short_name": "Snacks", "plural_name": "Snack Places", "icon": {"prefix": "https://ss3.4sqi.net/img/categories_v2/food/snacks_", "suffix": ".png"}}, {"id": 17027, "name": "Video Games Store", "short_name": "Video Game Store", "plural_name": "Video Game Stores", "icon": {"prefix": "https://ss3.4sqi.net/img/categories_v2/shops/videogames_", "suffix": ".png"}}, {"id": 17057, "name": "Food and Beverage Retail", "short_name": "Food & Beverage", "plural_name": "Food and Beverage Retail", "icon": {"prefix": "https://ss3.4sqi.net/img/categories_v2/shops/foodanddrink_", "suffix": ".png"}}], "chains": [], "closed_bucket": "Unsure", "distance": 262, "geocodes": {"drop_off": {"latitude": 55.830935, "longitude": -4.280006}, "main": {"latitude": 55.830832, "longitude": -4.27995}, "roof": {"latitude": 55.830832, "longitude": -4.27995}}, "link": "/v3/places/5c016a32894eac002cdaafff", "location": {"address": "1091 Pollokshaws Rd", "admin_region": "Scotland", "country": "GB", "cross_street": "", "formatted_address": "1091 Pollokshaws Rd, Glasgow, Glasgow City, G41 3YG", "locality": "Glasgow", "post_town": "Glasgow", "postcode": "G41 3YG", "region": "Glasgow City"}, "name": "Lucky Sparrow Games", "related_places": {}, "timezone": "Europe/London"}, {"fsq_id": "4ef678717ee5bf7993b51c0c", "categories": [{"id": 13145, "name": "Fast Food Restaurant", "short_name": "Fast Food", "plural_name": "Fast Food Restaurants", "icon": {"prefix": "https://ss3.4sqi.net/img/categories_v2/food/fastfood_", "suffix": ".png"}}], "chains": [], "closed_bucket": "VeryLikelyOpen", "distance": 308, "geocodes": {"main": {"latitude": 55.831129, "longitude": -4.279364}, "roof": {"latitude": 55.831129, "longitude": -4.279364}}, "link": "/v3/places/4ef678717ee5bf7993b51c0c", "location": {"address": "1059 Pollokshaws Rd", "admin_region": "Scotland", "country": "GB", "formatted_address": "1059 Pollokshaws Rd, Glasgow, Glasgow City, G41 3YF", "locality": "Glasgow", "post_town": "Glasgow", "postcode": "G41 3YF", "region": "Glasgow City"}, "name": "Baba Tandoori", "related_places": {}, "timezone": "Europe/London"}, {"fsq_id": "4e625c25e4cdf1e2bf430d33", "categories": [{"id": 13007, "name": "Beer Garden", "short_name": "Beer Garden", "plural_name": "Beer Gardens", "icon": {"prefix": "https://ss3.4sqi.net/img/categories_v2/nightlife/beergarden_", "suffix": ".png"}}], "chains": [], "closed_bucket": "VeryLikelyOpen", "distance": 331, "geocodes": {"main": {"latitude": 55.827127, "longitude": -4.286666}, "roof": {"latitude": 55.827127, "longitude": -4.286666}}, "link": "/v3/places/4e625c25e4cdf1e2bf430d33", "location": {"country": "GB", "cross_street": "", "formatted_address": "Glasgow, Glasgow City", "locality": "Glasgow", "post_town": "Glasgow", "region": "Glasgow City"}, "name": "Celtic Pub", "related_places": {}, "timezone": "Europe/London"}, {"fsq_id": "4c261d64905a0f47099c6260", "categories": [{"id": 13003, "name": "Bar", "short_name": "Bar", "plural_name": "Bars", "icon": {"prefix": "https://ss3.4sqi.net/img/categories_v2/nightlife/pub_", "suffix": ".png"}}, {"id": 13065, "name": "Restaurant", "short_name": "Restaurant", "plural_name": "Restaurants", "icon": {"prefix": "https://ss3.4sqi.net/img/categories_v2/food/default_", "suffix": ".png"}}], "chains": [], "closed_bucket": "LikelyOpen", "distance": 341, "geocodes": {"main": {"latitude": 55.831311, "longitude": -4.278949}, "roof": {"latitude": 55.831311, "longitude": -4.278949}}, "link": "/v3/places/4c261d64905a0f47099c6260", "location": {"address": "1039 Pollokshaws Rd", "admin_region": "Scotland", "country": "GB", "cross_street": "", "formatted_address": "1039 Pollokshaws Rd, Glasgow, Glasgow City, G41 3YF", "locality": "Glasgow", "post_town": "Glasgow", "postcode": "G41 3YF", "region": "Glasgow City"}, "name": "Corona Bar", "related_places": {}, "timezone": "Europe/London"}, {"fsq_id": "4cf2520c6c29236a40ec6aa2", "categories": [{"id": 13027, "name": "Bistro", "short_name": "Bistro", "plural_name": "Bistros", "icon": {"prefix": "https://ss3.4sqi.net/img/categories_v2/food/default_", "suffix": ".png"}}, {"id": 13034, "name": "Caf\u00e9", "short_name": "Caf\u00e9", "plural_name": "Caf\u00e9s", "icon": {"prefix": "https://ss3.4sqi.net/img/categories_v2/food/cafe_", "suffix": ".png"}}, {"id": 13035, "name": "Coffee Shop", "short_name": "Coffee Shop", "plural_name": "Coffee Shops", "icon": {"prefix": "https://ss3.4sqi.net/img/categories_v2/food/coffeeshop_", "suffix": ".png"}}], "chains": [], "closed_bucket": "LikelyOpen", "distance": 368, "geocodes": {"main": {"latitude": 55.826841, "longitude": -4.285221}, "roof": {"latitude": 55.826841, "longitude": -4.285221}}, "link": "/v3/places/4cf2520c6c29236a40ec6aa2", "location": {"address": "178 Kilmarnock Rd", "admin_region": "Scotland", "country": "GB", "cross_street": "", "formatted_address": "178 Kilmarnock Rd, Glasgow, Glasgow City, G41 3PG", "locality": "Glasgow", "post_town": "Glasgow", "postcode": "G41 3PG", "region": "Glasgow City"}, "name": "One Seven Ate", "related_places": {}, "timezone": "Europe/London"}, {"fsq_id": "4c265dd9a852c928a587e66c", "categories": [{"id": 13067, "name": "African Restaurant", "short_name": "African", "plural_name": "African Restaurants", "icon": {"prefix": "https://ss3.4sqi.net/img/categories_v2/food/african_", "suffix": ".png"}}, {"id": 13145, "name": "Fast Food Restaurant", "short_name": "Fast Food", "plural_name": "Fast Food Restaurants", "icon": {"prefix": "https://ss3.4sqi.net/img/categories_v2/food/fastfood_", "suffix": ".png"}}], "chains": [], "closed_bucket": "LikelyOpen", "distance": 434, "geocodes": {"main": {"latitude": 55.832088, "longitude": -4.278273}, "roof": {"latitude": 55.832088, "longitude": -4.278273}}, "link": "/v3/places/4c265dd9a852c928a587e66c", "location": {"address": "1006A Pollokshaws Rd", "admin_region": "Scotland", "country": "GB", "formatted_address": "1006A Pollokshaws Rd, Glasgow, Glasgow City, G41 2HG", "locality": "Glasgow", "post_town": "Glasgow", "postcode": "G41 2HG", "region": "Glasgow City"}, "name": "Camflava", "related_places": {}, "timezone": "Europe/London"}, {"fsq_id": "589cd2aa005a0f1cef9e9343", "categories": [{"id": 13064, "name": "Pizzeria", "short_name": "Pizza", "plural_name": "Pizzerias", "icon": {"prefix": "https://ss3.4sqi.net/img/categories_v2/food/pizza_", "suffix": ".png"}}, {"id": 13145, "name": "Fast Food Restaurant", "short_name": "Fast Food", "plural_name": "Fast Food Restaurants", "icon": {"prefix": "https://ss3.4sqi.net/img/categories_v2/food/fastfood_", "suffix": ".png"}}], "chains": [{"id": "ab4afc60-d68a-012e-5619-003048cad9da", "name": "Domino's Pizza"}], "closed_bucket": "VeryLikelyOpen", "distance": 434, "geocodes": {"main": {"latitude": 55.825634, "longitude": -4.286059}, "roof": {"latitude": 55.825634, "longitude": -4.286059}}, "link": "/v3/places/589cd2aa005a0f1cef9e9343", "location": {"address": "228-232 Kilmarnock Rd", "admin_region": "Scotland", "country": "GB", "cross_street": "", "formatted_address": "228-232 Kilmarnock Rd, Glasgow, Glasgow City, G43 1TY", "locality": "Glasgow", "post_town": "Glasgow", "postcode": "G43 1TY", "region": "Glasgow City"}, "name": "Domino's Pizza", "related_places": {}, "timezone": "Europe/London"}, {"fsq_id": "4c092db47e3fc928277df182", "categories": [{"id": 13018, "name": "Pub", "short_name": "Pub", "plural_name": "Pubs", "icon": {"prefix": "https://ss3.4sqi.net/img/categories_v2/nightlife/pub_", "suffix": ".png"}}], "chains": [], "closed_bucket": "LikelyOpen", "distance": 499, "geocodes": {"drop_off": {"latitude": 55.825513, "longitude": -4.28753}, "main": {"latitude": 55.825392, "longitude": -4.287523}, "roof": {"latitude": 55.825392, "longitude": -4.287523}}, "link": "/v3/places/4c092db47e3fc928277df182", "location": {"address": "52 Coustonholm Rd", "admin_region": "Scotland", "country": "GB", "formatted_address": "52 Coustonholm Rd, Glasgow, Glasgow City, G43 1UF", "locality": "Glasgow", "post_town": "Glasgow", "postcode": "G43 1UF", "region": "Glasgow City"}, "name": "Quaich", "related_places": {}, "timezone": "Europe/London"}, {"fsq_id": "4df3944714954f21cf2ea7b5", "categories": [{"id": 13003, "name": "Bar", "short_name": "Bar", "plural_name": "Bars", "icon": {"prefix": "https://ss3.4sqi.net/img/categories_v2/nightlife/pub_", "suffix": ".png"}}], "chains": [], "closed_bucket": "LikelyOpen", "distance": 516, "geocodes": {"main": {"latitude": 55.833264, "longitude": -4.276137}, "roof": {"latitude": 55.833264, "longitude": -4.276137}}, "link": "/v3/places/4df3944714954f21cf2ea7b5", "location": {"address": "962 Pollokshaws Rd", "admin_region": "Scotland", "country": "GB", "formatted_address": "962 Pollokshaws Rd, Glasgow, Glasgow City, G41 2ET", "locality": "Glasgow", "post_town": "Glasgow", "postcode": "G41 2ET", "region": "Glasgow City"}, "name": "The Bay Horse", "related_places": {}, "timezone": "Europe/London"}, {"fsq_id": "5b5701b22463d8004481da88", "categories": [{"id": 13034, "name": "Caf\u00e9", "short_name": "Caf\u00e9", "plural_name": "Caf\u00e9s", "icon": {"prefix": "https://ss3.4sqi.net/img/categories_v2/food/cafe_", "suffix": ".png"}}, {"id": 13035, "name": "Coffee Shop", "short_name": "Coffee Shop", "plural_name": "Coffee Shops", "icon": {"prefix": "https://ss3.4sqi.net/img/categories_v2/food/coffeeshop_", "suffix": ".png"}}, {"id": 13065, "name": "Restaurant", "short_name": "Restaurant", "plural_name": "Restaurants", "icon": {"prefix": "https://ss3.4sqi.net/img/categories_v2/food/default_", "suffix": ".png"}}], "chains": [], "closed_bucket": "VeryLikelyOpen", "distance": 661, "geocodes": {"main": {"latitude": 55.833646, "longitude": -4.275904}, "roof": {"latitude": 55.833646, "longitude": -4.275904}}, "link": "/v3/places/5b5701b22463d8004481da88", "location": {"address": "890 Pollokshaws Rd", "admin_region": "Scotland", "country": "GB", "cross_street": "", "formatted_address": "890 Pollokshaws Rd, Glasgow, Glasgow City, G41 2ET", "locality": "Glasgow", "post_town": "Glasgow", "postcode": "G41 2ET", "region": "Glasgow City"}, "name": "Wild Bean Caf\u00e9", "related_places": {"parent": {"fsq_id": "4c40ad807beab713b8639555", "categories": [{"id": 19007, "name": "Fuel Station", "short_name": "Fuel Station", "plural_name": "Fuel Stations", "icon": {"prefix": "https://ss3.4sqi.net/img/categories_v2/shops/gas_", "suffix": ".png"}}], "name": "Bp Pulse"}}, "timezone": "Europe/London"}, {"fsq_id": "526ea7df498e5b63e521e724", "categories": [{"id": 13003, "name": "Bar", "short_name": "Bar", "plural_name": "Bars", "icon": {"prefix": "https://ss3.4sqi.net/img/categories_v2/nightlife/pub_", "suffix": ".png"}}], "chains": [], "closed_bucket": "VeryLikelyOpen", "distance": 827, "geocodes": {"main": {"latitude": 55.827611, "longitude": -4.295682}, "roof": {"latitude": 55.827611, "longitude": -4.295682}}, "link": "/v3/places/526ea7df498e5b63e521e724", "location": {"admin_region": "Scotland", "country": "GB", "cross_street": "", "formatted_address": "Glasgow, Glasgow City, G43 1RF", "locality": "Glasgow", "post_town": "Glasgow", "postcode": "G43 1RF", "region": "Glasgow City"}, "name": "Burrell", "related_places": {}, "timezone": "Europe/London"}, {"fsq_id": "4e3bc7586365a251c7023f9f", "categories": [{"id": 13099, "name": "Chinese Restaurant", "short_name": "Chinese", "plural_name": "Chinese Restaurants", "icon": {"prefix": "https://ss3.4sqi.net/img/categories_v2/food/asian_", "suffix": ".png"}}, {"id": 13145, "name": "Fast Food Restaurant", "short_name": "Fast Food", "plural_name": "Fast Food Restaurants", "icon": {"prefix": "https://ss3.4sqi.net/img/categories_v2/food/fastfood_", "suffix": ".png"}}], "chains": [], "closed_bucket": "LikelyOpen", "distance": 878, "geocodes": {"main": {"latitude": 55.825632, "longitude": -4.29527}, "roof": {"latitude": 55.825632, "longitude": -4.29527}}, "link": "/v3/places/4e3bc7586365a251c7023f9f", "location": {"address": "33 Shawbridge Arcade", "admin_region": "Scotland", "country": "GB", "formatted_address": "33 Shawbridge Arcade, Glasgow, Glasgow City, G43 1RT", "locality": "Glasgow", "post_town": "Glasgow", "postcode": "G43 1RT", "region": "Glasgow City"}, "name": "Lucky Star", "related_places": {}, "timezone": "Europe/London"}, {"fsq_id": "4ca7763ea6e08cfad9fa8494", "categories": [{"id": 13177, "name": "Greek Restaurant", "short_name": "Greek", "plural_name": "Greek Restaurants", "icon": {"prefix": "https://ss3.4sqi.net/img/categories_v2/food/greek_", "suffix": ".png"}}], "chains": [], "closed_bucket": "VeryLikelyOpen", "distance": 1003, "geocodes": {"main": {"latitude": 55.826381, "longitude": -4.267486}, "roof": {"latitude": 55.826381, "longitude": -4.267486}}, "link": "/v3/places/4ca7763ea6e08cfad9fa8494", "location": {"address": "34 Sinclair Dr", "admin_region": "Scotland", "country": "GB", "cross_street": "", "formatted_address": "34 Sinclair Dr, Glasgow, G42 9QE", "locality": "Glasgow", "post_town": "Glasgow", "postcode": "G42 9QE"}, "name": "Greek Golden Kebab", "related_places": {}, "timezone": "Europe/London"}, {"fsq_id": "0e856cd0ccd94014364ed9b1", "categories": [{"id": 13034, "name": "Caf\u00e9", "short_name": "Caf\u00e9", "plural_name": "Caf\u00e9s", "icon": {"prefix": "https://ss3.4sqi.net/img/categories_v2/food/cafe_", "suffix": ".png"}}, {"id": 13065, "name": "Restaurant", "short_name": "Restaurant", "plural_name": "Restaurants", "icon": {"prefix": "https://ss3.4sqi.net/img/categories_v2/food/default_", "suffix": ".png"}}], "chains": [], "closed_bucket": "Unsure", "distance": 148, "geocodes": {"drop_off": {"latitude": 55.827868, "longitude": -4.282205}, "main": {"latitude": 55.827756, "longitude": -4.282132}, "roof": {"latitude": 55.827756, "longitude": -4.282132}}, "link": "/v3/places/0e856cd0ccd94014364ed9b1", "location": {"address": "159 Deanston Dr Shawlands", "admin_region": "Scotland", "country": "GB", "formatted_address": "159 Deanston Dr Shawlands, Glasgow", "locality": "Glasgow", "post_town": "Glasgow"}, "name": "Theshakincow", "related_places": {}}, {"fsq_id": "04d00a50dda847e73a433bbb", "categories": [{"id": 13003, "name": "Bar", "short_name": "Bar", "plural_name": "Bars", "icon": {"prefix": "https://ss3.4sqi.net/img/categories_v2/nightlife/pub_", "suffix": ".png"}}, {"id": 13065, "name": "Restaurant", "short_name": "Restaurant", "plural_name": "Restaurants", "icon": {"prefix": "https://ss3.4sqi.net/img/categories_v2/food/default_", "suffix": ".png"}}], "chains": [], "closed_bucket": "Unsure", "distance": 187, "geocodes": {"main": {"latitude": 55.827587, "longitude": -4.284158}, "roof": {"latitude": 55.827587, "longitude": -4.284158}}, "link": "/v3/places/04d00a50dda847e73a433bbb", "location": {"address": "137-139 Kilmarnock Rd", "admin_region": "Scotland", "country": "GB", "formatted_address": "137-139 Kilmarnock Rd, Glasgow, G41 3YT", "locality": "Glasgow", "post_town": "Glasgow", "postcode": "G41 3YT"}, "name": "Finlays Bar", "related_places": {}}, {"fsq_id": "59ce0b1f4d1a4fd2529d4286", "categories": [{"id": 13003, "name": "Bar", "short_name": "Bar", "plural_name": "Bars", "icon": {"prefix": "https://ss3.4sqi.net/img/categories_v2/nightlife/pub_", "suffix": ".png"}}], "chains": [], "closed_bucket": "Unsure", "distance": 254, "geocodes": {"drop_off": {"latitude": 55.830927, "longitude": -4.282039}, "main": {"latitude": 55.831301, "longitude": -4.281891}, "roof": {"latitude": 55.831301, "longitude": -4.281891}}, "link": "/v3/places/59ce0b1f4d1a4fd2529d4286", "location": {"address": "18 Moss Side Rd", "admin_region": "Scotland", "country": "GB", "formatted_address": "18 Moss Side Rd, Glasgow, G41 3TN", "locality": "Glasgow", "post_town": "Glasgow", "postcode": "G41 3TN"}, "name": "G1 Group", "related_places": {}}, {"fsq_id": "cdaa1aee281445c78c3e0de6", "categories": [{"id": 13065, "name": "Restaurant", "short_name": "Restaurant", "plural_name": "Restaurants", "icon": {"prefix": "https://ss3.4sqi.net/img/categories_v2/food/default_", "suffix": ".png"}}], "chains": [], "closed_bucket": "LikelyOpen", "distance": 448, "geocodes": {"drop_off": {"latitude": 55.831986, "longitude": -4.278127}, "main": {"latitude": 55.832246, "longitude": -4.278278}, "roof": {"latitude": 55.832246, "longitude": -4.278278}}, "link": "/v3/places/cdaa1aee281445c78c3e0de6", "location": {"address": "1002 Pollokshaws Rd", "admin_region": "Scotland", "country": "GB", "formatted_address": "1002 Pollokshaws Rd, Glasgow, G41 2HG", "locality": "Glasgow", "post_town": "Glasgow", "postcode": "G41 2HG"}, "name": "Yummy Lebanese Bites", "related_places": {}}], "context": {"geo_bounds": {"circle": {"center": {"latitude": 55.829057, "longitude": -4.282675}, "radius": 1000}}}}