{"results": [{"fsq_id": "4b64a36cf964a52074c42ae3", "categories": [{"id": 13065, "name": "Restaurant", "short_name": "Restaurant", "plural_name": "Restaurants", "icon": {"prefix": "https://ss3.4sqi.net/img/categories_v2/food/default_", "suffix": ".png"}}], "chains": [{"id": "2fceefe0-9c63-0132-6632-3c15c2dde6c8", "name": "Nando's"}], "closed_bucket": "VeryLikelyOpen", "distance": 624, "geocodes": {"main": {"latitude": 55.855409, "longitude": -4.275873}, "roof": {"latitude": 55.855409, "longitude": -4.275873}}, "link": "/v3/places/4b64a36cf964a52074c42ae3", "location": {"address": "Paisley Rd West", "address_extended": "Unit D2", "admin_region": "Scotland", "country": "GB", "cross_street": "", "formatted_address": "Paisley Rd West, Glasgow, Glasgow City, G5 8NP", "locality": "Glasgow", "post_town": "Glasgow", "postcode": "G5 8NP", "region": "Glasgow City"}, "name": "Nando's", "related_places": {"parent": {"fsq_id": "4c27a4683703d13a1f58a736", "categories": [{"id": 10000, "name": "Arts and Entertainment", "short_name": "Arts & Entertainment", "plural_name": "Arts and Entertainment", "icon": {"prefix": "https://ss3.4sqi.net/img/categories_v2/arts_entertainment/default_", "suffix": ".png"}}], "name": "The Quay"}}, "timezone": "Europe/London"}, {"fsq_id": "5515b46c498edbb34c84b689", "categories": [{"id": 13030, "name": "Buffet", "short_name": "Buffet", "plural_name": "Buffets", "icon": {"prefix": "https://ss3.4sqi.net/img/categories_v2/food/default_", "suffix": ".png"}}], "chains": [], "closed_bucket": "VeryLikelyOpen", "distance": 421, "geocodes": {"main": {"latitude": 55.853525, "longitude": -4.27196}, "roof": {"latitude": 55.853525, "longitude": -4.27196}}, "link": "/v3/places/5515b46c498edbb34c84b689", "location": {"address": "251 Paisley Rd", "admin_region": "Scotland", "country": "GB", "cross_street": "", "formatted_address": "251 Paisley Rd, Glasgow, G5 8RA", "locality": "Glasgow", "post_town": "Glasgow", "postcode": "G5 8RA"}, "name": "Cook & Indi's World Buffet", "related_places": {}, "timezone": "Europe/London"}, {"fsq_id": "55b54074498ecddd89379f13", "categories": [{"id": 13016, "name": "Lounge", "short_name": "Lounge", "plural_name": "Lounges", "icon": {"prefix": "https://ss3.4sqi.net/img/categories_v2/nightlife/default_", "suffix": ".png"}}, {"id": 13034, "name": "Caf\u00e9", "short_name": "Caf\u00e9", "plural_name": "Caf\u00e9s", "icon": {"prefix": "https://ss3.4sqi.net/img/categories_v2/food/cafe_", "suffix": ".png"}}], "chains": [], "closed_bucket": "Unsure", "distance": 777, "geocodes": {"drop_off": {"latitude": 55.853149, "longitude": -4.262538}, "main": {"latitude": 55.853008, "longitude": -4.262555}, "roof": {"latitude": 55.853008, "longitude": -4.262555}}, "link": "/v3/places/55b54074498ecddd89379f13", "location": {"address": "111 Nelson St", "admin_region": "Scotland", "country": "GB", "cross_street": "", "formatted_address": "111 Nelson St, Glasgow, Glasgow City, G5 8DZ", "locality": "Glasgow", "post_town": "Glasgow", "postcode": "G5 8DZ", "region": "Glasgow City"}, "name": "Oasis Lounge", "related_places": {}, "timezone": "Europe/London"}, {"fsq_id": "53776f4d498e2945af514bd4", "categories": [{"id": 13314, "name": "New American Restaurant", "short_name": "New American", "plural_name": "New American Restaurants", "icon": {"prefix": "https://ss3.4sqi.net/img/categories_v2/food/newamerican_", "suffix": ".png"}}, {"id": 13317, "name": "Persian Restaurant", "short_name": "Persian", "plural_name": "Persian Restaurants", "icon": {"prefix": "https://ss3.4sqi.net/img/categories_v2/food/middleeastern_", "suffix": ".png"}}], "chains": [], "closed_bucket": "VeryLikelyOpen", "distance": 691, "geocodes": {"main": {"latitude": 55.853483, "longitude": -4.264391}, "roof": {"latitude": 55.853483, "longitude": -4.264391}}, "link": "/v3/places/53776f4d498e2945af514bd4", "location": {"address": "146-148 Nelson St", "admin_region": "Scotland", "country": "GB", "cross_street": "", "formatted_address": "146-148 Nelson St, Glasgow", "locality": "Glasgow", "post_town": "Glasgow"}, "name": "Sholeh Persian Restaurant", "related_places": {}, "timezone": "Europe/London"}, {"fsq_id": "4c812e6747cc224ba8af799f", "categories": [{"id": 13145, "name": "Fast Food Restaurant", "short_name": "Fast Food", "plural_name": "Fast Food Restaurants", "icon": {"prefix": "https://ss3.4sqi.net/img/categories_v2/food/fastfood_", "suffix": ".png"}}, {"id": 13356, "name": "Turkish Restaurant", "short_name": "Turkish", "plural_name": "Turkish Restaurants", "icon": {"prefix": "https://ss3.4sqi.net/img/categories_v2/food/turkish_", "suffix": ".png"}}], "chains": [], "closed_bucket": "VeryLikelyOpen", "distance": 559, "geocodes": {"main": {"latitude": 55.85373, "longitude": -4.27943}, "roof": {"latitude": 55.85373, "longitude": -4.27943}}, "link": "/v3/places/4c812e6747cc224ba8af799f", "location": {"address": "7 Paisley Rd West", "admin_region": "Scotland", "country": "GB", "cross_street": "", "formatted_address": "7 Paisley Rd West, Glasgow, Glasgow City, G51 1LF", "locality": "Glasgow", "post_town": "Glasgow", "postcode": "G51 1LF", "region": "Glasgow City"}, "name": "Istanbul Turkish", "related_places": {}, "timezone": "Europe/London"}, {"fsq_id": "4b7c4dd1f964a520068b2fe3", "categories": [{"id": 13031, "name": "Burger Joint", "short_name": "Burgers", "plural_name": "Burger Joints", "icon": {"prefix": "https://ss3.4sqi.net/img/categories_v2/food/burger_", "suffix": ".png"}}, {"id": 13145, "name": "Fast Food Restaurant", "short_name": "Fast Food", "plural_name": "Fast Food Restaurants", "icon": {"prefix": "https://ss3.4sqi.net/img/categories_v2/food/fastfood_", "suffix": ".png"}}], "chains": [{"id": "ab4a9b10-d68a-012e-5619-003048cad9da", "name": "Burger King"}], "closed_bucket": "Unsure", "distance": 489, "geocodes": {"main": {"latitude": 55.854327, "longitude": -4.273597}, "roof": {"latitude": 55.854327, "longitude": -4.273597}}, "link": "/v3/places/4b7c4dd1f964a520068b2fe3", "location": {"address": "Springfield Quay", "address_extended": "Unit 1", "admin_region": "Scotland", "country": "GB", "cross_street": "Paisley Rd West", "formatted_address": "Springfield Quay (Paisley Rd West), Glasgow, G5 8NP", "locality": "Glasgow", "post_town": "Glasgow", "postcode": "G5 8NP"}, "name": "Burger King", "related_places": {"parent": {"fsq_id": "4c27a4683703d13a1f58a736", "categories": [{"id": 10000, "name": "Arts and Entertainment", "short_name": "Arts & Entertainment", "plural_name": "Arts and Entertainment", "icon": {"prefix": "https://ss3.4sqi.net/img/categories_v2/arts_entertainment/default_", "suffix": ".png"}}], "name": "The Quay"}}, "timezone": "Europe/London"}, {"fsq_id": "4c8298f074d7b60c730582d8", "categories": [{"id": 13030, "name": "Buffet", "short_name": "Buffet", "plural_name": "Buffets", "icon": {"prefix": "https://ss3.4sqi.net/img/categories_v2/food/default_", "suffix": ".png"}}, {"id": 13102, "name": "Cantonese Restaurant", "short_name": "Cantonese", "plural_name": "Cantonese Restaurants", "icon": {"prefix": "https://ss3.4sqi.net/img/categories_v2/food/asian_", "suffix": ".png"}}], "chains": [], "closed_bucket": "VeryLikelyOpen", "distance": 612, "geocodes": {"main": {"latitude": 55.855324, "longitude": -4.276431}, "roof": {"latitude": 55.855324, "longitude": -4.276431}}, "link": "/v3/places/4c8298f074d7b60c730582d8", "location": {"address": "Springfield Quay", "address_extended": "Unit D3", "admin_region": "Scotland", "country": "GB", "cross_street": "", "formatted_address": "Springfield Quay, Glasgow, Glasgow City, G5 8NP", "locality": "Glasgow", "post_town": "Glasgow", "postcode": "G5 8NP", "region": "Glasgow City"}, "name": "Panda Chinese Cuisine", "related_places": {"parent": {"fsq_id": "4c27a4683703d13a1f58a736", "categories": [{"id": 10000, "name": "Arts and Entertainment", "short_name": "Arts & Entertainment", "plural_name": "Arts and Entertainment", "icon": {"prefix": "https://ss3.4sqi.net/img/categories_v2/arts_entertainment/default_", "suffix": ".png"}}], "name": "The Quay"}}, "timezone": "Europe/London"}, {"fsq_id": "4f08808be4b07c8f8c299637", "categories": [{"id": 13012, "name": "Hookah Bar", "short_name": "Hookah Bar", "plural_name": "Hookah Bars", "icon": {"prefix": "https://ss3.4sqi.net/img/categories_v2/nightlife/hookahbar_", "suffix": ".png"}}, {"id": 13040, "name": "Dessert Shop", "short_name": "Desserts", "plural_name": "Dessert Shops", "icon": {"prefix": "https://ss3.4sqi.net/img/categories_v2/food/dessert_", "suffix": ".png"}}], "chains": [], "closed_bucket": "LikelyOpen", "distance": 684, "geocodes": {"main": {"latitude": 55.844602, "longitude": -4.268604}, "roof": {"latitude": 55.844602, "longitude": -4.268604}}, "link": "/v3/places/4f08808be4b07c8f8c299637", "location": {"address": "32 St Andrews Rd", "admin_region": "Scotland", "country": "GB", "cross_street": "", "formatted_address": "32 St Andrews Rd, Glasgow, G41 1PF", "locality": "Glasgow", "post_town": "Glasgow", "postcode": "G41 1PF"}, "name": "Sugar Rush", "related_places": {}, "timezone": "Europe/London"}, {"fsq_id": "522a317b11d268d86c069a70", "categories": [{"id": 13302, "name": "Mediterranean Restaurant", "short_name": "Mediterranean", "plural_name": "Mediterranean Restaurants", "icon": {"prefix": "https://ss3.4sqi.net/img/categories_v2/food/mediterranean_", "suffix": ".png"}}, {"id": 13356, "name": "Turkish Restaurant", "short_name": "Turkish", "plural_name": "Turkish Restaurants", "icon": {"prefix": "https://ss3.4sqi.net/img/categories_v2/food/turkish_", "suffix": ".png"}}], "chains": [], "closed_bucket": "VeryLikelyOpen", "distance": 245, "geocodes": {"main": {"latitude": 55.8534, "longitude": -4.275986}, "roof": {"latitude": 55.8534, "longitude": -4.275986}}, "link": "/v3/places/522a317b11d268d86c069a70", "location": {"address": "480 Paisley Rd", "admin_region": "Scotland", "country": "GB", "cross_street": "", "formatted_address": "480 Paisley Rd, Glasgow, Glasgow City, G5 8RE", "locality": "Glasgow", "post_town": "Glasgow", "postcode": "G5 8RE", "region": "Glasgow City"}, "name": "3 Chef Hut", "related_places": {}, "timezone": "Europe/London"}, {"fsq_id": "4bd80fbf0b779c744d4706a0", "categories": [{"id": 13009, "name": "Cocktail Bar", "short_name": "Cocktail", "plural_name": "Cocktail Bars", "icon": {"prefix": "https://ss3.4sqi.net/img/categories_v2/nightlife/cocktails_", "suffix": ".png"}}], "chains": [], "closed_bucket": "VeryLikelyOpen", "distance": 301, "geocodes": {"main": {"latitude": 55.852387, "longitude": -4.2762}, "roof": {"latitude": 55.852387, "longitude": -4.2762}}, "link": "/v3/places/4bd80fbf0b779c744d4706a0", "location": {"admin_region": "Scotland", "country": "GB", "cross_street": "", "formatted_address": "Glasgow, Glasgow City, G5 8RS", "locality": "Glasgow", "post_town": "Glasgow", "postcode": "G5 8RS", "region": "Glasgow City"}, "name": "LA Bartenders", "related_places": {}, "timezone": "Europe/London"}, {"fsq_id": "4f0de049e4b01660dcf9bfa4", "categories": [{"id": 13199, "name": "Indian Restaurant", "short_name": "Indian", "plural_name": "Indian Restaurants", "icon": {"prefix": "https://ss3.4sqi.net/img/categories_v2/food/indian_", "suffix": ".png"}}], "chains": [], "closed_bucket": "LikelyOpen", "distance": 352, "geocodes": {"main": {"latitude": 55.852412, "longitude": -4.277602}, "roof": {"latitude": 55.852412, "longitude": -4.277602}}, "link": "/v3/places/4f0de049e4b01660dcf9bfa4", "location": {"address": "64 Seaward St", "admin_region": "Scotland", "country": "GB", "cross_street": "", "formatted_address": "64 Seaward St, Glasgow, G41 1HJ", "locality": "Glasgow", "post_town": "Glasgow", "postcode": "G41 1HJ"}, "name": "Kabana Restaurant", "related_places": {}, "timezone": "Europe/London"}, {"fsq_id": "4c543e9230f92d7f9bb41bba", "categories": [{"id": 13018, "name": "Pub", "short_name": "Pub", "plural_name": "Pubs", "icon": {"prefix": "https://ss3.4sqi.net/img/categories_v2/nightlife/pub_", "suffix": ".png"}}], "chains": [], "closed_bucket": "Unsure", "distance": 357, "geocodes": {"main": {"latitude": 55.853784, "longitude": -4.277575}, "roof": {"latitude": 55.853784, "longitude": -4.277575}}, "link": "/v3/places/4c543e9230f92d7f9bb41bba", "location": {"address": "464-466 Paisley Rd", "admin_region": "Scotland", "country": "GB", "formatted_address": "464-466 Paisley Rd, Glasgow, Glasgow City, G5 8RE", "locality": "Glasgow", "post_town": "Glasgow", "postcode": "G5 8RE", "region": "Glasgow City"}, "name": "Quayside", "related_places": {}, "timezone": "Europe/London"}, {"fsq_id": "6eaa13dcc4144b81503d6190", "categories": [{"id": 13065, "name": "Restaurant", "short_name": "Restaurant", "plural_name": "Restaurants", "icon": {"prefix": "https://ss3.4sqi.net/img/categories_v2/food/default_", "suffix": ".png"}}], "chains": [], "closed_bucket": "LikelyOpen", "distance": 484, "geocodes": {"drop_off": {"latitude": 55.8457, "longitude": -4.275152}, "main": {"latitude": 55.845614, "longitude": -4.274871}, "roof": {"latitude": 55.845614, "longitude": -4.274871}}, "link": "/v3/places/6eaa13dcc4144b81503d6190", "location": {"address": "407 Shields Rd", "admin_region": "Scotland", "country": "GB", "formatted_address": "407 Shields Rd, Glasgow, Glasgow City, G41 1NY", "locality": "Glasgow", "post_town": "Glasgow", "postcode": "G41 1NY", "region": "Glasgow City"}, "name": "Jay's Gelato", "related_places": {}, "timezone": "Europe/London"}, {"fsq_id": "4d6aca35d2596ea8ed536a20", "categories": [{"id": 13199, "name": "Indian Restaurant", "short_name": "Indian", "plural_name": "Indian Restaurants", "icon": {"prefix": "https://ss3.4sqi.net/img/categories_v2/food/indian_", "suffix": ".png"}}], "chains": [], "closed_bucket": "VeryLikelyOpen", "distance": 487, "geocodes": {"drop_off": {"latitude": 55.85369, "longitude": -4.277753}, "main": {"latitude": 55.853826, "longitude": -4.277751}, "roof": {"latitude": 55.853826, "longitude": -4.277751}}, "link": "/v3/places/4d6aca35d2596ea8ed536a20", "location": {"admin_region": "Scotland", "country": "GB", "cross_street": "", "formatted_address": "", "post_town": "Glasgow"}, "name": "Abi's Mr. India", "related_places": {}, "timezone": "Europe/London"}, {"fsq_id": "4e468dca62e148603b735d92", "categories": [{"id": 13003, "name": "Bar", "short_name": "Bar", "plural_name": "Bars", "icon": {"prefix": "https://ss3.4sqi.net/img/categories_v2/nightlife/pub_", "suffix": ".png"}}], "chains": [], "closed_bucket": "VeryLikelyOpen", "distance": 505, "geocodes": {"main": {"latitude": 55.85359, "longitude": -4.278199}, "roof": {"latitude": 55.85359, "longitude": -4.278199}}, "link": "/v3/places/4e468dca62e148603b735d92", "location": {"country": "GB", "cross_street": "", "formatted_address": "Glasgow, Glasgow City", "locality": "Glasgow", "post_town": "Glasgow", "region": "Glasgow City"}, "name": "The Angel Bar", "related_places": {}, "timezone": "Europe/London"}, {"fsq_id": "4e6a692cb61cc3728d9519d2", "categories": [{"id": 13025, "name": "Wine Bar", "short_name": "Wine Bar", "plural_name": "Wine Bars", "icon": {"prefix": "https://ss3.4sqi.net/img/categories_v2/food/winery_", "suffix": ".png"}}], "chains": [], "closed_bucket": "LikelyOpen", "distance": 518, "geocodes": {"main": {"latitude": 55.853506, "longitude": -4.279668}, "roof": {"latitude": 55.853506, "longitude": -4.279668}}, "link": "/v3/places/4e6a692cb61cc3728d9519d2", "location": {"address": "1-3 Paisley Rd West", "admin_region": "Scotland", "country": "GB", "cross_street": "", "formatted_address": "1-3 Paisley Rd West, Glasgow, Glasgow City, G51 1LF", "locality": "Glasgow", "post_town": "Glasgow", "postcode": "G51 1LF", "region": "Glasgow City"}, "name": "The Old Toll Bar", "related_places": {}, "timezone": "Europe/London"}, {"fsq_id": "4be3ed45f07b0f47721bf943", "categories": [{"id": 13003, "name": "Bar", "short_name": "Bar", "plural_name": "Bars", "icon": {"prefix": "https://ss3.4sqi.net/img/categories_v2/nightlife/pub_", "suffix": ".png"}}], "chains": [], "closed_bucket": "LikelyOpen", "distance": 529, "geocodes": {"main": {"latitude": 55.853882, "longitude": -4.278629}, "roof": {"latitude": 55.853882, "longitude": -4.278629}}, "link": "/v3/places/4be3ed45f07b0f47721bf943", "location": {"address": "2-4 Govan Rd", "admin_region": "Scotland", "country": "GB", "formatted_address": "2-4 Govan Rd, Glasgow, Glasgow City, G51 1HS", "locality": "Glasgow", "post_town": "Glasgow", "postcode": "G51 1HS", "region": "Glasgow City"}, "name": "Grand Ole Opry", "related_places": {}, "timezone": "Europe/London"}, {"fsq_id": "d518245c96e64cda1ce524ad", "categories": [{"id": 13035, "name": "Coffee Shop", "short_name": "Coffee Shop", "plural_name": "Coffee Shops", "icon": {"prefix": "https://ss3.4sqi.net/img/categories_v2/food/coffeeshop_", "suffix": ".png"}}, {"id": 13065, "name": "Restaurant", "short_name": "Restaurant", "plural_name": "Restaurants", "icon": {"prefix": "https://ss3.4sqi.net/img/categories_v2/food/default_", "suffix": ".png"}}], "chains": [], "closed_bucket": "LikelyOpen", "distance": 534, "geocodes": {"drop_off": {"latitude": 55.851234, "longitude": -4.281636}, "main": {"latitude": 55.851268, "longitude": -4.281947}, "roof": {"latitude": 55.851268, "longitude": -4.281947}}, "link": "/v3/places/d518245c96e64cda1ce524ad", "location": {"address": "120 Portman St", "admin_region": "Scotland", "country": "GB", "formatted_address": "120 Portman St, Glasgow, Glasgow City, G41 1EJ", "locality": "Glasgow", "post_town": "Glasgow", "postcode": "G41 1EJ", "region": "Glasgow City"}, "name": "Cafe Unique", "related_places": {}, "timezone": "Europe/London"}, {"fsq_id": "5f34147a81642e3ba68e8bb5", "categories": [{"id": 13145, "name": "Fast Food Restaurant", "short_name": "Fast Food", "plural_name": "Fast Food Restaurants", "icon": {"prefix": "https://ss3.4sqi.net/img/categories_v2/food/fastfood_", "suffix": ".png"}}], "chains": [], "closed_bucket": "Unsure", "distance": 542, "geocodes": {"drop_off": {"latitude": 55.853636, "longitude": -4.279469}, "main": {"latitude": 55.853518, "longitude": -4.279459}, "roof": {"latitude": 55.853518, "longitude": -4.279459}}, "link": "/v3/places/5f34147a81642e3ba68e8bb5", "location": {"address": "15 Paisley Rd West", "admin_region": "Scotland", "country": "GB", "cross_street": "", "formatted_address": "15 Paisley Rd West, Glasgow, Glasgow City, G51 1LF", "locality": "Glasgow", "post_town": "Glasgow", "postcode": "G51 1LF", "region": "Glasgow City"}, "name": "Munch Kings", "related_places": {}, "timezone": "Europe/London"}, {"fsq_id": "4eeac1fb2c5be26bbdf35923", "categories": [{"id": 13029, "name": "Brewery", "short_name": "Brewery", "plural_name": "Breweries", "icon": {"prefix": "https://ss3.4sqi.net/img/categories_v2/food/brewery_", "suffix": ".png"}}], "chains": [], "closed_bucket": "VeryLikelyOpen", "distance": 556, "geocodes": {"main": {"latitude": 55.853115, "longitude": -4.267148}, "roof": {"latitude": 55.853115, "longitude": -4.267148}}, "link": "/v3/places/4eeac1fb2c5be26bbdf35923", "location": {"country": "GB", "cross_street": "", "formatted_address": ""}, "name": "Homes", "related_places": {}, "timezone": "Europe/London"}, {"fsq_id": "4cb9eb48a33bb1f797188bfd", "categories": [{"id": 13099, "name": "Chinese Restaurant", "short_name": "Chinese", "plural_name": "Chinese Restaurants", "icon": {"prefix": "https://ss3.4sqi.net/img/categories_v2/food/asian_", "suffix": ".png"}}, {"id": 13145, "name": "Fast Food Restaurant", "short_name": "Fast Food", "plural_name": "Fast Food Restaurants", "icon": {"prefix": "https://ss3.4sqi.net/img/categories_v2/food/fastfood_", "suffix": ".png"}}, {"id": 13199, "name": "Indian Restaurant", "short_name": "Indian", "plural_name": "Indian Restaurants", "icon": {"prefix": "https://ss3.4sqi.net/img/categories_v2/food/indian_", "suffix": ".png"}}], "chains": [], "closed_bucket": "LikelyOpen", "distance": 556, "geocodes": {"main": {"latitude": 55.853724, "longitude": -4.279535}, "roof": {"latitude": 55.853724, "longitude": -4.279535}}, "link": "/v3/places/4cb9eb48a33bb1f797188bfd", "location": {"address": "15 Paisley Rd West", "admin_region": "Scotland", "country": "GB", "cross_street": "", "formatted_address": "15 Paisley Rd West, Glasgow, Glasgow City, G51 1LF", "locality": "Glasgow", "post_town": "Glasgow", "postcode": "G51 1LF", "region": "Glasgow City"}, "name": "Tasty Bite", "related_places": {}, "timezone": "Europe/London"}, {"fsq_id": "4c829e74e602b1f703549e7a", "categories": [{"id": 13199, "name": "Indian Restaurant", "short_name": "Indian", "plural_name": "Indian Restaurants", "icon": {"prefix": "https://ss3.4sqi.net/img/categories_v2/food/indian_", "suffix": ".png"}}], "chains": [], "closed_bucket": "VeryLikelyOpen", "distance": 583, "geocodes": {"main": {"latitude": 55.855214, "longitude": -4.275586}, "roof": {"latitude": 55.855214, "longitude": -4.275586}}, "link": "/v3/places/4c829e74e602b1f703549e7a", "location": {"address": "Springfield Quay", "country": "GB", "cross_street": "Paisley Rd", "formatted_address": "Springfield Quay (Paisley Rd)"}, "name": "Ashoka", "related_places": {}, "timezone": "Europe/London"}, {"fsq_id": "620a9876779d115bc147d7cf", "categories": [{"id": 13036, "name": "Tea Room", "short_name": "Tea Room", "plural_name": "Tea Rooms", "icon": {"prefix": "https://ss3.4sqi.net/img/categories_v2/food/tearoom_", "suffix": ".png"}}, {"id": 13199, "name": "Indian Restaurant", "short_name": "Indian", "plural_name": "Indian Restaurants", "icon": {"prefix": "https://ss3.4sqi.net/img/categories_v2/food/indian_", "suffix": ".png"}}], "chains": [], "closed_bucket": "LikelyOpen", "distance": 586, "geocodes": {"main": {"latitude": 55.855147, "longitude": -4.274918}, "roof": {"latitude": 55.855147, "longitude": -4.274918}}, "link": "/v3/places/620a9876779d115bc147d7cf", "location": {"address": "Unit D2, Springfield Quay, Paisley Rd", "admin_region": "Scotland", "country": "GB", "cross_street": "", "formatted_address": "Unit D2, Springfield Quay, Paisley Rd, Glasgow, Glasgow City, G5 8NP", "locality": "Glasgow", "post_town": "Glasgow", "postcode": "G5 8NP", "region": "Glasgow City"}, "name": "Chaiiwala", "related_places": {}, "timezone": "Europe/London"}, {"fsq_id": "5b54a574772fbc002ce8bc6d", "categories": [{"id": 13067, "name": "African Restaurant", "short_name": "African", "plural_name": "African Restaurants", "icon": {"prefix": "https://ss3.4sqi.net/img/categories_v2/food/african_", "suffix": ".png"}}], "chains": [], "closed_bucket": "VeryLikelyOpen", "distance": 592, "geocodes": {"main": {"latitude": 55.855129, "longitude": -4.274322}, "roof": {"latitude": 55.855129, "longitude": -4.274322}}, "link": "/v3/places/5b54a574772fbc002ce8bc6d", "location": {"address": "Springfield Quay, Paisley Rd", "address_extended": "Unit C2", "admin_region": "Scotland", "country": "GB", "cross_street": "", "formatted_address": "Springfield Quay, Paisley Rd, Glasgow, Glasgow City, G5 8NP", "locality": "Glasgow", "post_town": "Glasgow", "postcode": "G5 8NP", "region": "Glasgow City"}, "name": "Manjaros - Glasgow", "related_places": {}, "timezone": "Europe/London"}, {"fsq_id": "4f10b460e4b09e81d7e58920", "categories": [{"id": 13003, "name": "Bar", "short_name": "Bar", "plural_name": "Bars", "icon": {"prefix": "https://ss3.4sqi.net/img/categories_v2/nightlife/pub_", "suffix": ".png"}}, {"id": 17134, "name": "Tobacco Store", "short_name": "Tobacco Store", "plural_name": "Tobacco Stores", "icon": {"prefix": "https://ss3.4sqi.net/img/categories_v2/shops/tobacco_", "suffix": ".png"}}], "chains": [], "closed_bucket": "VeryLikelyOpen", "distance": 603, "geocodes": {"main": {"latitude": 55.8523, "longitude": -4.26481}, "roof": {"latitude": 55.8523, "longitude": -4.26481}}, "link": "/v3/places/4f10b460e4b09e81d7e58920", "location": {"address": "155 Wallace St", "country": "GB", "cross_street": "", "formatted_address": "155 Wallace St, Glasgow, Glasgow City", "locality": "Glasgow", "post_town": "Glasgow", "region": "Glasgow City"}, "name": "Lime light shisha", "related_places": {}, "timezone": "Europe/London"}, {"fsq_id": "59bf2a974c9be611fb9c76df", "categories": [{"id": 13309, "name": "Middle Eastern Restaurant", "short_name": "Middle Eastern", "plural_name": "Middle Eastern Restaurants", "icon": {"prefix": "https://ss3.4sqi.net/img/categories_v2/food/middleeastern_", "suffix": ".png"}}], "chains": [], "closed_bucket": "VeryLikelyOpen", "distance": 622, "geocodes": {"drop_off": {"latitude": 55.852391, "longitude": -4.2648}, "main": {"latitude": 55.8523, "longitude": -4.26481}, "roof": {"latitude": 55.8523, "longitude": -4.26481}}, "link": "/v3/places/59bf2a974c9be611fb9c76df", "location": {"address": "201-211 Wallace St", "admin_region": "Scotland", "country": "GB", "cross_street": "", "formatted_address": "201-211 Wallace St, Glasgow, Glasgow City, G5 8NT", "locality": "Glasgow", "post_town": "Glasgow", "postcode": "G5 8NT", "region": "Glasgow City"}, "name": "Syrian Pastries \u0627\u0644\u0645\u0639\u062c\u0646\u0627\u062a \u0627\u0644\u0633\u0648\u0631\u064a\u0629", "related_places": {"parent": {"fsq_id": "4b659aecf964a5201bf62ae3", "categories": [{"id": 17139, "name": "Warehouse or Wholesale Store", "short_name": "Warehouse or Wholesale Store", "plural_name": "Warehouse or Wholesale Stores", "icon": {"prefix": "https://ss3.4sqi.net/img/categories_v2/shops/default_", "suffix": ".png"}}], "name": "House of Sher"}}, "timezone": "Europe/London"}, {"fsq_id": "59207e5c31ac6c194b8f124d", "categories": [{"id": 13012, "name": "Hookah Bar", "short_name": "Hookah Bar", "plural_name": "Hookah Bars", "icon": {"prefix": "https://ss3.4sqi.net/img/categories_v2/nightlife/hookahbar_", "suffix": ".png"}}, {"id": 13016, "name": "Lounge", "short_name": "Lounge", "plural_name": "Lounges", "icon": {"prefix": "https://ss3.4sqi.net/img/categories_v2/nightlife/default_", "suffix": ".png"}}, {"id": 13040, "name": "Dessert Shop", "short_name": "Desserts", "plural_name": "Dessert Shops", "icon": {"prefix": "https://ss3.4sqi.net/img/categories_v2/food/dessert_", "suffix": ".png"}}], "chains": [], "closed_bucket": "VeryLikelyOpen", "distance": 653, "geocodes": {"drop_off": {"latitude": 55.846926, "longitude": -4.26449}, "main": {"latitude": 55.847051, "longitude": -4.264475}, "roof": {"latitude": 55.847051, "longitude": -4.264475}}, "link": "/v3/places/59207e5c31ac6c194b8f124d", "location": {"address": "92 Kilbirnie St", "admin_region": "Scotland", "country": "GB", "cross_street": "", "formatted_address": "92 Kilbirnie St, Glasgow, Glasgow City, G5 8JD", "locality": "Glasgow", "post_town": "Glasgow", "postcode": "G5 8JD", "region": "Glasgow City"}, "name": "Velvet Lounge", "related_places": {}, "timezone": "Europe/London"}, {"fsq_id": "51d0a26b498e3eb734e3b9f1", "categories": [{"id": 11056, "name": "Food and Beverage Service", "short_name": "Food Service", "plural_name": "Food and Beverage Services", "icon": {"prefix": "https://ss3.4sqi.net/img/categories_v2/shops/foodanddrink_", "suffix": ".png"}}, {"id": 13012, "name": "Hookah Bar", "short_name": "Hookah Bar", "plural_name": "Hookah Bars", "icon": {"prefix": "https://ss3.4sqi.net/img/categories_v2/nightlife/hookahbar_", "suffix": ".png"}}, {"id": 13356, "name": "Turkish Restaurant", "short_name": "Turkish", "plural_name": "Turkish Restaurants", "icon": {"prefix": "https://ss3.4sqi.net/img/categories_v2/food/turkish_", "suffix": ".png"}}], "chains": [], "closed_bucket": "VeryLikelyOpen", "distance": 657, "geocodes": {"main": {"latitude": 55.847057, "longitude": -4.26437}, "roof": {"latitude": 55.847057, "longitude": -4.26437}}, "link": "/v3/places/51d0a26b498e3eb734e3b9f1", "location": {"address": "92 Kilbirnie St", "admin_region": "Scotland", "country": "GB", "cross_street": "", "formatted_address": "92 Kilbirnie St, Glasgow, Glasgow City, G5 8JD", "locality": "Glasgow", "post_town": "Glasgow", "postcode": "G5 8JD", "region": "Glasgow City"}, "name": "Anaya Glasgow", "related_places": {}, "timezone": "Europe/London"}, {"fsq_id": "51d86c8a498e32f14de904f5", "categories": [{"id": 13199, "name": "Indian Restaurant", "short_name": "Indian", "plural_name": "Indian Restaurants", "icon": {"prefix": "https://ss3.4sqi.net/img/categories_v2/food/indian_", "suffix": ".png"}}, {"id": 13031, "name": "Burger Joint", "short_name": "Burgers", "plural_name": "Burger Joints", "icon": {"prefix": "https://ss3.4sqi.net/img/categories_v2/food/burger_", "suffix": ".png"}}, {"id": 13051, "name": "Fish and Chips Shop", "short_name": "Fish and Chips Shop", "plural_name": "Fish and Chips Shops", "icon": {"prefix": "https://ss3.4sqi.net/img/categories_v2/food/fishandchips_", "suffix": ".png"}}], "chains": [], "closed_bucket": "VeryLikelyOpen", "distance": 695, "geocodes": {"main": {"latitude": 55.844493, "longitude": -4.268671}, "roof": {"latitude": 55.844493, "longitude": -4.268671}}, "link": "/v3/places/51d86c8a498e32f14de904f5", "location": {"address": "32D St Andrews Rd", "admin_region": "Scotland", "country": "GB", "cross_street": "", "formatted_address": "32D St Andrews Rd, Glasgow, Glasgow City, G41 5PF", "locality": "Glasgow", "post_town": "Glasgow", "postcode": "G41 5PF", "region": "Glasgow City"}, "name": "Red Pepper", "related_places": {}, "timezone": "Europe/London"}, {"fsq_id": "4c63e0f886b6be9ac7898f34", "categories": [{"id": 13199, "name": "Indian Restaurant", "short_name": "Indian", "plural_name": "Indian Restaurants", "icon": {"prefix": "https://ss3.4sqi.net/img/categories_v2/food/indian_", "suffix": ".png"}}], "chains": [], "closed_bucket": "VeryLikelyOpen", "distance": 713, "geocodes": {"main": {"latitude": 55.853495, "longitude": -4.264181}, "roof": {"latitude": 55.853495, "longitude": -4.264181}}, "link": "/v3/places/4c63e0f886b6be9ac7898f34", "location": {"country": "GB", "cross_street": "", "formatted_address": ""}, "name": "The Village", "related_places": {}, "timezone": "Europe/London"}, {"fsq_id": "0b2d7be4c8fb44b7ab1d2cc7", "categories": [{"id": 13065, "name": "Restaurant", "short_name": "Restaurant", "plural_name": "Restaurants", "icon": {"prefix": "https://ss3.4sqi.net/img/categories_v2/food/default_", "suffix": ".png"}}, {"id": 17077, "name": "Meat and Seafood Store", "short_name": "Meat and Seafood Store", "plural_name": "Meat and Seafood Stores", "icon": {"prefix": "https://ss3.4sqi.net/img/categories_v2/shops/food_grocery_", "suffix": ".png"}}], "chains": [], "closed_bucket": "Unsure", "distance": 723, "geocodes": {"main": {"latitude": 55.846898, "longitude": -4.263454}, "roof": {"latitude": 55.846898, "longitude": -4.263454}}, "link": "/v3/places/0b2d7be4c8fb44b7ab1d2cc7", "location": {"address": "76 Kilbirnie St", "admin_region": "Scotland", "country": "GB", "formatted_address": "76 Kilbirnie St, Glasgow, G5 8JD", "locality": "Glasgow", "post_town": "Glasgow", "postcode": "G5 8JD"}, "name": "Nav Star", "related_places": {}, "timezone": "Europe/London"}, {"fsq_id": "4c70435cd274b60c982dd90d", "categories": [{"id": 13065, "name": "Restaurant", "short_name": "Restaurant", "plural_name": "Restaurants", "icon": {"prefix": "https://ss3.4sqi.net/img/categories_v2/food/default_", "suffix": ".png"}}], "chains": [], "closed_bucket": "VeryLikelyOpen", "distance": 779, "geocodes": {"drop_off": {"latitude": 55.851996, "longitude": -4.261444}, "main": {"latitude": 55.851806, "longitude": -4.261467}, "roof": {"latitude": 55.851806, "longitude": -4.261467}}, "link": "/v3/places/4c70435cd274b60c982dd90d", "location": {"address": "78 Wallace St", "admin_region": "Scotland", "country": "GB", "cross_street": "", "formatted_address": "78 Wallace St, Glasgow, Glasgow City, G5 8DU", "locality": "Glasgow", "post_town": "Glasgow", "postcode": "G5 8DU", "region": "Glasgow City"}, "name": "Dubia Grill", "related_places": {}, "timezone": "Europe/London"}, {"fsq_id": "4d03dacf7d9ba35d22666223", "categories": [{"id": 13064, "name": "Pizzeria", "short_name": "Pizza", "plural_name": "Pizzerias", "icon": {"prefix": "https://ss3.4sqi.net/img/categories_v2/food/pizza_", "suffix": ".png"}}, {"id": 13145, "name": "Fast Food Restaurant", "short_name": "Fast Food", "plural_name": "Fast Food Restaurants", "icon": {"prefix": "https://ss3.4sqi.net/img/categories_v2/food/fastfood_", "suffix": ".png"}}], "chains": [], "closed_bucket": "VeryLikelyOpen", "distance": 843, "geocodes": {"main": {"latitude": 55.842378, "longitude": -4.272494}, "roof": {"latitude": 55.842378, "longitude": -4.272494}}, "link": "/v3/places/4d03dacf7d9ba35d22666223", "location": {"address": "145 Kenmure St", "admin_region": "Scotland", "country": "GB", "formatted_address": "145 Kenmure St, Glasgow, G41 2NU", "locality": "Glasgow", "post_town": "Glasgow", "postcode": "G41 2NU"}, "name": "Pizza Hub", "related_places": {}, "timezone": "Europe/London"}, {"fsq_id": "4f3e60fae4b0a3644e27f89e", "categories": [{"id": 13199, "name": "Indian Restaurant", "short_name": "Indian", "plural_name": "Indian Restaurants", "icon": {"prefix": "https://ss3.4sqi.net/img/categories_v2/food/indian_", "suffix": ".png"}}], "chains": [], "closed_bucket": "VeryLikelyOpen", "distance": 845, "geocodes": {"main": {"latitude": 55.852874, "longitude": -4.261219}, "roof": {"latitude": 55.852874, "longitude": -4.261219}}, "link": "/v3/places/4f3e60fae4b0a3644e27f89e", "location": {"address": "51-53 Nelson St", "admin_region": "Scotland", "country": "GB", "cross_street": "", "formatted_address": "51-53 Nelson St, Tradeston, Glasgow City, G5 8DZ", "locality": "Glasgow", "post_town": "Glasgow", "postcode": "G5 8DZ", "region": "Glasgow City"}, "name": "Karahi Palace", "related_places": {}, "timezone": "Europe/London"}, {"fsq_id": "526c03ab11d2c398ec74106b", "categories": [{"id": 13064, "name": "Pizzeria", "short_name": "Pizza", "plural_name": "Pizzerias", "icon": {"prefix": "https://ss3.4sqi.net/img/categories_v2/food/pizza_", "suffix": ".png"}}, {"id": 13145, "name": "Fast Food Restaurant", "short_name": "Fast Food", "plural_name": "Fast Food Restaurants", "icon": {"prefix": "https://ss3.4sqi.net/img/categories_v2/food/fastfood_", "suffix": ".png"}}, {"id": 13199, "name": "Indian Restaurant", "short_name": "Indian", "plural_name": "Indian Restaurants", "icon": {"prefix": "https://ss3.4sqi.net/img/categories_v2/food/indian_", "suffix": ".png"}}], "chains": [], "closed_bucket": "LikelyOpen", "distance": 873, "geocodes": {"drop_off": {"latitude": 55.842082, "longitude": -4.272412}, "main": {"latitude": 55.842226, "longitude": -4.272384}, "roof": {"latitude": 55.842226, "longitude": -4.272384}}, "link": "/v3/places/526c03ab11d2c398ec74106b", "location": {"address": "196 Albert Dr", "admin_region": "Scotland", "country": "GB", "cross_street": "", "formatted_address": "196 Albert Dr, Glasgow, G41 2NH", "locality": "Glasgow", "post_town": "Glasgow", "postcode": "G41 2NH"}, "name": "Lahore Kebab House", "related_places": {}, "timezone": "Europe/London"}, {"fsq_id": "51ed32c3454a13c0a3620074", "categories": [{"id": 13065, "name": "Restaurant", "short_name": "Restaurant", "plural_name": "Restaurants", "icon": {"prefix": "https://ss3.4sqi.net/img/categories_v2/food/default_", "suffix": ".png"}}], "chains": [], "closed_bucket": "VeryLikelyOpen", "distance": 885, "geocodes": {"main": {"latitude": 55.85132, "longitude": -4.260751}, "roof": {"latitude": 55.85132, "longitude": -4.260751}}, "link": "/v3/places/51ed32c3454a13c0a3620074", "location": {"address": "115 Commerce St", "admin_region": "Scotland", "country": "GB", "formatted_address": "115 Commerce St, Glasgow, G5 8DL", "locality": "Glasgow", "post_town": "Glasgow", "postcode": "G5 8DL"}, "name": "Deals Yaar", "related_places": {}, "timezone": "Europe/London"}, {"fsq_id": "63c1ba397a445e65639e6469", "categories": [{"id": 13337, "name": "Scottish Restaurant", "short_name": "Scottish", "plural_name": "Scottish Restaurants", "icon": {"prefix": "https://ss3.4sqi.net/img/categories_v2/food/default_", "suffix": ".png"}}], "chains": [], "closed_bucket": "VeryLikelyOpen", "distance": 920, "geocodes": {"drop_off": {"latitude": 55.855147, "longitude": -4.262064}, "main": {"latitude": 55.854931, "longitude": -4.262088}, "roof": {"latitude": 55.854931, "longitude": -4.262088}}, "link": "/v3/places/63c1ba397a445e65639e6469", "location": {"address": "1-4 Clyde Pl", "admin_region": "Scotland", "country": "GB", "cross_street": "", "formatted_address": "1-4 Clyde Pl, Glasgow, Glasgow City, G5 8DP", "locality": "Glasgow", "post_town": "Glasgow", "postcode": "G5 8DP", "region": "Glasgow City"}, "name": "Beacon Clubhouse", "related_places": {"parent": {"fsq_id": "6166bc458c4164034f8c7ad4", "categories": [{"id": 11124, "name": "Office", "short_name": "Office", "plural_name": "Offices", "icon": {"prefix": "https://ss3.4sqi.net/img/categories_v2/building/default_", "suffix": ".png"}}], "name": "Barclays Glasgow Campus"}}, "timezone": "Europe/London"}, {"fsq_id": "4f846259e4b0422a017948aa", "categories": [{"id": 13145, "name": "Fast Food Restaurant", "short_name": "Fast Food", "plural_name": "Fast Food Restaurants", "icon": {"prefix": "https://ss3.4sqi.net/img/categories_v2/food/fastfood_", "suffix": ".png"}}], "chains": [], "closed_bucket": "LikelyOpen", "distance": 952, "geocodes": {"main": {"latitude": 55.852486, "longitude": -4.288292}, "roof": {"latitude": 55.852486, "longitude": -4.288292}}, "link": "/v3/places/4f846259e4b0422a017948aa", "location": {"address": "240-242 Paisley Rd West", "admin_region": "Scotland", "country": "GB", "cross_street": "", "formatted_address": "240-242 Paisley Rd West, Glasgow, G51 1BU", "locality": "Glasgow", "post_town": "Glasgow", "postcode": "G51 1BU"}, "name": "Chicken Choice", "related_places": {}, "timezone": "Europe/London"}, {"fsq_id": "4d468007e198721e95a1cf8b", "categories": [{"id": 13072, "name": "Asian Restaurant", "short_name": "Asian", "plural_name": "Asian Restaurants", "icon": {"prefix": "https://ss3.4sqi.net/img/categories_v2/food/asian_", "suffix": ".png"}}], "chains": [], "closed_bucket": "VeryLikelyOpen", "distance": 957, "geocodes": {"drop_off": {"latitude": 55.851384, "longitude": -4.258786}, "main": {"latitude": 55.851591, "longitude": -4.258763}}, "link": "/v3/places/4d468007e198721e95a1cf8b", "location": {"address": "Eglinton St", "country": "GB", "cross_street": "", "formatted_address": "Eglinton St, Glasgow, Glasgow City", "locality": "Glasgow", "post_town": "Glasgow", "region": "Glasgow City"}, "name": "Curry King", "related_places": {}, "timezone": "Europe/London"}, {"fsq_id": "4eff394ac2ee2cc870ce8727", "categories": [{"id": 13099, "name": "Chinese Restaurant", "short_name": "Chinese", "plural_name": "Chinese Restaurants", "icon": {"prefix": "https://ss3.4sqi.net/img/categories_v2/food/asian_", "suffix": ".png"}}, {"id": 13145, "name": "Fast Food Restaurant", "short_name": "Fast Food", "plural_name": "Fast Food Restaurants", "icon": {"prefix": "https://ss3.4sqi.net/img/categories_v2/food/fastfood_", "suffix": ".png"}}], "chains": [], "closed_bucket": "Unsure", "distance": 967, "geocodes": {"main": {"latitude": 55.852801, "longitude": -4.288302}, "roof": {"latitude": 55.852801, "longitude": -4.288302}}, "link": "/v3/places/4eff394ac2ee2cc870ce8727", "location": {"address": "12 Lorne St", "admin_region": "Scotland", "country": "GB", "formatted_address": "12 Lorne St, Glasgow, Glasgow City, G51 1DP", "locality": "Glasgow", "post_town": "Glasgow", "postcode": "G51 1DP", "region": "Glasgow City"}, "name": "Golden City", "related_places": {}, "timezone": "Europe/London"}, {"fsq_id": "e65b7df612654ee3b2300285", "categories": [{"id": 11001, "name": "Advertising Agency", "short_name": "Advertising Agency", "plural_name": "Advertising Agencies", "icon": {"prefix": "https://ss3.4sqi.net/img/categories_v2/building/default_", "suffix": ".png"}}, {"id": 11112, "name": "Law Office", "short_name": "Law Office", "plural_name": "Law Offices", "icon": {"prefix": "https://ss3.4sqi.net/img/categories_v2/education/lawschool_", "suffix": ".png"}}, {"id": 11165, "name": "Storage Facility", "short_name": "Storage", "plural_name": "Storage Facilities", "icon": {"prefix": "https://ss3.4sqi.net/img/categories_v2/shops/storage_", "suffix": ".png"}}, {"id": 11171, "name": "Translation Service", "short_name": "Translation Service", "plural_name": "Translation Services", "icon": {"prefix": "https://ss3.4sqi.net/img/categories_v2/building/default_", "suffix": ".png"}}, {"id": 12085, "name": "Environmental Organization", "short_name": "Environmental Organization", "plural_name": "Environmental Organizations", "icon": {"prefix": "https://ss3.4sqi.net/img/categories_v2/building/default_", "suffix": ".png"}}, {"id": 13065, "name": "Restaurant", "short_name": "Restaurant", "plural_name": "Restaurants", "icon": {"prefix": "https://ss3.4sqi.net/img/categories_v2/food/default_", "suffix": ".png"}}], "chains": [], "closed_bucket": "Unsure", "distance": 297, "geocodes": {"main": {"latitude": 55.852435, "longitude": -4.275361}, "roof": {"latitude": 55.852435, "longitude": -4.275361}}, "link": "/v3/places/e65b7df612654ee3b2300285", "location": {"address": "27 Watt St", "admin_region": "Scotland", "country": "GB", "formatted_address": "27 Watt St, Glasgow, G5 8RR", "locality": "Glasgow", "post_town": "Glasgow", "postcode": "G5 8RR"}, "name": "Murgitroyd", "related_places": {}}, {"fsq_id": "224cef5a5953407b0c32b626", "categories": [{"id": 13309, "name": "Middle Eastern Restaurant", "short_name": "Middle Eastern", "plural_name": "Middle Eastern Restaurants", "icon": {"prefix": "https://ss3.4sqi.net/img/categories_v2/food/middleeastern_", "suffix": ".png"}}], "chains": [], "closed_bucket": "VeryLikelyOpen", "distance": 371, "geocodes": {"drop_off": {"latitude": 55.852372, "longitude": -4.277395}, "main": {"latitude": 55.852406, "longitude": -4.277707}, "roof": {"latitude": 55.852406, "longitude": -4.277707}}, "link": "/v3/places/224cef5a5953407b0c32b626", "location": {"address": "64 Seaward St", "admin_region": "Scotland", "country": "GB", "formatted_address": "64 Seaward St, Glasgow, G41 1HJ", "locality": "Glasgow", "post_town": "Glasgow", "postcode": "G41 1HJ"}, "name": "Marhaba", "related_places": {}}, {"fsq_id": "2370645ae08239fb91e4a62b", "categories": [{"id": 13031, "name": "Burger Joint", "short_name": "Burgers", "plural_name": "Burger Joints", "icon": {"prefix": "https://ss3.4sqi.net/img/categories_v2/food/burger_", "suffix": ".png"}}], "chains": [], "closed_bucket": "LikelyOpen", "distance": 581, "geocodes": {"drop_off": {"latitude": 55.851649, "longitude": -4.282893}, "main": {"latitude": 55.851602, "longitude": -4.282553}, "roof": {"latitude": 55.851602, "longitude": -4.282553}}, "link": "/v3/places/2370645ae08239fb91e4a62b", "location": {"address": "99 Middlesex St", "admin_region": "Scotland", "country": "GB", "formatted_address": "99 Middlesex St, Glasgow", "locality": "Glasgow", "post_town": "Glasgow"}, "name": "Meat Jam", "related_places": {}}, {"fsq_id": "f5b814ea109448b2161fd5a6", "categories": [{"id": 13145, "name": "Fast Food Restaurant", "short_name": "Fast Food", "plural_name": "Fast Food Restaurants", "icon": {"prefix": "https://ss3.4sqi.net/img/categories_v2/food/fastfood_", "suffix": ".png"}}, {"id": 13303, "name": "Mexican Restaurant", "short_name": "Mexican", "plural_name": "Mexican Restaurants", "icon": {"prefix": "https://ss3.4sqi.net/img/categories_v2/food/mexican_", "suffix": ".png"}}], "chains": [], "closed_bucket": "VeryLikelyOpen", "distance": 856, "geocodes": {"drop_off": {"latitude": 55.850287, "longitude": -4.25982}, "main": {"latitude": 55.85036, "longitude": -4.260022}}, "link": "/v3/places/f5b814ea109448b2161fd5a6", "location": {"address": "Eglington St", "country": "GB", "formatted_address": "Eglington St, Glasgow", "locality": "Glasgow", "post_town": "Glasgow"}, "name": "Spicybite", "related_places": {}}, {"fsq_id": "eeb2c44d771043ecff5eff32", "categories": [{"id": 13003, "name": "Bar", "short_name": "Bar", "plural_name": "Bars", "icon": {"prefix": "https://ss3.4sqi.net/img/categories_v2/nightlife/pub_", "suffix": ".png"}}], "chains": [], "closed_bucket": "Unsure", "distance": 944, "geocodes": {"main": {"latitude": 55.857009, "longitude": -4.265375}, "roof": {"latitude": 55.857009, "longitude": -4.265375}}, "link": "/v3/places/eeb2c44d771043ecff5eff32", "location": {"address": "9 Brown St", "admin_region": "Scotland", "country": "GB", "formatted_address": "9 Brown St, Glasgow", "locality": "Glasgow", "post_town": "Glasgow"}, "name": "Rat Trap Rock Club - Glasgow", "related_places": {}}], "context": {"geo_bounds": {"circle": {"center": {"latitude": 55.849924, "longitude": -4.273727}, "radius": 1000}}}}