{"results": [{"fsq_id": "537dcf0d498e02df07785e2f", "categories": [{"id": 13003, "name": "Bar", "short_name": "Bar", "plural_name": "Bars", "icon": {"prefix": "https://ss3.4sqi.net/img/categories_v2/nightlife/pub_", "suffix": ".png"}}, {"id": 13029, "name": "Brewery", "short_name": "Brewery", "plural_name": "Breweries", "icon": {"prefix": "https://ss3.4sqi.net/img/categories_v2/food/brewery_", "suffix": ".png"}}], "chains": [], "closed_bucket": "Unsure", "distance": 784, "geocodes": {"main": {"latitude": 55.861185, "longitude": -4.234563}, "roof": {"latitude": 55.861185, "longitude": -4.234563}}, "link": "/v3/places/537dcf0d498e02df07785e2f", "location": {"address": "85 Drygate", "admin_region": "Scotland", "country": "GB", "cross_street": "", "formatted_address": "85 Drygate, Glasgow, G4 0UT", "locality": "Glasgow", "post_town": "Glasgow", "postcode": "G4 0UT"}, "name": "Drygate Brewing Co", "related_places": {"children": []}, "timezone": "Europe/London"}, {"fsq_id": "4b9b8c7cf964a520a80e36e3", "categories": [{"id": 13027, "name": "Bistro", "short_name": "Bistro", "plural_name": "Bistros", "icon": {"prefix": "https://ss3.4sqi.net/img/categories_v2/food/default_", "suffix": ".png"}}, {"id": 13032, "name": "Cafe, Coffee, and Tea House", "short_name": "Cafe, Coffee, and Tea House", "plural_name": "Cafes, Coffee, and Tea Houses", "icon": {"prefix": "https://ss3.4sqi.net/img/categories_v2/food/coffeeshop_", "suffix": ".png"}}, {"id": 13142, "name": "English Restaurant", "short_name": "English", "plural_name": "English Restaurants", "icon": {"prefix": "https://ss3.4sqi.net/img/categories_v2/food/default_", "suffix": ".png"}}], "chains": [], "closed_bucket": "VeryLikelyOpen", "distance": 688, "geocodes": {"main": {"latitude": 55.858488, "longitude": -4.22082}, "roof": {"latitude": 55.858488, "longitude": -4.22082}}, "link": "/v3/places/4b9b8c7cf964a520a80e36e3", "location": {"address": "443 Duke St", "admin_region": "Scotland", "country": "GB", "cross_street": "Hillfoot St", "formatted_address": "443 Duke St (Hillfoot St), Glasgow, Glasgow City, G31 1RY", "locality": "Glasgow", "post_town": "Glasgow", "postcode": "G31 1RY", "region": "Glasgow City"}, "name": "Tibo", "related_places": {}, "timezone": "Europe/London"}, {"fsq_id": "53dbc5b9498e95d9e033d82c", "categories": [{"id": 13018, "name": "Pub", "short_name": "Pub", "plural_name": "Pubs", "icon": {"prefix": "https://ss3.4sqi.net/img/categories_v2/nightlife/pub_", "suffix": ".png"}}, {"id": 13065, "name": "Restaurant", "short_name": "Restaurant", "plural_name": "Restaurants", "icon": {"prefix": "https://ss3.4sqi.net/img/categories_v2/food/default_", "suffix": ".png"}}], "chains": [], "closed_bucket": "VeryLikelyOpen", "distance": 691, "geocodes": {"drop_off": {"latitude": 55.858279, "longitude": -4.223371}, "main": {"latitude": 55.858133, "longitude": -4.223367}, "roof": {"latitude": 55.858133, "longitude": -4.223367}}, "link": "/v3/places/53dbc5b9498e95d9e033d82c", "location": {"address": "304 Duke St", "admin_region": "Scotland", "country": "GB", "cross_street": "", "formatted_address": "304 Duke St, Glasgow, Glasgow City, G31 1RZ", "locality": "Glasgow", "post_town": "Glasgow", "postcode": "G31 1RZ", "region": "Glasgow City"}, "name": "Redmond's", "related_places": {}, "timezone": "Europe/London"}, {"fsq_id": "4bd09e83caff9521ef31cff0", "categories": [{"id": 13034, "name": "Caf\u00e9", "short_name": "Caf\u00e9", "plural_name": "Caf\u00e9s", "icon": {"prefix": "https://ss3.4sqi.net/img/categories_v2/food/cafe_", "suffix": ".png"}}, {"id": 13035, "name": "Coffee Shop", "short_name": "Coffee Shop", "plural_name": "Coffee Shops", "icon": {"prefix": "https://ss3.4sqi.net/img/categories_v2/food/coffeeshop_", "suffix": ".png"}}, {"id": 13236, "name": "Italian Restaurant", "short_name": "Italian", "plural_name": "Italian Restaurants", "icon": {"prefix": "https://ss3.4sqi.net/img/categories_v2/food/italian_", "suffix": ".png"}}], "chains": [], "closed_bucket": "LikelyOpen", "distance": 708, "geocodes": {"main": {"latitude": 55.858517, "longitude": -4.219385}, "roof": {"latitude": 55.858517, "longitude": -4.219385}}, "link": "/v3/places/4bd09e83caff9521ef31cff0", "location": {"address": "473 Duke St", "admin_region": "Scotland", "country": "GB", "formatted_address": "473 Duke St, Glasgow, Glasgow City, G31 1RD", "locality": "Glasgow", "post_town": "Glasgow", "postcode": "G31 1RD", "region": "Glasgow City"}, "name": "Coia's Cafe", "related_places": {}, "timezone": "Europe/London"}, {"fsq_id": "4bc9ae3ecc8cd13a94f1bbcf", "categories": [{"id": 13039, "name": "Deli", "short_name": "Deli", "plural_name": "Delis", "icon": {"prefix": "https://ss3.4sqi.net/img/categories_v2/food/deli_", "suffix": ".png"}}, {"id": 13236, "name": "Italian Restaurant", "short_name": "Italian", "plural_name": "Italian Restaurants", "icon": {"prefix": "https://ss3.4sqi.net/img/categories_v2/food/italian_", "suffix": ".png"}}], "chains": [], "closed_bucket": "VeryLikelyOpen", "distance": 687, "geocodes": {"main": {"latitude": 55.863071, "longitude": -4.212444}, "roof": {"latitude": 55.863071, "longitude": -4.212444}}, "link": "/v3/places/4bc9ae3ecc8cd13a94f1bbcf", "location": {"address": "622 Alexandra Parade", "admin_region": "Scotland", "country": "GB", "cross_street": "", "formatted_address": "622 Alexandra Parade, Glasgow, Glasgow City, G31 3BT", "locality": "Glasgow", "post_town": "Glasgow", "postcode": "G31 3BT", "region": "Glasgow City"}, "name": "Celino's", "related_places": {}, "timezone": "Europe/London"}, {"fsq_id": "52b6efdb498eb22aa441b53a", "categories": [{"id": 13026, "name": "BBQ Joint", "short_name": "BBQ", "plural_name": "BBQ Joints", "icon": {"prefix": "https://ss3.4sqi.net/img/categories_v2/food/bbqalt_", "suffix": ".png"}}, {"id": 13031, "name": "Burger Joint", "short_name": "Burgers", "plural_name": "Burger Joints", "icon": {"prefix": "https://ss3.4sqi.net/img/categories_v2/food/burger_", "suffix": ".png"}}, {"id": 13068, "name": "American Restaurant", "short_name": "American", "plural_name": "American Restaurants", "icon": {"prefix": "https://ss3.4sqi.net/img/categories_v2/food/default_", "suffix": ".png"}}], "chains": [], "closed_bucket": "LikelyOpen", "distance": 813, "geocodes": {"drop_off": {"latitude": 55.858449, "longitude": -4.215817}, "main": {"latitude": 55.858561, "longitude": -4.215813}, "roof": {"latitude": 55.858561, "longitude": -4.215813}}, "link": "/v3/places/52b6efdb498eb22aa441b53a", "location": {"address": "585 Duke St", "admin_region": "Scotland", "country": "GB", "cross_street": "", "formatted_address": "585 Duke St, Glasgow, Glasgow City, G31 1PY", "locality": "Glasgow", "post_town": "Glasgow", "postcode": "G31 1PY", "region": "Glasgow City"}, "name": "Dennistoun Bar-B-Que", "related_places": {}, "timezone": "Europe/London"}, {"fsq_id": "53ac4ba4498e7605c5e57023", "categories": [{"id": 13018, "name": "Pub", "short_name": "Pub", "plural_name": "Pubs", "icon": {"prefix": "https://ss3.4sqi.net/img/categories_v2/nightlife/pub_", "suffix": ".png"}}, {"id": 13065, "name": "Restaurant", "short_name": "Restaurant", "plural_name": "Restaurants", "icon": {"prefix": "https://ss3.4sqi.net/img/categories_v2/food/default_", "suffix": ".png"}}], "chains": [], "closed_bucket": "VeryLikelyOpen", "distance": 732, "geocodes": {"main": {"latitude": 55.85831, "longitude": -4.218398}, "roof": {"latitude": 55.85831, "longitude": -4.218398}}, "link": "/v3/places/53ac4ba4498e7605c5e57023", "location": {"address": "380 Duke St", "admin_region": "Scotland", "country": "GB", "cross_street": "", "formatted_address": "380 Duke St, Glasgow, Glasgow City, G31 1DN", "locality": "Glasgow", "post_town": "Glasgow", "postcode": "G31 1DN", "region": "Glasgow City"}, "name": "The Duchess of Duke Street", "related_places": {}, "timezone": "Europe/London"}, {"fsq_id": "59c6a66dc4df1d02e4877a35", "categories": [{"id": 13029, "name": "Brewery", "short_name": "Brewery", "plural_name": "Breweries", "icon": {"prefix": "https://ss3.4sqi.net/img/categories_v2/food/brewery_", "suffix": ".png"}}], "chains": [], "closed_bucket": "VeryLikelyOpen", "distance": 739, "geocodes": {"drop_off": {"latitude": 55.859145, "longitude": -4.230883}, "main": {"latitude": 55.859288, "longitude": -4.230863}, "roof": {"latitude": 55.859288, "longitude": -4.230863}}, "link": "/v3/places/59c6a66dc4df1d02e4877a35", "location": {"address": "161 Duke St", "admin_region": "Scotland", "country": "GB", "cross_street": "", "formatted_address": "161 Duke St, Glasgow, G31 1JD", "locality": "Glasgow", "post_town": "Glasgow", "postcode": "G31 1JD"}, "name": "Tennent\u2019s Caledonian Brewery Visitor Center", "related_places": {}, "timezone": "Europe/London"}, {"fsq_id": "4bd2ae30a8b3a5932063685f", "categories": [{"id": 13064, "name": "Pizzeria", "short_name": "Pizza", "plural_name": "Pizzerias", "icon": {"prefix": "https://ss3.4sqi.net/img/categories_v2/food/pizza_", "suffix": ".png"}}, {"id": 13145, "name": "Fast Food Restaurant", "short_name": "Fast Food", "plural_name": "Fast Food Restaurants", "icon": {"prefix": "https://ss3.4sqi.net/img/categories_v2/food/fastfood_", "suffix": ".png"}}], "chains": [{"id": "ab4afc60-d68a-012e-5619-003048cad9da", "name": "Domino's Pizza"}], "closed_bucket": "VeryLikelyOpen", "distance": 159, "geocodes": {"main": {"latitude": 55.864233, "longitude": -4.220746}, "roof": {"latitude": 55.864233, "longitude": -4.220746}}, "link": "/v3/places/4bd2ae30a8b3a5932063685f", "location": {"address": "433 Alexandra Parade", "admin_region": "Scotland", "country": "GB", "formatted_address": "433 Alexandra Parade, Glasgow, Glasgow City, G31 3AD", "locality": "Glasgow", "post_town": "Glasgow", "postcode": "G31 3AD", "region": "Glasgow City"}, "name": "Domino's Pizza", "related_places": {}, "timezone": "Europe/London"}, {"fsq_id": "4b7400abf964a5204ec32de3", "categories": [{"id": 13039, "name": "Deli", "short_name": "Deli", "plural_name": "Delis", "icon": {"prefix": "https://ss3.4sqi.net/img/categories_v2/food/deli_", "suffix": ".png"}}, {"id": 13145, "name": "Fast Food Restaurant", "short_name": "Fast Food", "plural_name": "Fast Food Restaurants", "icon": {"prefix": "https://ss3.4sqi.net/img/categories_v2/food/fastfood_", "suffix": ".png"}}, {"id": 13334, "name": "Sandwich Spot", "short_name": "Sandwich Spot", "plural_name": "Sandwich Spots", "icon": {"prefix": "https://ss3.4sqi.net/img/categories_v2/food/deli_", "suffix": ".png"}}], "chains": [{"id": "ab4bee40-d68a-012e-5619-003048cad9da", "name": "Subway"}], "closed_bucket": "VeryLikelyOpen", "distance": 164, "geocodes": {"main": {"latitude": 55.864239, "longitude": -4.220641}, "roof": {"latitude": 55.864239, "longitude": -4.220641}}, "link": "/v3/places/4b7400abf964a5204ec32de3", "location": {"address": "433 Alexandra Parade", "admin_region": "Scotland", "country": "GB", "formatted_address": "433 Alexandra Parade, Glasgow, G31 3AD", "locality": "Glasgow", "post_town": "Glasgow", "postcode": "G31 3AD"}, "name": "Subway", "related_places": {}, "timezone": "Europe/London"}, {"fsq_id": "4b681df9f964a520e2672be3", "categories": [{"id": 13032, "name": "Cafe, Coffee, and Tea House", "short_name": "Cafe, Coffee, and Tea House", "plural_name": "Cafes, Coffee, and Tea Houses", "icon": {"prefix": "https://ss3.4sqi.net/img/categories_v2/food/coffeeshop_", "suffix": ".png"}}, {"id": 13334, "name": "Sandwich Spot", "short_name": "Sandwich Spot", "plural_name": "Sandwich Spots", "icon": {"prefix": "https://ss3.4sqi.net/img/categories_v2/food/deli_", "suffix": ".png"}}], "chains": [], "closed_bucket": "VeryLikelyOpen", "distance": 257, "geocodes": {"main": {"latitude": 55.864392, "longitude": -4.221661}, "roof": {"latitude": 55.864392, "longitude": -4.221661}}, "link": "/v3/places/4b681df9f964a520e2672be3", "location": {"address": "417 Alexandra Parade", "admin_region": "Scotland", "country": "GB", "formatted_address": "417 Alexandra Parade, Glasgow, Glasgow City, G31 3AD", "locality": "Glasgow", "post_town": "Glasgow", "postcode": "G31 3AD", "region": "Glasgow City"}, "name": "Food on Parade", "related_places": {}, "timezone": "Europe/London"}, {"fsq_id": "4d80ed586bd8b60c5b7a527c", "categories": [{"id": 13003, "name": "Bar", "short_name": "Bar", "plural_name": "Bars", "icon": {"prefix": "https://ss3.4sqi.net/img/categories_v2/nightlife/pub_", "suffix": ".png"}}], "chains": [], "closed_bucket": "VeryLikelyOpen", "distance": 538, "geocodes": {"main": {"latitude": 55.858182, "longitude": -4.223438}, "roof": {"latitude": 55.858182, "longitude": -4.223438}}, "link": "/v3/places/4d80ed586bd8b60c5b7a527c", "location": {"address": "288 Duke St", "country": "GB", "cross_street": "", "formatted_address": "288 Duke St, Glasgow, Glasgow City", "locality": "Glasgow", "post_town": "Glasgow", "region": "Glasgow City"}, "name": "The New Variety Bar", "related_places": {}, "timezone": "Europe/London"}, {"fsq_id": "4bd0b05eb221c9b60e35d4d0", "categories": [{"id": 13099, "name": "Chinese Restaurant", "short_name": "Chinese", "plural_name": "Chinese Restaurants", "icon": {"prefix": "https://ss3.4sqi.net/img/categories_v2/food/asian_", "suffix": ".png"}}], "chains": [], "closed_bucket": "VeryLikelyOpen", "distance": 550, "geocodes": {"main": {"latitude": 55.861383, "longitude": -4.216212}, "roof": {"latitude": 55.861383, "longitude": -4.216212}}, "link": "/v3/places/4bd0b05eb221c9b60e35d4d0", "location": {"country": "GB", "cross_street": "", "formatted_address": ""}, "name": "The Famous Wok", "related_places": {}, "timezone": "Europe/London"}, {"fsq_id": "4faea10ae4b0b84e1cbfb4a5", "categories": [{"id": 13236, "name": "Italian Restaurant", "short_name": "Italian", "plural_name": "Italian Restaurants", "icon": {"prefix": "https://ss3.4sqi.net/img/categories_v2/food/italian_", "suffix": ".png"}}], "chains": [], "closed_bucket": "VeryLikelyOpen", "distance": 668, "geocodes": {"main": {"latitude": 55.866637, "longitude": -4.23315}}, "link": "/v3/places/4faea10ae4b0b84e1cbfb4a5", "location": {"country": "GB", "cross_street": "", "formatted_address": ""}, "name": "Celinos", "related_places": {}, "timezone": "Europe/London"}, {"fsq_id": "4bc06baaabf495216e31bf93", "categories": [{"id": 13002, "name": "Bakery", "short_name": "Bakery", "plural_name": "Bakeries", "icon": {"prefix": "https://ss3.4sqi.net/img/categories_v2/food/bakery_", "suffix": ".png"}}, {"id": 13039, "name": "Deli", "short_name": "Deli", "plural_name": "Delis", "icon": {"prefix": "https://ss3.4sqi.net/img/categories_v2/food/deli_", "suffix": ".png"}}, {"id": 13334, "name": "Sandwich Spot", "short_name": "Sandwich Spot", "plural_name": "Sandwich Spots", "icon": {"prefix": "https://ss3.4sqi.net/img/categories_v2/food/deli_", "suffix": ".png"}}], "chains": [], "closed_bucket": "VeryLikelyOpen", "distance": 669, "geocodes": {"main": {"latitude": 55.858133, "longitude": -4.223367}, "roof": {"latitude": 55.858133, "longitude": -4.223367}}, "link": "/v3/places/4bc06baaabf495216e31bf93", "location": {"address": "302 Duke St", "admin_region": "Scotland", "country": "GB", "cross_street": "", "formatted_address": "302 Duke St, Glasgow, Glasgow City, G31 1RZ", "locality": "Glasgow", "post_town": "Glasgow", "postcode": "G31 1RZ", "region": "Glasgow City"}, "name": "Miau Espresso & Sandwich Bar", "related_places": {}, "timezone": "Europe/London"}, {"fsq_id": "5b198e232a7ab60039418405", "categories": [{"id": 13099, "name": "Chinese Restaurant", "short_name": "Chinese", "plural_name": "Chinese Restaurants", "icon": {"prefix": "https://ss3.4sqi.net/img/categories_v2/food/asian_", "suffix": ".png"}}], "chains": [], "closed_bucket": "VeryLikelyOpen", "distance": 682, "geocodes": {"main": {"latitude": 55.863022, "longitude": -4.212372}, "roof": {"latitude": 55.863022, "longitude": -4.212372}}, "link": "/v3/places/5b198e232a7ab60039418405", "location": {"admin_region": "Scotland", "country": "GB", "cross_street": "", "formatted_address": "Glasgow, Glasgow City, G31 3BT", "locality": "Glasgow", "post_town": "Glasgow", "postcode": "G31 3BT", "region": "Glasgow City"}, "name": "Zen Chinese Takeaway & Home Delivery", "related_places": {}, "timezone": "Europe/London"}, {"fsq_id": "5002dc7ae4b07ecf51a34b4f", "categories": [{"id": 13145, "name": "Fast Food Restaurant", "short_name": "Fast Food", "plural_name": "Fast Food Restaurants", "icon": {"prefix": "https://ss3.4sqi.net/img/categories_v2/food/fastfood_", "suffix": ".png"}}], "chains": [], "closed_bucket": "VeryLikelyOpen", "distance": 686, "geocodes": {"main": {"latitude": 55.858234, "longitude": -4.221583}, "roof": {"latitude": 55.858234, "longitude": -4.221583}}, "link": "/v3/places/5002dc7ae4b07ecf51a34b4f", "location": {"country": "GB", "cross_street": "", "formatted_address": ""}, "name": "PIA`s", "related_places": {}, "timezone": "Europe/London"}, {"fsq_id": "63c3f89a966a8041ba10b036", "categories": [{"id": 13337, "name": "Scottish Restaurant", "short_name": "Scottish", "plural_name": "Scottish Restaurants", "icon": {"prefix": "https://ss3.4sqi.net/img/categories_v2/food/default_", "suffix": ".png"}}], "chains": [], "closed_bucket": "Unsure", "distance": 689, "geocodes": {"drop_off": {"latitude": 55.858704, "longitude": -4.219155}, "main": {"latitude": 55.858699, "longitude": -4.21897}, "roof": {"latitude": 55.858699, "longitude": -4.21897}}, "link": "/v3/places/63c3f89a966a8041ba10b036", "location": {"address": "10 Whitehill St", "admin_region": "Scotland", "country": "GB", "cross_street": "", "formatted_address": "10 Whitehill St, Glasgow, Glasgow City, G31 2LJ", "locality": "Glasgow", "post_town": "Glasgow", "postcode": "G31 2LJ", "region": "Glasgow City"}, "name": "The Loveable Rogue East End", "related_places": {}, "timezone": "Europe/London"}, {"fsq_id": "503e4f3ce4b0c2b80fb6da69", "categories": [{"id": 13003, "name": "Bar", "short_name": "Bar", "plural_name": "Bars", "icon": {"prefix": "https://ss3.4sqi.net/img/categories_v2/nightlife/pub_", "suffix": ".png"}}], "chains": [], "closed_bucket": "VeryLikelyOpen", "distance": 690, "geocodes": {"main": {"latitude": 55.85853, "longitude": -4.220086}, "roof": {"latitude": 55.85853, "longitude": -4.220086}}, "link": "/v3/places/503e4f3ce4b0c2b80fb6da69", "location": {"country": "GB", "cross_street": "", "formatted_address": ""}, "name": "Haggies", "related_places": {}, "timezone": "Europe/London"}, {"fsq_id": "55a788d9498e189cc53ec2f2", "categories": [{"id": 13040, "name": "Dessert Shop", "short_name": "Desserts", "plural_name": "Dessert Shops", "icon": {"prefix": "https://ss3.4sqi.net/img/categories_v2/food/dessert_", "suffix": ".png"}}, {"id": 13065, "name": "Restaurant", "short_name": "Restaurant", "plural_name": "Restaurants", "icon": {"prefix": "https://ss3.4sqi.net/img/categories_v2/food/default_", "suffix": ".png"}}], "chains": [], "closed_bucket": "LikelyOpen", "distance": 699, "geocodes": {"drop_off": {"latitude": 55.858321, "longitude": -4.222218}, "main": {"latitude": 55.858199, "longitude": -4.222213}, "roof": {"latitude": 55.858199, "longitude": -4.222213}}, "link": "/v3/places/55a788d9498e189cc53ec2f2", "location": {"address": "330 Duke St", "admin_region": "Scotland", "country": "GB", "cross_street": "", "formatted_address": "330 Duke St, Glasgow, Glasgow City", "locality": "Glasgow", "post_town": "Glasgow", "region": "Glasgow City"}, "name": "Cheesecake Deli", "related_places": {}, "timezone": "Europe/London"}, {"fsq_id": "5c9fab4e872f7d002c938ad7", "categories": [{"id": 13018, "name": "Pub", "short_name": "Pub", "plural_name": "Pubs", "icon": {"prefix": "https://ss3.4sqi.net/img/categories_v2/nightlife/pub_", "suffix": ".png"}}, {"id": 13065, "name": "Restaurant", "short_name": "Restaurant", "plural_name": "Restaurants", "icon": {"prefix": "https://ss3.4sqi.net/img/categories_v2/food/default_", "suffix": ".png"}}], "chains": [], "closed_bucket": "LikelyOpen", "distance": 745, "geocodes": {"drop_off": {"latitude": 55.858434, "longitude": -4.218506}, "main": {"latitude": 55.858304, "longitude": -4.218503}, "roof": {"latitude": 55.858304, "longitude": -4.218503}}, "link": "/v3/places/5c9fab4e872f7d002c938ad7", "location": {"address": "380 Duke St", "admin_region": "Scotland", "country": "GB", "cross_street": "", "formatted_address": "380 Duke St, Glasgow, Glasgow City, G31 1DN", "locality": "Glasgow", "post_town": "Glasgow", "postcode": "G31 1DN", "region": "Glasgow City"}, "name": "The Palais Bar", "related_places": {}, "timezone": "Europe/London"}, {"fsq_id": "623cd17e98c5dc74ef808fe8", "categories": [{"id": 13145, "name": "Fast Food Restaurant", "short_name": "Fast Food", "plural_name": "Fast Food Restaurants", "icon": {"prefix": "https://ss3.4sqi.net/img/categories_v2/food/fastfood_", "suffix": ".png"}}, {"id": 13055, "name": "Fried Chicken Joint", "short_name": "Fried Chicken", "plural_name": "Fried Chicken Joints", "icon": {"prefix": "https://ss3.4sqi.net/img/categories_v2/food/friedchicken_", "suffix": ".png"}}], "chains": [], "closed_bucket": "Unsure", "distance": 749, "geocodes": {"drop_off": {"latitude": 55.8631, "longitude": -4.211483}, "main": {"latitude": 55.862966, "longitude": -4.211495}, "roof": {"latitude": 55.862966, "longitude": -4.211495}}, "link": "/v3/places/623cd17e98c5dc74ef808fe8", "location": {"address": "652 Alexandra Parade", "admin_region": "Scotland", "country": "GB", "cross_street": "", "formatted_address": "652 Alexandra Parade, Glasgow, G31 3BU", "locality": "Glasgow", "post_town": "Glasgow", "postcode": "G31 3BU"}, "name": "Rio\u2019s Piri Piri", "related_places": {}, "timezone": "Europe/London"}, {"fsq_id": "4f4c94a7e4b0cb12b82ec5fc", "categories": [{"id": 13034, "name": "Caf\u00e9", "short_name": "Caf\u00e9", "plural_name": "Caf\u00e9s", "icon": {"prefix": "https://ss3.4sqi.net/img/categories_v2/food/cafe_", "suffix": ".png"}}, {"id": 13065, "name": "Restaurant", "short_name": "Restaurant", "plural_name": "Restaurants", "icon": {"prefix": "https://ss3.4sqi.net/img/categories_v2/food/default_", "suffix": ".png"}}], "chains": [], "closed_bucket": "LikelyOpen", "distance": 753, "geocodes": {"main": {"latitude": 55.858587, "longitude": -4.217215}, "roof": {"latitude": 55.858587, "longitude": -4.217215}}, "link": "/v3/places/4f4c94a7e4b0cb12b82ec5fc", "location": {"address": "549 Duke St", "admin_region": "Scotland", "country": "GB", "cross_street": "", "formatted_address": "549 Duke St, Glasgow, G31 1DL", "locality": "Glasgow", "post_town": "Glasgow", "postcode": "G31 1DL"}, "name": "Caffe Euro", "related_places": {}, "timezone": "Europe/London"}, {"fsq_id": "579104ae498ed332e09a3393", "categories": [{"id": 13046, "name": "Ice Cream Parlor", "short_name": "Ice Cream", "plural_name": "Ice Cream Parlors", "icon": {"prefix": "https://ss3.4sqi.net/img/categories_v2/food/icecream_", "suffix": ".png"}}, {"id": 13065, "name": "Restaurant", "short_name": "Restaurant", "plural_name": "Restaurants", "icon": {"prefix": "https://ss3.4sqi.net/img/categories_v2/food/default_", "suffix": ".png"}}], "chains": [], "closed_bucket": "LikelyOpen", "distance": 758, "geocodes": {"drop_off": {"latitude": 55.858473, "longitude": -4.216898}, "main": {"latitude": 55.858605, "longitude": -4.216901}, "roof": {"latitude": 55.858605, "longitude": -4.216901}}, "link": "/v3/places/579104ae498ed332e09a3393", "location": {"address": "553 Duke St", "admin_region": "Scotland", "country": "GB", "cross_street": "", "formatted_address": "553 Duke St, Glasgow, Glasgow City, G31 1DL", "locality": "Glasgow", "post_town": "Glasgow", "postcode": "G31 1DL", "region": "Glasgow City"}, "name": "Black Vanilla", "related_places": {}, "timezone": "Europe/London"}, {"fsq_id": "4be7af4fee96c928b042fdbf", "categories": [{"id": 13029, "name": "Brewery", "short_name": "Brewery", "plural_name": "Breweries", "icon": {"prefix": "https://ss3.4sqi.net/img/categories_v2/food/brewery_", "suffix": ".png"}}, {"id": 13065, "name": "Restaurant", "short_name": "Restaurant", "plural_name": "Restaurants", "icon": {"prefix": "https://ss3.4sqi.net/img/categories_v2/food/default_", "suffix": ".png"}}], "chains": [], "closed_bucket": "VeryLikelyOpen", "distance": 758, "geocodes": {"drop_off": {"latitude": 55.859145, "longitude": -4.230883}, "main": {"latitude": 55.859288, "longitude": -4.230863}, "roof": {"latitude": 55.859288, "longitude": -4.230863}}, "link": "/v3/places/4be7af4fee96c928b042fdbf", "location": {"address": "161 Duke St", "country": "GB", "cross_street": "", "formatted_address": "161 Duke St, Glasgow, Glasgow City", "locality": "Glasgow", "post_town": "Glasgow", "region": "Glasgow City"}, "name": "Wellpark Brewery", "related_places": {}, "timezone": "Europe/London"}, {"fsq_id": "6477a24f15d846d1afc820f2", "categories": [{"id": 13065, "name": "Restaurant", "short_name": "Restaurant", "plural_name": "Restaurants", "icon": {"prefix": "https://ss3.4sqi.net/img/categories_v2/food/default_", "suffix": ".png"}}], "chains": [], "closed_bucket": "VeryLikelyOpen", "distance": 763, "geocodes": {"drop_off": {"latitude": 55.85771, "longitude": -4.222102}, "main": {"latitude": 55.857634, "longitude": -4.221951}, "roof": {"latitude": 55.857634, "longitude": -4.221951}}, "link": "/v3/places/6477a24f15d846d1afc820f2", "location": {"address": "140 Sword St", "admin_region": "Scotland", "country": "GB", "formatted_address": "140 Sword St, Glasgow, Glasgow City, G31 1SF", "locality": "Glasgow", "post_town": "Glasgow", "postcode": "G31 1SF", "region": "Glasgow City"}, "name": "The Winners Take Away", "related_places": {}, "timezone": "Europe/London"}, {"fsq_id": "4bdc6a35afe8c9b6a04e4f85", "categories": [{"id": 13145, "name": "Fast Food Restaurant", "short_name": "Fast Food", "plural_name": "Fast Food Restaurants", "icon": {"prefix": "https://ss3.4sqi.net/img/categories_v2/food/fastfood_", "suffix": ".png"}}], "chains": [], "closed_bucket": "VeryLikelyOpen", "distance": 779, "geocodes": {"main": {"latitude": 55.858332, "longitude": -4.217068}, "roof": {"latitude": 55.858332, "longitude": -4.217068}}, "link": "/v3/places/4bdc6a35afe8c9b6a04e4f85", "location": {"country": "GB", "cross_street": "", "formatted_address": "Glasgow, Glasgow City", "locality": "Glasgow", "post_town": "Glasgow", "region": "Glasgow City"}, "name": "Claudio's Chip Shop", "related_places": {}, "timezone": "Europe/London"}, {"fsq_id": "4c1d278f8b3aa593ce199a5f", "categories": [{"id": 13018, "name": "Pub", "short_name": "Pub", "plural_name": "Pubs", "icon": {"prefix": "https://ss3.4sqi.net/img/categories_v2/nightlife/pub_", "suffix": ".png"}}, {"id": 13065, "name": "Restaurant", "short_name": "Restaurant", "plural_name": "Restaurants", "icon": {"prefix": "https://ss3.4sqi.net/img/categories_v2/food/default_", "suffix": ".png"}}], "chains": [], "closed_bucket": "VeryLikelyOpen", "distance": 784, "geocodes": {"main": {"latitude": 55.859205, "longitude": -4.232332}, "roof": {"latitude": 55.859205, "longitude": -4.232332}}, "link": "/v3/places/4c1d278f8b3aa593ce199a5f", "location": {"address": "120 Duke St", "admin_region": "Scotland", "country": "GB", "cross_street": "Barrack St.", "formatted_address": "120 Duke St (Barrack St.), Glasgow, Glasgow City, G4 0XW", "locality": "Glasgow", "post_town": "Glasgow", "postcode": "G4 0XW", "region": "Glasgow City"}, "name": "Ladywell", "related_places": {}, "timezone": "Europe/London"}, {"fsq_id": "5c938677a35f460025794d48", "categories": [{"id": 13035, "name": "Coffee Shop", "short_name": "Coffee Shop", "plural_name": "Coffee Shops", "icon": {"prefix": "https://ss3.4sqi.net/img/categories_v2/food/coffeeshop_", "suffix": ".png"}}, {"id": 13065, "name": "Restaurant", "short_name": "Restaurant", "plural_name": "Restaurants", "icon": {"prefix": "https://ss3.4sqi.net/img/categories_v2/food/default_", "suffix": ".png"}}], "chains": [], "closed_bucket": "LikelyOpen", "distance": 787, "geocodes": {"drop_off": {"latitude": 55.858462, "longitude": -4.216204}, "main": {"latitude": 55.858592, "longitude": -4.2162}, "roof": {"latitude": 55.858592, "longitude": -4.2162}}, "link": "/v3/places/5c938677a35f460025794d48", "location": {"address": "567 Duke St", "admin_region": "Scotland", "country": "GB", "cross_street": "", "formatted_address": "567 Duke St, Glasgow, Glasgow City, G31 1PY", "locality": "Glasgow", "post_town": "Glasgow", "postcode": "G31 1PY", "region": "Glasgow City"}, "name": "Mesa", "related_places": {}, "timezone": "Europe/London"}, {"fsq_id": "6163179622fff040770c2d38", "categories": [{"id": 13236, "name": "Italian Restaurant", "short_name": "Italian", "plural_name": "Italian Restaurants", "icon": {"prefix": "https://ss3.4sqi.net/img/categories_v2/food/italian_", "suffix": ".png"}}], "chains": [], "closed_bucket": "LikelyOpen", "distance": 789, "geocodes": {"main": {"latitude": 55.861895, "longitude": -4.23504}, "roof": {"latitude": 55.861895, "longitude": -4.23504}}, "link": "/v3/places/6163179622fff040770c2d38", "location": {"address": "28-32 Cathedral Square", "admin_region": "Scotland", "country": "GB", "cross_street": "", "formatted_address": "28-32 Cathedral Square, Glasgow, Glasgow City, G4 0XA", "locality": "Glasgow", "post_town": "Glasgow", "postcode": "G4 0XA", "region": "Glasgow City"}, "name": "Celentano's", "related_places": {}, "timezone": "Europe/London"}, {"fsq_id": "4c2f0f68a0ced13ac7e40f6e", "categories": [{"id": 13145, "name": "Fast Food Restaurant", "short_name": "Fast Food", "plural_name": "Fast Food Restaurants", "icon": {"prefix": "https://ss3.4sqi.net/img/categories_v2/food/fastfood_", "suffix": ".png"}}], "chains": [], "closed_bucket": "VeryLikelyOpen", "distance": 792, "geocodes": {"main": {"latitude": 55.859217, "longitude": -4.232122}, "roof": {"latitude": 55.859217, "longitude": -4.232122}}, "link": "/v3/places/4c2f0f68a0ced13ac7e40f6e", "location": {"country": "GB", "cross_street": "", "formatted_address": ""}, "name": "Street Cafe", "related_places": {}, "timezone": "Europe/London"}, {"fsq_id": "5209f6ed11d2d9468161b9da", "categories": [{"id": 13034, "name": "Caf\u00e9", "short_name": "Caf\u00e9", "plural_name": "Caf\u00e9s", "icon": {"prefix": "https://ss3.4sqi.net/img/categories_v2/food/cafe_", "suffix": ".png"}}, {"id": 13035, "name": "Coffee Shop", "short_name": "Coffee Shop", "plural_name": "Coffee Shops", "icon": {"prefix": "https://ss3.4sqi.net/img/categories_v2/food/coffeeshop_", "suffix": ".png"}}, {"id": 13065, "name": "Restaurant", "short_name": "Restaurant", "plural_name": "Restaurants", "icon": {"prefix": "https://ss3.4sqi.net/img/categories_v2/food/default_", "suffix": ".png"}}], "chains": [], "closed_bucket": "VeryLikelyOpen", "distance": 794, "geocodes": {"main": {"latitude": 55.864966, "longitude": -4.235693}, "roof": {"latitude": 55.864966, "longitude": -4.235693}}, "link": "/v3/places/5209f6ed11d2d9468161b9da", "location": {"address": "88-92 Castle St", "address_extended": "Unit 88", "admin_region": "Scotland", "country": "GB", "cross_street": "", "formatted_address": "88-92 Castle St, Glasgow, G4 0SF", "locality": "Glasgow", "post_town": "Glasgow", "postcode": "G4 0SF"}, "name": "The Clock Tower", "related_places": {}, "timezone": "Europe/London"}, {"fsq_id": "dfccfb82293a4bf892e30f95", "categories": [{"id": 13065, "name": "Restaurant", "short_name": "Restaurant", "plural_name": "Restaurants", "icon": {"prefix": "https://ss3.4sqi.net/img/categories_v2/food/default_", "suffix": ".png"}}], "chains": [], "closed_bucket": "LikelyOpen", "distance": 796, "geocodes": {"drop_off": {"latitude": 55.858459, "longitude": -4.2161}, "main": {"latitude": 55.858598, "longitude": -4.216095}, "roof": {"latitude": 55.858598, "longitude": -4.216095}}, "link": "/v3/places/dfccfb82293a4bf892e30f95", "location": {"address": "575 Duke St", "admin_region": "Scotland", "country": "GB", "formatted_address": "575 Duke St, Glasgow, Glasgow City, G31 1PY", "locality": "Glasgow", "post_town": "Glasgow", "postcode": "G31 1PY", "region": "Glasgow City"}, "name": "East End Caffe", "related_places": {}, "timezone": "Europe/London"}, {"fsq_id": "5a663fda16fa0402235ad9b4", "categories": [{"id": 13064, "name": "Pizzeria", "short_name": "Pizza", "plural_name": "Pizzerias", "icon": {"prefix": "https://ss3.4sqi.net/img/categories_v2/food/pizza_", "suffix": ".png"}}], "chains": [], "closed_bucket": "LikelyOpen", "distance": 799, "geocodes": {"main": {"latitude": 55.858555, "longitude": -4.215918}, "roof": {"latitude": 55.858555, "longitude": -4.215918}}, "link": "/v3/places/5a663fda16fa0402235ad9b4", "location": {"address": "575 Duke St", "admin_region": "Scotland", "country": "GB", "cross_street": "", "formatted_address": "575 Duke St, Glasgow, Glasgow City, G31 1PY", "locality": "Glasgow", "post_town": "Glasgow", "postcode": "G31 1PY", "region": "Glasgow City"}, "name": "Pizza East", "related_places": {}, "timezone": "Europe/London"}, {"fsq_id": "5b3e211c92e7a9002c617d9e", "categories": [{"id": 13064, "name": "Pizzeria", "short_name": "Pizza", "plural_name": "Pizzerias", "icon": {"prefix": "https://ss3.4sqi.net/img/categories_v2/food/pizza_", "suffix": ".png"}}], "chains": [], "closed_bucket": "VeryLikelyOpen", "distance": 801, "geocodes": {"main": {"latitude": 55.859217, "longitude": -4.232122}, "roof": {"latitude": 55.859217, "longitude": -4.232122}}, "link": "/v3/places/5b3e211c92e7a9002c617d9e", "location": {"address": "120 Duke St", "admin_region": "Scotland", "country": "GB", "cross_street": "", "formatted_address": "120 Duke St, Glasgow, Glasgow City, G4 0XW", "locality": "Glasgow", "post_town": "Glasgow", "postcode": "G4 0XW", "region": "Glasgow City"}, "name": "Baked Pizza Al Taglio", "related_places": {}, "timezone": "Europe/London"}, {"fsq_id": "4dc914c5e4cdf14b855644f0", "categories": [{"id": 13338, "name": "Seafood Restaurant", "short_name": "Seafood", "plural_name": "Seafood Restaurants", "icon": {"prefix": "https://ss3.4sqi.net/img/categories_v2/food/seafood_", "suffix": ".png"}}, {"id": 17077, "name": "Meat and Seafood Store", "short_name": "Meat and Seafood Store", "plural_name": "Meat and Seafood Stores", "icon": {"prefix": "https://ss3.4sqi.net/img/categories_v2/shops/food_grocery_", "suffix": ".png"}}], "chains": [], "closed_bucket": "VeryLikelyOpen", "distance": 811, "geocodes": {"main": {"latitude": 55.868256, "longitude": -4.212001}, "roof": {"latitude": 55.868256, "longitude": -4.212001}}, "link": "/v3/places/4dc914c5e4cdf14b855644f0", "location": {"address": "Fish Market, 130 Blochairn Rd", "address_extended": "Unit D11-14", "admin_region": "Scotland", "country": "GB", "cross_street": "", "formatted_address": "Fish Market, 130 Blochairn Rd, Glasgow, Glasgow City, G21 2DU", "locality": "Glasgow", "post_town": "Glasgow", "postcode": "G21 2DU", "region": "Glasgow City"}, "name": "John Vallance", "related_places": {}, "timezone": "Europe/London"}, {"fsq_id": "62124f6c6923226d9893fea5", "categories": [{"id": 13034, "name": "Caf\u00e9", "short_name": "Caf\u00e9", "plural_name": "Caf\u00e9s", "icon": {"prefix": "https://ss3.4sqi.net/img/categories_v2/food/cafe_", "suffix": ".png"}}, {"id": 13145, "name": "Fast Food Restaurant", "short_name": "Fast Food", "plural_name": "Fast Food Restaurants", "icon": {"prefix": "https://ss3.4sqi.net/img/categories_v2/food/fastfood_", "suffix": ".png"}}], "chains": [], "closed_bucket": "LikelyOpen", "distance": 835, "geocodes": {"drop_off": {"latitude": 55.858436, "longitude": -4.215452}, "main": {"latitude": 55.858318, "longitude": -4.215456}, "roof": {"latitude": 55.858318, "longitude": -4.215456}}, "link": "/v3/places/62124f6c6923226d9893fea5", "location": {"address": "460 Duke St", "admin_region": "Scotland", "country": "GB", "cross_street": "", "formatted_address": "460 Duke St, Glasgow, G31 1QN", "locality": "Glasgow", "post_town": "Glasgow", "postcode": "G31 1QN"}, "name": "Fork n Knife Cafe", "related_places": {}, "timezone": "Europe/London"}, {"fsq_id": "4f9e40a8e4b01da401729dd5", "categories": [{"id": 13034, "name": "Caf\u00e9", "short_name": "Caf\u00e9", "plural_name": "Caf\u00e9s", "icon": {"prefix": "https://ss3.4sqi.net/img/categories_v2/food/cafe_", "suffix": ".png"}}, {"id": 13065, "name": "Restaurant", "short_name": "Restaurant", "plural_name": "Restaurants", "icon": {"prefix": "https://ss3.4sqi.net/img/categories_v2/food/default_", "suffix": ".png"}}], "chains": [], "closed_bucket": "VeryLikelyOpen", "distance": 853, "geocodes": {"main": {"latitude": 55.862558, "longitude": -4.236356}, "roof": {"latitude": 55.862558, "longitude": -4.236356}}, "link": "/v3/places/4f9e40a8e4b01da401729dd5", "location": {"country": "GB", "cross_street": "", "formatted_address": "", "post_town": "Glasgow"}, "name": "Aroma Coffee Bar", "related_places": {}, "timezone": "Europe/London"}, {"fsq_id": "4b944081f964a520427134e3", "categories": [{"id": 13003, "name": "Bar", "short_name": "Bar", "plural_name": "Bars", "icon": {"prefix": "https://ss3.4sqi.net/img/categories_v2/nightlife/pub_", "suffix": ".png"}}], "chains": [], "closed_bucket": "LikelyOpen", "distance": 865, "geocodes": {"main": {"latitude": 55.858269, "longitude": -4.214474}, "roof": {"latitude": 55.858269, "longitude": -4.214474}}, "link": "/v3/places/4b944081f964a520427134e3", "location": {"address": "476-480 Duke St", "admin_region": "Scotland", "country": "GB", "cross_street": "", "formatted_address": "476-480 Duke St, Glasgow, Glasgow City, G31 1QF", "locality": "Glasgow", "post_town": "Glasgow", "postcode": "G31 1QF", "region": "Glasgow City"}, "name": "The Crown Creighton", "related_places": {}, "timezone": "Europe/London"}, {"fsq_id": "5ccf37c095a722002c7feb7a", "categories": [{"id": 13199, "name": "Indian Restaurant", "short_name": "Indian", "plural_name": "Indian Restaurants", "icon": {"prefix": "https://ss3.4sqi.net/img/categories_v2/food/indian_", "suffix": ".png"}}], "chains": [], "closed_bucket": "VeryLikelyOpen", "distance": 883, "geocodes": {"main": {"latitude": 55.85822, "longitude": -4.214402}, "roof": {"latitude": 55.85822, "longitude": -4.214402}}, "link": "/v3/places/5ccf37c095a722002c7feb7a", "location": {"admin_region": "Scotland", "country": "GB", "cross_street": "", "formatted_address": "Glasgow, Glasgow City, G31 1QG", "locality": "Glasgow", "post_town": "Glasgow", "postcode": "G31 1QG", "region": "Glasgow City"}, "name": "The Red Tiffin", "related_places": {}, "timezone": "Europe/London"}, {"fsq_id": "fe4c043828ce4a728a3da066", "categories": [{"id": 10000, "name": "Arts and Entertainment", "short_name": "Arts & Entertainment", "plural_name": "Arts and Entertainment", "icon": {"prefix": "https://ss3.4sqi.net/img/categories_v2/arts_entertainment/default_", "suffix": ".png"}}, {"id": 13003, "name": "Bar", "short_name": "Bar", "plural_name": "Bars", "icon": {"prefix": "https://ss3.4sqi.net/img/categories_v2/nightlife/pub_", "suffix": ".png"}}], "chains": [], "closed_bucket": "LikelyOpen", "distance": 913, "geocodes": {"main": {"latitude": 55.870216, "longitude": -4.212725}, "roof": {"latitude": 55.870216, "longitude": -4.212725}}, "link": "/v3/places/fe4c043828ce4a728a3da066", "location": {"address": "269 Blochairn Rd", "admin_region": "Scotland", "country": "GB", "formatted_address": "269 Blochairn Rd, Glasgow, G21 2DU", "locality": "Glasgow", "post_town": "Glasgow", "postcode": "G21 2DU"}, "name": "The Budgie", "related_places": {}, "timezone": "Europe/London"}, {"fsq_id": "4bc77c3f8b7c9c74008c36cf", "categories": [{"id": 13018, "name": "Pub", "short_name": "Pub", "plural_name": "Pubs", "icon": {"prefix": "https://ss3.4sqi.net/img/categories_v2/nightlife/pub_", "suffix": ".png"}}], "chains": [], "closed_bucket": "LikelyOpen", "distance": 918, "geocodes": {"main": {"latitude": 55.858516, "longitude": -4.213815}, "roof": {"latitude": 55.858516, "longitude": -4.213815}}, "link": "/v3/places/4bc77c3f8b7c9c74008c36cf", "location": {"address": "631 Duke St", "admin_region": "Scotland", "country": "GB", "cross_street": "", "formatted_address": "631 Duke St, Glasgow, Glasgow City, G31 1QA", "locality": "Glasgow", "post_town": "Glasgow", "postcode": "G31 1QA", "region": "Glasgow City"}, "name": "Duke Bar", "related_places": {}, "timezone": "Europe/London"}, {"fsq_id": "607c0d1b8212a7179a5a51c6", "categories": [{"id": 13002, "name": "Bakery", "short_name": "Bakery", "plural_name": "Bakeries", "icon": {"prefix": "https://ss3.4sqi.net/img/categories_v2/food/bakery_", "suffix": ".png"}}, {"id": 13065, "name": "Restaurant", "short_name": "Restaurant", "plural_name": "Restaurants", "icon": {"prefix": "https://ss3.4sqi.net/img/categories_v2/food/default_", "suffix": ".png"}}], "chains": [], "closed_bucket": "Unsure", "distance": 949, "geocodes": {"drop_off": {"latitude": 55.862549, "longitude": -4.208547}, "main": {"latitude": 55.862398, "longitude": -4.208501}, "roof": {"latitude": 55.862398, "longitude": -4.208501}}, "link": "/v3/places/607c0d1b8212a7179a5a51c6", "location": {"address": "276 Cumbernauld Rd", "admin_region": "Scotland", "country": "GB", "cross_street": "", "formatted_address": "276 Cumbernauld Rd, Glasgow, Glasgow City, G31 2UL", "locality": "Glasgow", "post_town": "Glasgow", "postcode": "G31 2UL", "region": "Glasgow City"}, "name": "Full Circle Bakes", "related_places": {}, "timezone": "Europe/London"}, {"fsq_id": "4f521259e4b092980d6b21df", "categories": [{"id": 13018, "name": "Pub", "short_name": "Pub", "plural_name": "Pubs", "icon": {"prefix": "https://ss3.4sqi.net/img/categories_v2/nightlife/pub_", "suffix": ".png"}}], "chains": [], "closed_bucket": "VeryLikelyOpen", "distance": 967, "geocodes": {"drop_off": {"latitude": 55.858323, "longitude": -4.212501}, "main": {"latitude": 55.858169, "longitude": -4.212509}, "roof": {"latitude": 55.858169, "longitude": -4.212509}}, "link": "/v3/places/4f521259e4b092980d6b21df", "location": {"country": "GB", "cross_street": "", "formatted_address": ""}, "name": "Louden Tavern Limited", "related_places": {}, "timezone": "Europe/London"}, {"fsq_id": "54cc03c4498e6d15ecaa6007", "categories": [{"id": 13057, "name": "Gastropub", "short_name": "Gastropub", "plural_name": "Gastropubs", "icon": {"prefix": "https://ss3.4sqi.net/img/categories_v2/food/gastropub_", "suffix": ".png"}}], "chains": [], "closed_bucket": "VeryLikelyOpen", "distance": 968, "geocodes": {"main": {"latitude": 55.862069, "longitude": -4.238479}, "roof": {"latitude": 55.862069, "longitude": -4.238479}}, "link": "/v3/places/54cc03c4498e6d15ecaa6007", "location": {"country": "GB", "cross_street": "", "formatted_address": "", "post_town": "Glasgow"}, "name": "West Brewery Glasgow Green", "related_places": {}, "timezone": "Europe/London"}, {"fsq_id": "54c27d71b0824fd75fd1b16f", "categories": [{"id": 13034, "name": "Caf\u00e9", "short_name": "Caf\u00e9", "plural_name": "Caf\u00e9s", "icon": {"prefix": "https://ss3.4sqi.net/img/categories_v2/food/cafe_", "suffix": ".png"}}, {"id": 13065, "name": "Restaurant", "short_name": "Restaurant", "plural_name": "Restaurants", "icon": {"prefix": "https://ss3.4sqi.net/img/categories_v2/food/default_", "suffix": ".png"}}], "chains": [], "closed_bucket": "LikelyOpen", "distance": 673, "geocodes": {"drop_off": {"latitude": 55.864631, "longitude": -4.212434}, "main": {"latitude": 55.864757, "longitude": -4.212423}, "roof": {"latitude": 55.864757, "longitude": -4.212423}}, "link": "/v3/places/54c27d71b0824fd75fd1b16f", "location": {"address": "110 Roebank St", "country": "GB", "formatted_address": "110 Roebank St, Glasgow", "locality": "Glasgow", "post_town": "Glasgow"}, "name": "Millie's Cafe", "related_places": {}}, {"fsq_id": "93668994a4f3402dddfd9a96", "categories": [{"id": 13051, "name": "Fish and Chips Shop", "short_name": "Fish and Chips Shop", "plural_name": "Fish and Chips Shops", "icon": {"prefix": "https://ss3.4sqi.net/img/categories_v2/food/fishandchips_", "suffix": ".png"}}], "chains": [], "closed_bucket": "LikelyOpen", "distance": 695, "geocodes": {"drop_off": {"latitude": 55.858713, "longitude": -4.219154}, "main": {"latitude": 55.858705, "longitude": -4.218865}, "roof": {"latitude": 55.858705, "longitude": -4.218865}}, "link": "/v3/places/93668994a4f3402dddfd9a96", "location": {"address": "6 Whitehill St", "admin_region": "Scotland", "country": "GB", "formatted_address": "6 Whitehill St, Glasgow, G31 2LJ", "locality": "Glasgow", "post_town": "Glasgow", "postcode": "G31 2LJ"}, "name": "Coias 2", "related_places": {}}, {"fsq_id": "4b2cfd8b80606aee2d73a34b", "categories": [{"id": 13035, "name": "Coffee Shop", "short_name": "Coffee Shop", "plural_name": "Coffee Shops", "icon": {"prefix": "https://ss3.4sqi.net/img/categories_v2/food/coffeeshop_", "suffix": ".png"}}, {"id": 13145, "name": "Fast Food Restaurant", "short_name": "Fast Food", "plural_name": "Fast Food Restaurants", "icon": {"prefix": "https://ss3.4sqi.net/img/categories_v2/food/fastfood_", "suffix": ".png"}}], "chains": [], "closed_bucket": "LikelyOpen", "distance": 729, "geocodes": {"drop_off": {"latitude": 55.858099, "longitude": -4.221906}, "main": {"latitude": 55.857968, "longitude": -4.221646}, "roof": {"latitude": 55.857968, "longitude": -4.221646}}, "link": "/v3/places/4b2cfd8b80606aee2d73a34b", "location": {"address": "172 Sword St", "admin_region": "Scotland", "country": "GB", "formatted_address": "172 Sword St, Glasgow, G31 1SE", "locality": "Glasgow", "post_town": "Glasgow", "postcode": "G31 1SE"}, "name": "Munchies Cafe Sword Street", "related_places": {}}, {"fsq_id": "6fc932bff3d64b8af937ce26", "categories": [{"id": 13099, "name": "Chinese Restaurant", "short_name": "Chinese", "plural_name": "Chinese Restaurants", "icon": {"prefix": "https://ss3.4sqi.net/img/categories_v2/food/asian_", "suffix": ".png"}}], "chains": [], "closed_bucket": "Unsure", "distance": 746, "geocodes": {"main": {"latitude": 55.86991, "longitude": -4.230234}, "roof": {"latitude": 55.86991, "longitude": -4.230234}}, "link": "/v3/places/6fc932bff3d64b8af937ce26", "location": {"address": "90-92 Royston Rd", "admin_region": "Scotland", "country": "GB", "formatted_address": "90-92 Royston Rd, Glasgow, G21 2NT", "locality": "Glasgow", "post_town": "Glasgow", "postcode": "G21 2NT"}, "name": "Poasang Chinese Take Away", "related_places": {}}, {"fsq_id": "b446f4d6e08a4818b9d2cb34", "categories": [{"id": 13051, "name": "Fish and Chips Shop", "short_name": "Fish and Chips Shop", "plural_name": "Fish and Chips Shops", "icon": {"prefix": "https://ss3.4sqi.net/img/categories_v2/food/fishandchips_", "suffix": ".png"}}], "chains": [], "closed_bucket": "Unsure", "distance": 787, "geocodes": {"main": {"latitude": 55.858344, "longitude": -4.216858}, "roof": {"latitude": 55.858344, "longitude": -4.216858}}, "link": "/v3/places/b446f4d6e08a4818b9d2cb34", "location": {"address": "416 Duke St", "admin_region": "Scotland", "country": "GB", "formatted_address": "416 Duke St, Glasgow, G31 1PX", "locality": "Glasgow", "post_town": "Glasgow", "postcode": "G31 1PX"}, "name": "Claudio's", "related_places": {}}], "context": {"geo_bounds": {"circle": {"center": {"latitude": 55.864472, "longitude": -4.223208}, "radius": 1000}}}}