{"results": [{"fsq_id": "55214a32498e62c5cbccbec2", "categories": [{"id": 13034, "name": "Caf\u00e9", "short_name": "Caf\u00e9", "plural_name": "Caf\u00e9s", "icon": {"prefix": "https://ss3.4sqi.net/img/categories_v2/food/cafe_", "suffix": ".png"}}, {"id": 13065, "name": "Restaurant", "short_name": "Restaurant", "plural_name": "Restaurants", "icon": {"prefix": "https://ss3.4sqi.net/img/categories_v2/food/default_", "suffix": ".png"}}], "chains": [], "closed_bucket": "LikelyOpen", "distance": 792, "geocodes": {"main": {"latitude": 55.877399, "longitude": -4.321498}, "roof": {"latitude": 55.877399, "longitude": -4.321498}}, "link": "/v3/places/55214a32498e62c5cbccbec2", "location": {"address": "300 Crow Rd", "admin_region": "Scotland", "country": "GB", "cross_street": "", "formatted_address": "300 Crow Rd, Glasgow, G11 7HS", "locality": "Glasgow", "post_town": "Glasgow", "postcode": "G11 7HS"}, "name": "Kothel", "related_places": {}, "timezone": "Europe/London"}, {"fsq_id": "4e2db6c618387cce068bd7ac", "categories": [{"id": 13338, "name": "Seafood Restaurant", "short_name": "Seafood", "plural_name": "Seafood Restaurants", "icon": {"prefix": "https://ss3.4sqi.net/img/categories_v2/food/seafood_", "suffix": ".png"}}], "chains": [], "closed_bucket": "LikelyOpen", "distance": 770, "geocodes": {"main": {"latitude": 55.878078, "longitude": -4.322501}, "roof": {"latitude": 55.878078, "longitude": -4.322501}}, "link": "/v3/places/4e2db6c618387cce068bd7ac", "location": {"address": "340 Crow Rd", "admin_region": "Scotland", "country": "GB", "formatted_address": "340 Crow Rd, Glasgow, Glasgow City, G11 7HT", "locality": "Glasgow", "post_town": "Glasgow", "postcode": "G11 7HT", "region": "Glasgow City"}, "name": "Wee Lochan", "related_places": {}, "timezone": "Europe/London"}, {"fsq_id": "4bd595d2cfa7b7135afd25da", "categories": [{"id": 13034, "name": "Caf\u00e9", "short_name": "Caf\u00e9", "plural_name": "Caf\u00e9s", "icon": {"prefix": "https://ss3.4sqi.net/img/categories_v2/food/cafe_", "suffix": ".png"}}, {"id": 13035, "name": "Coffee Shop", "short_name": "Coffee Shop", "plural_name": "Coffee Shops", "icon": {"prefix": "https://ss3.4sqi.net/img/categories_v2/food/coffeeshop_", "suffix": ".png"}}, {"id": 13145, "name": "Fast Food Restaurant", "short_name": "Fast Food", "plural_name": "Fast Food Restaurants", "icon": {"prefix": "https://ss3.4sqi.net/img/categories_v2/food/fastfood_", "suffix": ".png"}}], "chains": [], "closed_bucket": "VeryLikelyOpen", "distance": 793, "geocodes": {"main": {"latitude": 55.87769, "longitude": -4.321928}, "roof": {"latitude": 55.87769, "longitude": -4.321928}}, "link": "/v3/places/4bd595d2cfa7b7135afd25da", "location": {"address": "322 Crow Rd", "admin_region": "Scotland", "country": "GB", "cross_street": "", "formatted_address": "322 Crow Rd, Glasgow, Glasgow City, G11 7HS", "locality": "Glasgow", "post_town": "Glasgow", "postcode": "G11 7HS", "region": "Glasgow City"}, "name": "Cafe Circa", "related_places": {}, "timezone": "Europe/London"}, {"fsq_id": "4c4ae1b5f7b49c745dc2fbc1", "categories": [{"id": 13018, "name": "Pub", "short_name": "Pub", "plural_name": "Pubs", "icon": {"prefix": "https://ss3.4sqi.net/img/categories_v2/nightlife/pub_", "suffix": ".png"}}, {"id": 13065, "name": "Restaurant", "short_name": "Restaurant", "plural_name": "Restaurants", "icon": {"prefix": "https://ss3.4sqi.net/img/categories_v2/food/default_", "suffix": ".png"}}], "chains": [], "closed_bucket": "LikelyOpen", "distance": 862, "geocodes": {"main": {"latitude": 55.882133, "longitude": -4.327119}, "roof": {"latitude": 55.882133, "longitude": -4.327119}}, "link": "/v3/places/4c4ae1b5f7b49c745dc2fbc1", "location": {"address": "501 Crow Rd", "admin_region": "Scotland", "country": "GB", "cross_street": "", "formatted_address": "501 Crow Rd, Glasgow, Glasgow City, G11 7DN", "locality": "Glasgow", "post_town": "Glasgow", "postcode": "G11 7DN", "region": "Glasgow City"}, "name": "The Three Craws", "related_places": {}, "timezone": "Europe/London"}, {"fsq_id": "4c5c50a72815c92813b2b167", "categories": [{"id": 13199, "name": "Indian Restaurant", "short_name": "Indian", "plural_name": "Indian Restaurants", "icon": {"prefix": "https://ss3.4sqi.net/img/categories_v2/food/indian_", "suffix": ".png"}}], "chains": [], "closed_bucket": "VeryLikelyOpen", "distance": 217, "geocodes": {"main": {"latitude": 55.872948, "longitude": -4.331105}, "roof": {"latitude": 55.872948, "longitude": -4.331105}}, "link": "/v3/places/4c5c50a72815c92813b2b167", "location": {"address": "1010 Dumbarton Rd", "admin_region": "Scotland", "country": "GB", "cross_street": "", "formatted_address": "1010 Dumbarton Rd, Glasgow, G14 9UJ", "locality": "Glasgow", "post_town": "Glasgow", "postcode": "G14 9UJ"}, "name": "Punjabi Fusion", "related_places": {}, "timezone": "Europe/London"}, {"fsq_id": "cf6b38af11564b86cfa29752", "categories": [{"id": 13036, "name": "Tea Room", "short_name": "Tea Room", "plural_name": "Tea Rooms", "icon": {"prefix": "https://ss3.4sqi.net/img/categories_v2/food/tearoom_", "suffix": ".png"}}, {"id": 13145, "name": "Fast Food Restaurant", "short_name": "Fast Food", "plural_name": "Fast Food Restaurants", "icon": {"prefix": "https://ss3.4sqi.net/img/categories_v2/food/fastfood_", "suffix": ".png"}}], "chains": [], "closed_bucket": "Unsure", "distance": 225, "geocodes": {"drop_off": {"latitude": 55.873029, "longitude": -4.336459}, "main": {"latitude": 55.873435, "longitude": -4.336381}, "roof": {"latitude": 55.873435, "longitude": -4.336381}}, "link": "/v3/places/cf6b38af11564b86cfa29752", "location": {"address": "1 Northinch Ct", "admin_region": "Scotland", "country": "GB", "formatted_address": "1 Northinch Ct, Glasgow, Glasgow City", "locality": "Glasgow", "post_town": "Glasgow", "region": "Glasgow City"}, "name": "Teapots Cafe", "related_places": {}, "timezone": "Europe/London"}, {"fsq_id": "575000c0498e01cd20e0afb5", "categories": [{"id": 13065, "name": "Restaurant", "short_name": "Restaurant", "plural_name": "Restaurants", "icon": {"prefix": "https://ss3.4sqi.net/img/categories_v2/food/default_", "suffix": ".png"}}], "chains": [], "closed_bucket": "LikelyOpen", "distance": 383, "geocodes": {"drop_off": {"latitude": 55.871376, "longitude": -4.333779}, "main": {"latitude": 55.871159, "longitude": -4.333818}, "roof": {"latitude": 55.871159, "longitude": -4.333818}}, "link": "/v3/places/575000c0498e01cd20e0afb5", "location": {"address": "South St", "country": "GB", "cross_street": "", "formatted_address": "South St, Glasgow, Glasgow City", "locality": "Glasgow", "post_town": "Glasgow", "region": "Glasgow City"}, "name": "Golden Grill", "related_places": {}, "timezone": "Europe/London"}, {"fsq_id": "5947b37da4236221ad0feb15", "categories": [{"id": 13051, "name": "Fish and Chips Shop", "short_name": "Fish and Chips Shop", "plural_name": "Fish and Chips Shops", "icon": {"prefix": "https://ss3.4sqi.net/img/categories_v2/food/fishandchips_", "suffix": ".png"}}, {"id": 13145, "name": "Fast Food Restaurant", "short_name": "Fast Food", "plural_name": "Fast Food Restaurants", "icon": {"prefix": "https://ss3.4sqi.net/img/categories_v2/food/fastfood_", "suffix": ".png"}}], "chains": [], "closed_bucket": "Unsure", "distance": 389, "geocodes": {"main": {"latitude": 55.874662, "longitude": -4.339786}, "roof": {"latitude": 55.874662, "longitude": -4.339786}}, "link": "/v3/places/5947b37da4236221ad0feb15", "location": {"address": "1050 Dumbarton Rd, Dumbarton Rd", "admin_region": "Scotland", "country": "GB", "cross_street": "", "formatted_address": "1050 Dumbarton Rd, Dumbarton Rd, Glasgow, Glasgow City, G14 9PU", "locality": "Glasgow", "post_town": "Glasgow", "postcode": "G14 9PU", "region": "Glasgow City"}, "name": "Sumerians", "related_places": {}, "timezone": "Europe/London"}, {"fsq_id": "4e65ddcc1f6ef7d07c25997a", "categories": [{"id": 13034, "name": "Caf\u00e9", "short_name": "Caf\u00e9", "plural_name": "Caf\u00e9s", "icon": {"prefix": "https://ss3.4sqi.net/img/categories_v2/food/cafe_", "suffix": ".png"}}, {"id": 13065, "name": "Restaurant", "short_name": "Restaurant", "plural_name": "Restaurants", "icon": {"prefix": "https://ss3.4sqi.net/img/categories_v2/food/default_", "suffix": ".png"}}], "chains": [], "closed_bucket": "VeryLikelyOpen", "distance": 389, "geocodes": {"drop_off": {"latitude": 55.872348, "longitude": -4.32868}, "main": {"latitude": 55.872244, "longitude": -4.328698}, "roof": {"latitude": 55.872244, "longitude": -4.328698}}, "link": "/v3/places/4e65ddcc1f6ef7d07c25997a", "location": {"address": "935 Dumbarton Rd", "admin_region": "Scotland", "country": "GB", "cross_street": "", "formatted_address": "935 Dumbarton Rd, Glasgow, Glasgow City", "locality": "Glasgow", "post_town": "Glasgow", "region": "Glasgow City"}, "name": "How We Roll", "related_places": {}, "timezone": "Europe/London"}, {"fsq_id": "840e5184cbf6441c112380e6", "categories": [{"id": 13051, "name": "Fish and Chips Shop", "short_name": "Fish and Chips Shop", "plural_name": "Fish and Chips Shops", "icon": {"prefix": "https://ss3.4sqi.net/img/categories_v2/food/fishandchips_", "suffix": ".png"}}], "chains": [], "closed_bucket": "LikelyOpen", "distance": 394, "geocodes": {"main": {"latitude": 55.874668, "longitude": -4.339681}, "roof": {"latitude": 55.874668, "longitude": -4.339681}}, "link": "/v3/places/840e5184cbf6441c112380e6", "location": {"address": "1255 Dumbarton Rd", "admin_region": "Scotland", "country": "GB", "formatted_address": "1255 Dumbarton Rd, Glasgow, G14 9UU", "locality": "Glasgow", "post_town": "Glasgow", "postcode": "G14 9UU"}, "name": "Sumerians Fish & Chicken Bar", "related_places": {}, "timezone": "Europe/London"}, {"fsq_id": "529dd1aa11d20cb767e437be", "categories": [{"id": 13145, "name": "Fast Food Restaurant", "short_name": "Fast Food", "plural_name": "Fast Food Restaurants", "icon": {"prefix": "https://ss3.4sqi.net/img/categories_v2/food/fastfood_", "suffix": ".png"}}, {"id": 13334, "name": "Sandwich Spot", "short_name": "Sandwich Spot", "plural_name": "Sandwich Spots", "icon": {"prefix": "https://ss3.4sqi.net/img/categories_v2/food/deli_", "suffix": ".png"}}], "chains": [], "closed_bucket": "LikelyOpen", "distance": 511, "geocodes": {"main": {"latitude": 55.871812, "longitude": -4.327036}, "roof": {"latitude": 55.871812, "longitude": -4.327036}}, "link": "/v3/places/529dd1aa11d20cb767e437be", "location": {"address": "781-783 Dumbarton Rd", "admin_region": "Scotland", "country": "GB", "cross_street": "", "formatted_address": "781-783 Dumbarton Rd, Glasgow, G11 6NA", "locality": "Glasgow", "post_town": "Glasgow", "postcode": "G11 6NA"}, "name": "Panini Express", "related_places": {}, "timezone": "Europe/London"}, {"fsq_id": "4e9eb621b6340e3e34ac1281", "categories": [{"id": 13072, "name": "Asian Restaurant", "short_name": "Asian", "plural_name": "Asian Restaurants", "icon": {"prefix": "https://ss3.4sqi.net/img/categories_v2/food/asian_", "suffix": ".png"}}], "chains": [], "closed_bucket": "VeryLikelyOpen", "distance": 531, "geocodes": {"main": {"latitude": 55.876428, "longitude": -4.341141}, "roof": {"latitude": 55.876428, "longitude": -4.341141}}, "link": "/v3/places/4e9eb621b6340e3e34ac1281", "location": {"country": "GB", "cross_street": "", "formatted_address": "Glasgow, Glasgow City", "locality": "Glasgow", "post_town": "Glasgow", "region": "Glasgow City"}, "name": "Chelios", "related_places": {}, "timezone": "Europe/London"}, {"fsq_id": "54633e84498e94706d3eadb2", "categories": [{"id": 13027, "name": "Bistro", "short_name": "Bistro", "plural_name": "Bistros", "icon": {"prefix": "https://ss3.4sqi.net/img/categories_v2/food/default_", "suffix": ".png"}}], "chains": [], "closed_bucket": "VeryLikelyOpen", "distance": 558, "geocodes": {"main": {"latitude": 55.875683, "longitude": -4.324775}, "roof": {"latitude": 55.875683, "longitude": -4.324775}}, "link": "/v3/places/54633e84498e94706d3eadb2", "location": {"country": "GB", "cross_street": "", "formatted_address": ""}, "name": "Pomegranate Bistro", "related_places": {}, "timezone": "Europe/London"}, {"fsq_id": "59ba772cee628b65b319554e", "categories": [{"id": 13027, "name": "Bistro", "short_name": "Bistro", "plural_name": "Bistros", "icon": {"prefix": "https://ss3.4sqi.net/img/categories_v2/food/default_", "suffix": ".png"}}], "chains": [], "closed_bucket": "VeryLikelyOpen", "distance": 587, "geocodes": {"main": {"latitude": 55.876138, "longitude": -4.324193}, "roof": {"latitude": 55.876138, "longitude": -4.324193}}, "link": "/v3/places/59ba772cee628b65b319554e", "location": {"admin_region": "Scotland", "country": "GB", "cross_street": "", "formatted_address": "Glasgow, Glasgow City, G11 7BN", "locality": "Glasgow", "post_town": "Glasgow", "postcode": "G11 7BN", "region": "Glasgow City"}, "name": "The Square", "related_places": {}, "timezone": "Europe/London"}, {"fsq_id": "502636ade4b040ed52831f7d", "categories": [{"id": 13034, "name": "Caf\u00e9", "short_name": "Caf\u00e9", "plural_name": "Caf\u00e9s", "icon": {"prefix": "https://ss3.4sqi.net/img/categories_v2/food/cafe_", "suffix": ".png"}}, {"id": 13065, "name": "Restaurant", "short_name": "Restaurant", "plural_name": "Restaurants", "icon": {"prefix": "https://ss3.4sqi.net/img/categories_v2/food/default_", "suffix": ".png"}}], "chains": [], "closed_bucket": "VeryLikelyOpen", "distance": 594, "geocodes": {"main": {"latitude": 55.875962, "longitude": -4.324503}, "roof": {"latitude": 55.875962, "longitude": -4.324503}}, "link": "/v3/places/502636ade4b040ed52831f7d", "location": {"address": "Broomhill Shopping Centre 16 Norby Rd", "admin_region": "Scotland", "country": "GB", "cross_street": "", "formatted_address": "Broomhill Shopping Centre 16 Norby Rd, Glasgow, Glasgow City", "locality": "Glasgow", "post_town": "Glasgow", "region": "Glasgow City"}, "name": "Little Roma", "related_places": {}, "timezone": "Europe/London"}, {"fsq_id": "5595cbf15d01449367b1659e", "categories": [{"id": 13065, "name": "Restaurant", "short_name": "Restaurant", "plural_name": "Restaurants", "icon": {"prefix": "https://ss3.4sqi.net/img/categories_v2/food/default_", "suffix": ".png"}}], "chains": [], "closed_bucket": "LikelyOpen", "distance": 604, "geocodes": {"main": {"latitude": 55.876144, "longitude": -4.324088}, "roof": {"latitude": 55.876144, "longitude": -4.324088}}, "link": "/v3/places/5595cbf15d01449367b1659e", "location": {"address": "6 - 8 Norby Rd", "admin_region": "Scotland", "country": "GB", "formatted_address": "6 - 8 Norby Rd, Glasgow, Glasgow City, G11 7BN", "locality": "Glasgow", "post_town": "Glasgow", "postcode": "G11 7BN", "region": "Glasgow City"}, "name": "Burger Stakk", "related_places": {}, "timezone": "Europe/London"}, {"fsq_id": "56e5a477498eb3d19ccbf25e", "categories": [{"id": 13068, "name": "American Restaurant", "short_name": "American", "plural_name": "American Restaurants", "icon": {"prefix": "https://ss3.4sqi.net/img/categories_v2/food/default_", "suffix": ".png"}}], "chains": [], "closed_bucket": "LikelyOpen", "distance": 615, "geocodes": {"main": {"latitude": 55.876198, "longitude": -4.324055}, "roof": {"latitude": 55.876198, "longitude": -4.324055}}, "link": "/v3/places/56e5a477498eb3d19ccbf25e", "location": {"address": "16 Norby Rd", "admin_region": "Scotland", "country": "GB", "cross_street": "Broomhill Shopping Centre", "formatted_address": "16 Norby Rd (Broomhill Shopping Centre), Glasgow, G11 7BN", "locality": "Glasgow", "post_town": "Glasgow", "postcode": "G11 7BN"}, "name": "Po Boyz", "related_places": {}, "timezone": "Europe/London"}, {"fsq_id": "5a62109fda5ede79a333129f", "categories": [{"id": 13148, "name": "French Restaurant", "short_name": "French", "plural_name": "French Restaurants", "icon": {"prefix": "https://ss3.4sqi.net/img/categories_v2/food/french_", "suffix": ".png"}}, {"id": 13139, "name": "Eastern European Restaurant", "short_name": "Eastern European", "plural_name": "Eastern European Restaurants", "icon": {"prefix": "https://ss3.4sqi.net/img/categories_v2/food/default_", "suffix": ".png"}}], "chains": [], "closed_bucket": "VeryLikelyOpen", "distance": 620, "geocodes": {"main": {"latitude": 55.876204, "longitude": -4.32395}, "roof": {"latitude": 55.876204, "longitude": -4.32395}}, "link": "/v3/places/5a62109fda5ede79a333129f", "location": {"address": "6-8 Norby Rd", "admin_region": "Scotland", "country": "GB", "cross_street": "", "formatted_address": "6-8 Norby Rd, Glasgow, G11 7BN", "locality": "Glasgow", "post_town": "Glasgow", "postcode": "G11 7BN"}, "name": "The Square Bar & Restaurant", "related_places": {}, "timezone": "Europe/London"}, {"fsq_id": "fd6a516f755246ba45422891", "categories": [{"id": 13065, "name": "Restaurant", "short_name": "Restaurant", "plural_name": "Restaurants", "icon": {"prefix": "https://ss3.4sqi.net/img/categories_v2/food/default_", "suffix": ".png"}}], "chains": [], "closed_bucket": "VeryLikelyOpen", "distance": 622, "geocodes": {"main": {"latitude": 55.876204, "longitude": -4.32395}, "roof": {"latitude": 55.876204, "longitude": -4.32395}}, "link": "/v3/places/fd6a516f755246ba45422891", "location": {"address": "6-8 Norby Rd", "admin_region": "Scotland", "country": "GB", "formatted_address": "6-8 Norby Rd, Glasgow, Glasgow City, G11 7BN", "locality": "Glasgow", "post_town": "Glasgow", "postcode": "G11 7BN", "region": "Glasgow City"}, "name": "Sapore Di Italia Glasgow", "related_places": {}, "timezone": "Europe/London"}, {"fsq_id": "19775f18ad2b4c0c10f433ed", "categories": [{"id": 13145, "name": "Fast Food Restaurant", "short_name": "Fast Food", "plural_name": "Fast Food Restaurants", "icon": {"prefix": "https://ss3.4sqi.net/img/categories_v2/food/fastfood_", "suffix": ".png"}}], "chains": [], "closed_bucket": "VeryLikelyOpen", "distance": 631, "geocodes": {"main": {"latitude": 55.875834, "longitude": -4.343226}, "roof": {"latitude": 55.875834, "longitude": -4.343226}}, "link": "/v3/places/19775f18ad2b4c0c10f433ed", "location": {"address": "1351 Dumbarton Rd", "admin_region": "Scotland", "country": "GB", "formatted_address": "1351 Dumbarton Rd, Glasgow, G14 9UZ", "locality": "Glasgow", "post_town": "Glasgow", "postcode": "G14 9UZ"}, "name": "The Tuck Shop", "related_places": {}, "timezone": "Europe/London"}, {"fsq_id": "59f753961acf113e70a4fdc8", "categories": [{"id": 13145, "name": "Fast Food Restaurant", "short_name": "Fast Food", "plural_name": "Fast Food Restaurants", "icon": {"prefix": "https://ss3.4sqi.net/img/categories_v2/food/fastfood_", "suffix": ".png"}}, {"id": 13298, "name": "Lebanese Restaurant", "short_name": "Lebanese", "plural_name": "Lebanese Restaurants", "icon": {"prefix": "https://ss3.4sqi.net/img/categories_v2/food/middleeastern_", "suffix": ".png"}}], "chains": [], "closed_bucket": "Unsure", "distance": 648, "geocodes": {"main": {"latitude": 55.875925, "longitude": -4.343474}, "roof": {"latitude": 55.875925, "longitude": -4.343474}}, "link": "/v3/places/59f753961acf113e70a4fdc8", "location": {"address": "1363 Dumbarton Rd", "admin_region": "Scotland", "country": "GB", "cross_street": "", "formatted_address": "1363 Dumbarton Rd, Glasgow, Glasgow City, G14 9UZ", "locality": "Glasgow", "post_town": "Glasgow", "postcode": "G14 9UZ", "region": "Glasgow City"}, "name": "Lotus", "related_places": {}, "timezone": "Europe/London"}, {"fsq_id": "5e3d7c4674e3de0007eaa4ff", "categories": [{"id": 13032, "name": "Cafe, Coffee, and Tea House", "short_name": "Cafe, Coffee, and Tea House", "plural_name": "Cafes, Coffee, and Tea Houses", "icon": {"prefix": "https://ss3.4sqi.net/img/categories_v2/food/coffeeshop_", "suffix": ".png"}}, {"id": 13079, "name": "Brazilian Restaurant", "short_name": "Brazilian", "plural_name": "Brazilian Restaurants", "icon": {"prefix": "https://ss3.4sqi.net/img/categories_v2/food/argentinian_", "suffix": ".png"}}], "chains": [], "closed_bucket": "Unsure", "distance": 726, "geocodes": {"main": {"latitude": 55.876338, "longitude": -4.34454}, "roof": {"latitude": 55.876338, "longitude": -4.34454}}, "link": "/v3/places/5e3d7c4674e3de0007eaa4ff", "location": {"address": "1 Methil St", "admin_region": "Scotland", "country": "GB", "cross_street": "", "formatted_address": "1 Methil St, Glasgow, Glasgow City, G14 0AA", "locality": "Glasgow", "post_town": "Glasgow", "postcode": "G14 0AA", "region": "Glasgow City"}, "name": "Brazuca Cafe", "related_places": {}, "timezone": "Europe/London"}, {"fsq_id": "4d2210915c4ca1cd82baae3d", "categories": [{"id": 13099, "name": "Chinese Restaurant", "short_name": "Chinese", "plural_name": "Chinese Restaurants", "icon": {"prefix": "https://ss3.4sqi.net/img/categories_v2/food/asian_", "suffix": ".png"}}, {"id": 13145, "name": "Fast Food Restaurant", "short_name": "Fast Food", "plural_name": "Fast Food Restaurants", "icon": {"prefix": "https://ss3.4sqi.net/img/categories_v2/food/fastfood_", "suffix": ".png"}}], "chains": [], "closed_bucket": "LikelyOpen", "distance": 749, "geocodes": {"main": {"latitude": 55.876587, "longitude": -4.344793}, "roof": {"latitude": 55.876587, "longitude": -4.344793}}, "link": "/v3/places/4d2210915c4ca1cd82baae3d", "location": {"address": "1401 Dumbarton Rd", "admin_region": "Scotland", "country": "GB", "cross_street": "", "formatted_address": "1401 Dumbarton Rd, Glasgow, Glasgow City, G14 9XS", "locality": "Glasgow", "post_town": "Glasgow", "postcode": "G14 9XS", "region": "Glasgow City"}, "name": "Chinese Fortune", "related_places": {}, "timezone": "Europe/London"}, {"fsq_id": "e6fcb1a3d7c14135fcc9982f", "categories": [{"id": 13145, "name": "Fast Food Restaurant", "short_name": "Fast Food", "plural_name": "Fast Food Restaurants", "icon": {"prefix": "https://ss3.4sqi.net/img/categories_v2/food/fastfood_", "suffix": ".png"}}], "chains": [], "closed_bucket": "VeryLikelyOpen", "distance": 771, "geocodes": {"main": {"latitude": 55.876726, "longitude": -4.345113}, "roof": {"latitude": 55.876726, "longitude": -4.345113}}, "link": "/v3/places/e6fcb1a3d7c14135fcc9982f", "location": {"address": "1425 Dumbarton Rd", "admin_region": "Scotland", "country": "GB", "formatted_address": "1425 Dumbarton Rd, Glasgow, G14 9XS", "locality": "Glasgow", "post_town": "Glasgow", "postcode": "G14 9XS"}, "name": "Lunches", "related_places": {}, "timezone": "Europe/London"}, {"fsq_id": "59861212e1f0aa182cc0c494", "categories": [{"id": 13025, "name": "Wine Bar", "short_name": "Wine Bar", "plural_name": "Wine Bars", "icon": {"prefix": "https://ss3.4sqi.net/img/categories_v2/food/winery_", "suffix": ".png"}}, {"id": 13236, "name": "Italian Restaurant", "short_name": "Italian", "plural_name": "Italian Restaurants", "icon": {"prefix": "https://ss3.4sqi.net/img/categories_v2/food/italian_", "suffix": ".png"}}], "chains": [], "closed_bucket": "VeryLikelyOpen", "distance": 790, "geocodes": {"main": {"latitude": 55.875936, "longitude": -4.319453}, "roof": {"latitude": 55.875936, "longitude": -4.319453}}, "link": "/v3/places/59861212e1f0aa182cc0c494", "location": {"address": "240 Crow Rd", "admin_region": "Scotland", "country": "GB", "cross_street": "240 Crow Road", "formatted_address": "240 Crow Rd (240 Crow Road), Glasgow, Glasgow City, G11 7LA", "locality": "Glasgow", "post_town": "Glasgow", "postcode": "G11 7LA", "region": "Glasgow City"}, "name": "Pianola & Co", "related_places": {}, "timezone": "Europe/London"}, {"fsq_id": "6117a7c65231a53fb420ecc6", "categories": [{"id": 13003, "name": "Bar", "short_name": "Bar", "plural_name": "Bars", "icon": {"prefix": "https://ss3.4sqi.net/img/categories_v2/nightlife/pub_", "suffix": ".png"}}, {"id": 13034, "name": "Caf\u00e9", "short_name": "Caf\u00e9", "plural_name": "Caf\u00e9s", "icon": {"prefix": "https://ss3.4sqi.net/img/categories_v2/food/cafe_", "suffix": ".png"}}], "chains": [], "closed_bucket": "Unsure", "distance": 792, "geocodes": {"main": {"latitude": 55.871198, "longitude": -4.322143}, "roof": {"latitude": 55.871198, "longitude": -4.322143}}, "link": "/v3/places/6117a7c65231a53fb420ecc6", "location": {"address": "734 Dumbarton Rd", "admin_region": "Scotland", "country": "GB", "cross_street": "", "formatted_address": "734 Dumbarton Rd, Glasgow, Glasgow City, G11 6RD", "locality": "Glasgow", "post_town": "Glasgow", "postcode": "G11 6RD", "region": "Glasgow City"}, "name": "Broken Pony", "related_places": {}, "timezone": "Europe/London"}, {"fsq_id": "518e0b8c498e21b9a139fa8b", "categories": [{"id": 13039, "name": "Deli", "short_name": "Deli", "plural_name": "Delis", "icon": {"prefix": "https://ss3.4sqi.net/img/categories_v2/food/deli_", "suffix": ".png"}}], "chains": [], "closed_bucket": "LikelyOpen", "distance": 803, "geocodes": {"drop_off": {"latitude": 55.877371, "longitude": -4.321907}, "main": {"latitude": 55.877265, "longitude": -4.321985}, "roof": {"latitude": 55.877265, "longitude": -4.321985}}, "link": "/v3/places/518e0b8c498e21b9a139fa8b", "location": {"address": "305 Crow Rd", "admin_region": "Scotland", "country": "GB", "cross_street": "", "formatted_address": "305 Crow Rd, Glasgow, Glasgow City, G11 7BU", "locality": "Glasgow", "post_town": "Glasgow", "postcode": "G11 7BU", "region": "Glasgow City"}, "name": "Gray's Delicatessen", "related_places": {}, "timezone": "Europe/London"}, {"fsq_id": "eb32c4e6fd78435ff4e57eed", "categories": [{"id": 13065, "name": "Restaurant", "short_name": "Restaurant", "plural_name": "Restaurants", "icon": {"prefix": "https://ss3.4sqi.net/img/categories_v2/food/default_", "suffix": ".png"}}, {"id": 17041, "name": "Bridal Store", "short_name": "Bridal", "plural_name": "Bridal Stores", "icon": {"prefix": "https://ss3.4sqi.net/img/categories_v2/shops/bridal_", "suffix": ".png"}}], "chains": [], "closed_bucket": "VeryLikelyOpen", "distance": 836, "geocodes": {"drop_off": {"latitude": 55.879293, "longitude": -4.343612}, "main": {"latitude": 55.87945, "longitude": -4.343552}, "roof": {"latitude": 55.87945, "longitude": -4.343552}}, "link": "/v3/places/eb32c4e6fd78435ff4e57eed", "location": {"address": "Norse Rd", "admin_region": "Scotland", "country": "GB", "formatted_address": "Norse Rd, Glasgow, Glasgow City", "locality": "Glasgow", "post_town": "Glasgow", "region": "Glasgow City"}, "name": "Andrew Edmond - Pianist", "related_places": {}, "timezone": "Europe/London"}, {"fsq_id": "4e95db3282310e913f62c63b", "categories": [{"id": 13051, "name": "Fish and Chips Shop", "short_name": "Fish and Chips Shop", "plural_name": "Fish and Chips Shops", "icon": {"prefix": "https://ss3.4sqi.net/img/categories_v2/food/fishandchips_", "suffix": ".png"}}], "chains": [], "closed_bucket": "VeryLikelyOpen", "distance": 839, "geocodes": {"main": {"latitude": 55.873691, "longitude": -4.320013}, "roof": {"latitude": 55.873691, "longitude": -4.320013}}, "link": "/v3/places/4e95db3282310e913f62c63b", "location": {"country": "GB", "cross_street": "", "formatted_address": ""}, "name": "Harry's Fish & Chips", "related_places": {}, "timezone": "Europe/London"}, {"fsq_id": "4c13c0f6b7b9c9289414aa37", "categories": [{"id": 11053, "name": "Financial Planner", "short_name": "Financial Planner", "plural_name": "Financial Planners", "icon": {"prefix": "https://ss3.4sqi.net/img/categories_v2/building/default_", "suffix": ".png"}}, {"id": 13099, "name": "Chinese Restaurant", "short_name": "Chinese", "plural_name": "Chinese Restaurants", "icon": {"prefix": "https://ss3.4sqi.net/img/categories_v2/food/asian_", "suffix": ".png"}}, {"id": 13145, "name": "Fast Food Restaurant", "short_name": "Fast Food", "plural_name": "Fast Food Restaurants", "icon": {"prefix": "https://ss3.4sqi.net/img/categories_v2/food/fastfood_", "suffix": ".png"}}], "chains": [], "closed_bucket": "Unsure", "distance": 857, "geocodes": {"main": {"latitude": 55.880919, "longitude": -4.325327}, "roof": {"latitude": 55.880919, "longitude": -4.325327}}, "link": "/v3/places/4c13c0f6b7b9c9289414aa37", "location": {"address": "Crow Rd", "admin_region": "Scotland", "country": "GB", "cross_street": "", "formatted_address": "Crow Rd, Glasgow, Glasgow City", "locality": "Glasgow", "post_town": "Glasgow", "region": "Glasgow City"}, "name": "Blue Sky", "related_places": {}, "timezone": "Europe/London"}, {"fsq_id": "4f0ac904e4b0ef60efe0e848", "categories": [{"id": 13034, "name": "Caf\u00e9", "short_name": "Caf\u00e9", "plural_name": "Caf\u00e9s", "icon": {"prefix": "https://ss3.4sqi.net/img/categories_v2/food/cafe_", "suffix": ".png"}}, {"id": 13035, "name": "Coffee Shop", "short_name": "Coffee Shop", "plural_name": "Coffee Shops", "icon": {"prefix": "https://ss3.4sqi.net/img/categories_v2/food/coffeeshop_", "suffix": ".png"}}, {"id": 13236, "name": "Italian Restaurant", "short_name": "Italian", "plural_name": "Italian Restaurants", "icon": {"prefix": "https://ss3.4sqi.net/img/categories_v2/food/italian_", "suffix": ".png"}}], "chains": [], "closed_bucket": "VeryLikelyOpen", "distance": 863, "geocodes": {"main": {"latitude": 55.881411, "longitude": -4.325939}, "roof": {"latitude": 55.881411, "longitude": -4.325939}}, "link": "/v3/places/4f0ac904e4b0ef60efe0e848", "location": {"address": "Crow Rd", "admin_region": "Scotland", "country": "GB", "cross_street": "", "formatted_address": "Crow Rd, Jordanhill, Glasgow City, G11 7DR", "locality": "Jordanhill", "post_town": "Glasgow", "postcode": "G11 7DR", "region": "Glasgow City"}, "name": "Cafe Di Sorrento", "related_places": {}, "timezone": "Europe/London"}, {"fsq_id": "2dd17e751ad94b9584161442", "categories": [{"id": 13034, "name": "Caf\u00e9", "short_name": "Caf\u00e9", "plural_name": "Caf\u00e9s", "icon": {"prefix": "https://ss3.4sqi.net/img/categories_v2/food/cafe_", "suffix": ".png"}}, {"id": 13065, "name": "Restaurant", "short_name": "Restaurant", "plural_name": "Restaurants", "icon": {"prefix": "https://ss3.4sqi.net/img/categories_v2/food/default_", "suffix": ".png"}}], "chains": [], "closed_bucket": "Unsure", "distance": 866, "geocodes": {"main": {"latitude": 55.875559, "longitude": -4.319581}, "roof": {"latitude": 55.875559, "longitude": -4.319581}}, "link": "/v3/places/2dd17e751ad94b9584161442", "location": {"address": "231 Crow Rd", "admin_region": "Scotland", "country": "GB", "formatted_address": "231 Crow Rd, Glasgow, G11 7PZ", "locality": "Glasgow", "post_town": "Glasgow", "postcode": "G11 7PZ"}, "name": "Deli 1901", "related_places": {}, "timezone": "Europe/London"}, {"fsq_id": "6099a89a11da3c06ff5190a6", "categories": [{"id": 13148, "name": "French Restaurant", "short_name": "French", "plural_name": "French Restaurants", "icon": {"prefix": "https://ss3.4sqi.net/img/categories_v2/food/french_", "suffix": ".png"}}], "chains": [], "closed_bucket": "VeryLikelyOpen", "distance": 888, "geocodes": {"main": {"latitude": 55.875936, "longitude": -4.319453}, "roof": {"latitude": 55.875936, "longitude": -4.319453}}, "link": "/v3/places/6099a89a11da3c06ff5190a6", "location": {"admin_region": "Scotland", "country": "GB", "cross_street": "", "formatted_address": "Glasgow, Glasgow City, G11 7LA", "locality": "Glasgow", "post_town": "Glasgow", "postcode": "G11 7LA", "region": "Glasgow City"}, "name": "Wee Paree", "related_places": {}, "timezone": "Europe/London"}, {"fsq_id": "63f8a4cb4aa3dd22e714bf8a", "categories": [{"id": 13031, "name": "Burger Joint", "short_name": "Burgers", "plural_name": "Burger Joints", "icon": {"prefix": "https://ss3.4sqi.net/img/categories_v2/food/burger_", "suffix": ".png"}}, {"id": 13145, "name": "Fast Food Restaurant", "short_name": "Fast Food", "plural_name": "Fast Food Restaurants", "icon": {"prefix": "https://ss3.4sqi.net/img/categories_v2/food/fastfood_", "suffix": ".png"}}], "chains": [{"id": "ab4a9b10-d68a-012e-5619-003048cad9da", "name": "Burger King"}], "closed_bucket": "VeryLikelyOpen", "distance": 890, "geocodes": {"drop_off": {"latitude": 55.87053, "longitude": -4.321701}, "main": {"latitude": 55.870215, "longitude": -4.321831}, "roof": {"latitude": 55.870215, "longitude": -4.321831}}, "link": "/v3/places/63f8a4cb4aa3dd22e714bf8a", "location": {"address": "Clydeside Expressway", "country": "GB", "cross_street": "", "formatted_address": "Clydeside Expressway, Glasgow, Glasgow City", "locality": "Glasgow", "post_town": "Glasgow", "region": "Glasgow City"}, "name": "Burger King", "related_places": {}, "timezone": "Europe/London"}, {"fsq_id": "4fcd0dcde4b03a5761a21a0a", "categories": [{"id": 13051, "name": "Fish and Chips Shop", "short_name": "Fish and Chips Shop", "plural_name": "Fish and Chips Shops", "icon": {"prefix": "https://ss3.4sqi.net/img/categories_v2/food/fishandchips_", "suffix": ".png"}}, {"id": 13145, "name": "Fast Food Restaurant", "short_name": "Fast Food", "plural_name": "Fast Food Restaurants", "icon": {"prefix": "https://ss3.4sqi.net/img/categories_v2/food/fastfood_", "suffix": ".png"}}, {"id": 13199, "name": "Indian Restaurant", "short_name": "Indian", "plural_name": "Indian Restaurants", "icon": {"prefix": "https://ss3.4sqi.net/img/categories_v2/food/indian_", "suffix": ".png"}}], "chains": [], "closed_bucket": "LikelyOpen", "distance": 892, "geocodes": {"main": {"latitude": 55.871003, "longitude": -4.320945}, "roof": {"latitude": 55.871003, "longitude": -4.320945}}, "link": "/v3/places/4fcd0dcde4b03a5761a21a0a", "location": {"address": "692 Dumbarton Rd", "admin_region": "Scotland", "country": "GB", "cross_street": "", "formatted_address": "692 Dumbarton Rd, Glasgow, G11 6RB", "locality": "Glasgow", "post_town": "Glasgow", "postcode": "G11 6RB"}, "name": "Ceqwa", "related_places": {}, "timezone": "Europe/London"}, {"fsq_id": "5bb89aaacd441c002cd35e60", "categories": [{"id": 13034, "name": "Caf\u00e9", "short_name": "Caf\u00e9", "plural_name": "Caf\u00e9s", "icon": {"prefix": "https://ss3.4sqi.net/img/categories_v2/food/cafe_", "suffix": ".png"}}, {"id": 13035, "name": "Coffee Shop", "short_name": "Coffee Shop", "plural_name": "Coffee Shops", "icon": {"prefix": "https://ss3.4sqi.net/img/categories_v2/food/coffeeshop_", "suffix": ".png"}}, {"id": 13236, "name": "Italian Restaurant", "short_name": "Italian", "plural_name": "Italian Restaurants", "icon": {"prefix": "https://ss3.4sqi.net/img/categories_v2/food/italian_", "suffix": ".png"}}], "chains": [], "closed_bucket": "LikelyOpen", "distance": 913, "geocodes": {"main": {"latitude": 55.881411, "longitude": -4.325939}, "roof": {"latitude": 55.881411, "longitude": -4.325939}}, "link": "/v3/places/5bb89aaacd441c002cd35e60", "location": {"address": "470 Crow Rd", "admin_region": "Scotland", "country": "GB", "cross_street": "", "formatted_address": "470 Crow Rd, Glasgow, Glasgow City, G11 7DR", "locality": "Glasgow", "post_town": "Glasgow", "postcode": "G11 7DR", "region": "Glasgow City"}, "name": "Caffe Pieno", "related_places": {}, "timezone": "Europe/London"}, {"fsq_id": "50fac6d1e4b0c3b20b350688", "categories": [{"id": 13022, "name": "Sports Bar", "short_name": "Sports Bar", "plural_name": "Sports Bars", "icon": {"prefix": "https://ss3.4sqi.net/img/categories_v2/nightlife/sportsbar_", "suffix": ".png"}}], "chains": [], "closed_bucket": "VeryLikelyOpen", "distance": 926, "geocodes": {"main": {"latitude": 55.881646, "longitude": -4.341098}, "roof": {"latitude": 55.881646, "longitude": -4.341098}}, "link": "/v3/places/50fac6d1e4b0c3b20b350688", "location": {"address": "112 Danes Dr", "admin_region": "Scotland", "country": "GB", "cross_street": "", "formatted_address": "112 Danes Dr, Glasgow, Glasgow City, G14 9HD", "locality": "Glasgow", "post_town": "Glasgow", "postcode": "G14 9HD", "region": "Glasgow City"}, "name": "The Clubhouse", "related_places": {"parent": {"fsq_id": "4c41add6cc410f471880ab61", "categories": [{"id": 10051, "name": "Stadium", "short_name": "Stadium", "plural_name": "Stadiums", "icon": {"prefix": "https://ss3.4sqi.net/img/categories_v2/arts_entertainment/stadium_", "suffix": ".png"}}, {"id": 18021, "name": "Gym and Studio", "short_name": "Gym and Studio", "plural_name": "Gym and Studios", "icon": {"prefix": "https://ss3.4sqi.net/img/categories_v2/building/gym_", "suffix": ".png"}}, {"id": 18050, "name": "Rugby Pitch", "short_name": "Pitch", "plural_name": "Rugby Pitches", "icon": {"prefix": "https://ss3.4sqi.net/img/categories_v2/arts_entertainment/stadium_football_", "suffix": ".png"}}], "name": "Scotstoun Stadium"}}, "timezone": "Europe/London"}, {"fsq_id": "4d6af34cc147721e68363cf5", "categories": [{"id": 13018, "name": "Pub", "short_name": "Pub", "plural_name": "Pubs", "icon": {"prefix": "https://ss3.4sqi.net/img/categories_v2/nightlife/pub_", "suffix": ".png"}}], "chains": [], "closed_bucket": "VeryLikelyOpen", "distance": 964, "geocodes": {"main": {"latitude": 55.871088, "longitude": -4.321298}, "roof": {"latitude": 55.871088, "longitude": -4.321298}}, "link": "/v3/places/4d6af34cc147721e68363cf5", "location": {"address": "724 Dumbarton Rd", "admin_region": "Scotland", "country": "GB", "cross_street": "Thornwood Drive", "formatted_address": "724 Dumbarton Rd (Thornwood Drive), Glasgow, G11 6RB", "locality": "Glasgow", "post_town": "Glasgow", "postcode": "G11 6RB"}, "name": "Thornwood", "related_places": {}, "timezone": "Europe/London"}, {"fsq_id": "baa9996038504b4a50056395", "categories": [{"id": 13064, "name": "Pizzeria", "short_name": "Pizza", "plural_name": "Pizzerias", "icon": {"prefix": "https://ss3.4sqi.net/img/categories_v2/food/pizza_", "suffix": ".png"}}, {"id": 13068, "name": "American Restaurant", "short_name": "American", "plural_name": "American Restaurants", "icon": {"prefix": "https://ss3.4sqi.net/img/categories_v2/food/default_", "suffix": ".png"}}, {"id": 13191, "name": "Halal Restaurant", "short_name": "Halal", "plural_name": "Halal Restaurants", "icon": {"prefix": "https://ss3.4sqi.net/img/categories_v2/food/halal_", "suffix": ".png"}}], "chains": [], "closed_bucket": "LikelyOpen", "distance": 442, "geocodes": {"drop_off": {"latitude": 55.872179, "longitude": -4.327763}, "main": {"latitude": 55.872086, "longitude": -4.327781}, "roof": {"latitude": 55.872086, "longitude": -4.327781}}, "link": "/v3/places/baa9996038504b4a50056395", "location": {"address": "911 Dumbarton Rd", "admin_region": "Scotland", "country": "GB", "formatted_address": "911 Dumbarton Rd, Glasgow, G11 6NB", "locality": "Glasgow", "post_town": "Glasgow", "postcode": "G11 6NB"}, "name": "Ninja Turtles Restaurant", "related_places": {}}, {"fsq_id": "367cd66c545f497662007985", "categories": [{"id": 13065, "name": "Restaurant", "short_name": "Restaurant", "plural_name": "Restaurants", "icon": {"prefix": "https://ss3.4sqi.net/img/categories_v2/food/default_", "suffix": ".png"}}], "chains": [], "closed_bucket": "LikelyOpen", "distance": 479, "geocodes": {"drop_off": {"latitude": 55.872078, "longitude": -4.327251}, "main": {"latitude": 55.871904, "longitude": -4.327285}, "roof": {"latitude": 55.871904, "longitude": -4.327285}}, "link": "/v3/places/367cd66c545f497662007985", "location": {"address": "781 - 783 Dumbarton Rd", "admin_region": "Scotland", "country": "GB", "formatted_address": "781 - 783 Dumbarton Rd, Glasgow", "locality": "Glasgow", "post_town": "Glasgow"}, "name": "The Big Belly Deli", "related_places": {}}, {"fsq_id": "c28e1da8910a4a5e4f44a82a", "categories": [{"id": 13032, "name": "Cafe, Coffee, and Tea House", "short_name": "Cafe, Coffee, and Tea House", "plural_name": "Cafes, Coffee, and Tea Houses", "icon": {"prefix": "https://ss3.4sqi.net/img/categories_v2/food/coffeeshop_", "suffix": ".png"}}, {"id": 13065, "name": "Restaurant", "short_name": "Restaurant", "plural_name": "Restaurants", "icon": {"prefix": "https://ss3.4sqi.net/img/categories_v2/food/default_", "suffix": ".png"}}], "chains": [], "closed_bucket": "Unsure", "distance": 516, "geocodes": {"main": {"latitude": 55.870572, "longitude": -4.337622}, "roof": {"latitude": 55.870572, "longitude": -4.337622}}, "link": "/v3/places/c28e1da8910a4a5e4f44a82a", "location": {"address": "150 Clydeholm Rd, Whiteinch", "admin_region": "Scotland", "country": "GB", "formatted_address": "150 Clydeholm Rd, Whiteinch, Glasgow, G14 0QQ", "locality": "Glasgow", "post_town": "Glasgow", "postcode": "G14 0QQ"}, "name": "Holm cafe", "related_places": {}}, {"fsq_id": "db920815dc554b0523969a91", "categories": [{"id": 13334, "name": "Sandwich Spot", "short_name": "Sandwich Spot", "plural_name": "Sandwich Spots", "icon": {"prefix": "https://ss3.4sqi.net/img/categories_v2/food/deli_", "suffix": ".png"}}], "chains": [], "closed_bucket": "Unsure", "distance": 771, "geocodes": {"drop_off": {"latitude": 55.876826, "longitude": -4.345073}, "main": {"latitude": 55.876726, "longitude": -4.345113}, "roof": {"latitude": 55.876726, "longitude": -4.345113}}, "link": "/v3/places/db920815dc554b0523969a91", "location": {"address": "1425 Dumbarton Rd", "admin_region": "Scotland", "country": "GB", "formatted_address": "1425 Dumbarton Rd, Glasgow, G14 9XS", "locality": "Glasgow", "post_town": "Glasgow", "postcode": "G14 9XS"}, "name": "Lexys Snack Shack", "related_places": {}}, {"fsq_id": "d76cb684891d421601604773", "categories": [{"id": 13034, "name": "Caf\u00e9", "short_name": "Caf\u00e9", "plural_name": "Caf\u00e9s", "icon": {"prefix": "https://ss3.4sqi.net/img/categories_v2/food/cafe_", "suffix": ".png"}}, {"id": 13065, "name": "Restaurant", "short_name": "Restaurant", "plural_name": "Restaurants", "icon": {"prefix": "https://ss3.4sqi.net/img/categories_v2/food/default_", "suffix": ".png"}}], "chains": [], "closed_bucket": "Unsure", "distance": 891, "geocodes": {"drop_off": {"latitude": 55.881444, "longitude": -4.326164}, "main": {"latitude": 55.881411, "longitude": -4.325939}, "roof": {"latitude": 55.881411, "longitude": -4.325939}}, "link": "/v3/places/d76cb684891d421601604773", "location": {"address": "470 Crow Rd", "admin_region": "Scotland", "country": "GB", "formatted_address": "470 Crow Rd, Glasgow, G11 7DR", "locality": "Glasgow", "post_town": "Glasgow", "postcode": "G11 7DR"}, "name": "Crow's Kitchen", "related_places": {}}, {"fsq_id": "0a61583974324d615e44469b", "categories": [{"id": 13145, "name": "Fast Food Restaurant", "short_name": "Fast Food", "plural_name": "Fast Food Restaurants", "icon": {"prefix": "https://ss3.4sqi.net/img/categories_v2/food/fastfood_", "suffix": ".png"}}, {"id": 17069, "name": "Grocery Store", "short_name": "Grocery Store", "plural_name": "Grocery Stores", "icon": {"prefix": "https://ss3.4sqi.net/img/categories_v2/shops/food_grocery_", "suffix": ".png"}}], "chains": [], "closed_bucket": "Unsure", "distance": 910, "geocodes": {"drop_off": {"latitude": 55.870749, "longitude": -4.320325}, "main": {"latitude": 55.870882, "longitude": -4.32031}, "roof": {"latitude": 55.870882, "longitude": -4.32031}}, "link": "/v3/places/0a61583974324d615e44469b", "location": {"address": "692 Dumbarton Rd", "country": "GB", "formatted_address": "692 Dumbarton Rd, Glasgow", "locality": "Glasgow", "post_town": "Glasgow"}, "name": "Ceqwa Nepalease & Indian Fast Food", "related_places": {}}], "context": {"geo_bounds": {"circle": {"center": {"latitude": 55.874555, "longitude": -4.333357}, "radius": 1000}}}}