{"results": [{"fsq_id": "4bab4addf964a5204f9e3ae3", "categories": [{"id": 13102, "name": "Cantonese Restaurant", "short_name": "Cantonese", "plural_name": "Cantonese Restaurants", "icon": {"prefix": "https://ss3.4sqi.net/img/categories_v2/food/asian_", "suffix": ".png"}}, {"id": 13106, "name": "Dim Sum Restaurant", "short_name": "Dim Sum", "plural_name": "Dim Sum Restaurants", "icon": {"prefix": "https://ss3.4sqi.net/img/categories_v2/food/dimsum_", "suffix": ".png"}}], "chains": [], "closed_bucket": "VeryLikelyOpen", "distance": 789, "geocodes": {"main": {"latitude": 55.878664, "longitude": -4.255065}, "roof": {"latitude": 55.878664, "longitude": -4.255065}}, "link": "/v3/places/4bab4addf964a5204f9e3ae3", "location": {"address": "The Point, 29 Saracen St", "address_extended": "Unit 7", "admin_region": "Scotland", "country": "GB", "cross_street": "Saracen St at Possil Rd", "formatted_address": "The Point, 29 Saracen St (Saracen St at Possil Rd), Glasgow, Glasgow City, G22 5HT", "locality": "Glasgow", "post_town": "Glasgow", "postcode": "G22 5HT", "region": "Glasgow City"}, "name": "See Woo Restaurant", "related_places": {}, "timezone": "Europe/London"}, {"fsq_id": "5d73c64be6ad7400086dc5f2", "categories": [{"id": 13039, "name": "Deli", "short_name": "Deli", "plural_name": "Delis", "icon": {"prefix": "https://ss3.4sqi.net/img/categories_v2/food/deli_", "suffix": ".png"}}, {"id": 13145, "name": "Fast Food Restaurant", "short_name": "Fast Food", "plural_name": "Fast Food Restaurants", "icon": {"prefix": "https://ss3.4sqi.net/img/categories_v2/food/fastfood_", "suffix": ".png"}}, {"id": 13334, "name": "Sandwich Spot", "short_name": "Sandwich Spot", "plural_name": "Sandwich Spots", "icon": {"prefix": "https://ss3.4sqi.net/img/categories_v2/food/deli_", "suffix": ".png"}}], "chains": [{"id": "ab4bee40-d68a-012e-5619-003048cad9da", "name": "Subway"}], "closed_bucket": "VeryLikelyOpen", "distance": 932, "geocodes": {"drop_off": {"latitude": 55.873939, "longitude": -4.229034}, "front_door": {"latitude": 55.873513, "longitude": -4.229927}, "main": {"latitude": 55.873513, "longitude": -4.229927}, "roof": {"latitude": 55.873555, "longitude": -4.230028}}, "link": "/v3/places/5d73c64be6ad7400086dc5f2", "location": {"address": "Tesco Extra, Cobden Rd", "admin_region": "Scotland", "country": "GB", "cross_street": "Cobden Road", "formatted_address": "Tesco Extra, Cobden Rd (Cobden Road), Glasgow, Glasgow City, G21 1YL", "locality": "Glasgow", "post_town": "Glasgow", "postcode": "G21 1YL", "region": "Glasgow City"}, "name": "Subway", "related_places": {}, "timezone": "Europe/London"}, {"fsq_id": "4bafb840f964a520c61a3ce3", "categories": [{"id": 13035, "name": "Coffee Shop", "short_name": "Coffee Shop", "plural_name": "Coffee Shops", "icon": {"prefix": "https://ss3.4sqi.net/img/categories_v2/food/coffeeshop_", "suffix": ".png"}}, {"id": 13065, "name": "Restaurant", "short_name": "Restaurant", "plural_name": "Restaurants", "icon": {"prefix": "https://ss3.4sqi.net/img/categories_v2/food/default_", "suffix": ".png"}}], "chains": [], "closed_bucket": "VeryLikelyOpen", "distance": 916, "geocodes": {"main": {"latitude": 55.873149, "longitude": -4.230682}, "roof": {"latitude": 55.873149, "longitude": -4.230682}}, "link": "/v3/places/4bafb840f964a520c61a3ce3", "location": {"address": "Cobden Rd", "admin_region": "Scotland", "country": "GB", "cross_street": "", "formatted_address": "Cobden Rd, Glasgow, Glasgow City, G21 1AL", "locality": "Glasgow", "post_town": "Glasgow", "postcode": "G21 1AL", "region": "Glasgow City"}, "name": "Tesco Cafe", "related_places": {"children": [{"fsq_id": "5903341ee179103c969514df", "categories": [{"id": 13034, "name": "Caf\u00e9", "short_name": "Caf\u00e9", "plural_name": "Caf\u00e9s", "icon": {"prefix": "https://ss3.4sqi.net/img/categories_v2/food/cafe_", "suffix": ".png"}}], "name": "Tesco Caf\u00e9"}, {"fsq_id": "62518ace67e5a777b6c13298", "categories": [{"id": 11074, "name": "Tanning Salon", "short_name": "Tanning Salon", "plural_name": "Tanning Salons", "icon": {"prefix": "https://ss3.4sqi.net/img/categories_v2/shops/tanning_salon_", "suffix": ".png"}}], "name": "Indigo Sun"}]}, "timezone": "Europe/London"}, {"fsq_id": "0f376404d2364df8ef029c44", "categories": [{"id": 13003, "name": "Bar", "short_name": "Bar", "plural_name": "Bars", "icon": {"prefix": "https://ss3.4sqi.net/img/categories_v2/nightlife/pub_", "suffix": ".png"}}], "chains": [], "closed_bucket": "LikelyOpen", "distance": 376, "geocodes": {"main": {"latitude": 55.876601, "longitude": -4.247817}, "roof": {"latitude": 55.876601, "longitude": -4.247817}}, "link": "/v3/places/0f376404d2364df8ef029c44", "location": {"address": "445 Keppochhill Rd", "admin_region": "Scotland", "country": "GB", "formatted_address": "445 Keppochhill Rd, Glasgow, G21 1HY", "locality": "Glasgow", "post_town": "Glasgow", "postcode": "G21 1HY"}, "name": "Bensons Bar", "related_places": {}, "timezone": "Europe/London"}, {"fsq_id": "6006cfe473a84d676725a518", "categories": [{"id": 13065, "name": "Restaurant", "short_name": "Restaurant", "plural_name": "Restaurants", "icon": {"prefix": "https://ss3.4sqi.net/img/categories_v2/food/default_", "suffix": ".png"}}], "chains": [], "closed_bucket": "LikelyOpen", "distance": 407, "geocodes": {"drop_off": {"latitude": 55.876781, "longitude": -4.248568}, "main": {"latitude": 55.876875, "longitude": -4.248562}, "roof": {"latitude": 55.876875, "longitude": -4.248562}}, "link": "/v3/places/6006cfe473a84d676725a518", "location": {"address": "476 Keppochhill Rd", "admin_region": "Scotland", "country": "GB", "formatted_address": "476 Keppochhill Rd, Glasgow, G21 1JE", "locality": "Glasgow", "post_town": "Glasgow", "postcode": "G21 1JE"}, "name": "Deli Darbar", "related_places": {}, "timezone": "Europe/London"}, {"fsq_id": "506e24a8e4b0eefb578681b8", "categories": [{"id": 13018, "name": "Pub", "short_name": "Pub", "plural_name": "Pubs", "icon": {"prefix": "https://ss3.4sqi.net/img/categories_v2/nightlife/pub_", "suffix": ".png"}}], "chains": [], "closed_bucket": "VeryLikelyOpen", "distance": 419, "geocodes": {"drop_off": {"latitude": 55.876786, "longitude": -4.248642}, "main": {"latitude": 55.876923, "longitude": -4.248633}, "roof": {"latitude": 55.876923, "longitude": -4.248633}}, "link": "/v3/places/506e24a8e4b0eefb578681b8", "location": {"address": "480 Keppochhill Rd", "country": "GB", "cross_street": "", "formatted_address": "480 Keppochhill Rd, Glasgow, Glasgow City", "locality": "Glasgow", "post_town": "Glasgow", "region": "Glasgow City"}, "name": "Pinkston Bar", "related_places": {}, "timezone": "Europe/London"}, {"fsq_id": "4bfa65e1b182c9b626367a5a", "categories": [{"id": 16007, "name": "Structure", "short_name": "Structure", "plural_name": "Structures", "icon": {"prefix": "https://ss3.4sqi.net/img/categories_v2/building/default_", "suffix": ".png"}}, {"id": 13065, "name": "Restaurant", "short_name": "Restaurant", "plural_name": "Restaurants", "icon": {"prefix": "https://ss3.4sqi.net/img/categories_v2/food/default_", "suffix": ".png"}}], "chains": [], "closed_bucket": "VeryLikelyOpen", "distance": 549, "geocodes": {"main": {"latitude": 55.883128, "longitude": -4.242301}, "roof": {"latitude": 55.883128, "longitude": -4.242301}}, "link": "/v3/places/4bfa65e1b182c9b626367a5a", "location": {"country": "GB", "cross_street": "", "formatted_address": ""}, "name": "Morrison Bowmore", "related_places": {}, "timezone": "Europe/London"}, {"fsq_id": "19acf2be2ccc464d6ad5fc5b", "categories": [{"id": 13145, "name": "Fast Food Restaurant", "short_name": "Fast Food", "plural_name": "Fast Food Restaurants", "icon": {"prefix": "https://ss3.4sqi.net/img/categories_v2/food/fastfood_", "suffix": ".png"}}], "chains": [], "closed_bucket": "LikelyOpen", "distance": 716, "geocodes": {"main": {"latitude": 55.881467, "longitude": -4.232578}, "roof": {"latitude": 55.881467, "longitude": -4.232578}}, "link": "/v3/places/19acf2be2ccc464d6ad5fc5b", "location": {"address": "94 Springburn Way", "admin_region": "Scotland", "country": "GB", "formatted_address": "94 Springburn Way, Glasgow, G21 1SL", "locality": "Glasgow", "post_town": "Glasgow", "postcode": "G21 1SL"}, "name": "Chakwal", "related_places": {}, "timezone": "Europe/London"}, {"fsq_id": "456b40e524de43f1395ed2e6", "categories": [{"id": 13003, "name": "Bar", "short_name": "Bar", "plural_name": "Bars", "icon": {"prefix": "https://ss3.4sqi.net/img/categories_v2/nightlife/pub_", "suffix": ".png"}}], "chains": [], "closed_bucket": "Unsure", "distance": 834, "geocodes": {"main": {"latitude": 55.876893, "longitude": -4.255642}, "roof": {"latitude": 55.876893, "longitude": -4.255642}}, "link": "/v3/places/456b40e524de43f1395ed2e6", "location": {"address": "302-306 Possil Rd, Port Dundas", "admin_region": "Scotland", "country": "GB", "formatted_address": "302-306 Possil Rd, Port Dundas, Glasgow, G4 9SX", "locality": "Glasgow", "post_town": "Glasgow", "postcode": "G4 9SX"}, "name": "The Rock Tavern", "related_places": {}, "timezone": "Europe/London"}, {"fsq_id": "4c993a52d14d4dfbb7d9ff02", "categories": [{"id": 13145, "name": "Fast Food Restaurant", "short_name": "Fast Food", "plural_name": "Fast Food Restaurants", "icon": {"prefix": "https://ss3.4sqi.net/img/categories_v2/food/fastfood_", "suffix": ".png"}}], "chains": [], "closed_bucket": "LikelyOpen", "distance": 847, "geocodes": {"main": {"latitude": 55.88209, "longitude": -4.254083}, "roof": {"latitude": 55.88209, "longitude": -4.254083}}, "link": "/v3/places/4c993a52d14d4dfbb7d9ff02", "location": {"address": "150 Saracen St", "admin_region": "Scotland", "country": "GB", "formatted_address": "150 Saracen St, Glasgow, G22 5AS", "locality": "Glasgow", "post_town": "Glasgow", "postcode": "G22 5AS"}, "name": "Happy Date", "related_places": {}, "timezone": "Europe/London"}, {"fsq_id": "56c07a36cd10a98e1199b1d2", "categories": [{"id": 13016, "name": "Lounge", "short_name": "Lounge", "plural_name": "Lounges", "icon": {"prefix": "https://ss3.4sqi.net/img/categories_v2/nightlife/default_", "suffix": ".png"}}], "chains": [], "closed_bucket": "LikelyOpen", "distance": 865, "geocodes": {"drop_off": {"latitude": 55.883774, "longitude": -4.252234}, "main": {"latitude": 55.883617, "longitude": -4.252236}, "roof": {"latitude": 55.883617, "longitude": -4.252236}}, "link": "/v3/places/56c07a36cd10a98e1199b1d2", "location": {"address": "83-85 Bardowie St", "admin_region": "Scotland", "country": "GB", "cross_street": "", "formatted_address": "83-85 Bardowie St, Glasgow, G22 5ET", "locality": "Glasgow", "post_town": "Glasgow", "postcode": "G22 5ET"}, "name": "Possilpark Masonic Social Club", "related_places": {}, "timezone": "Europe/London"}, {"fsq_id": "5638ff9060b2753ece75b96f", "categories": [{"id": 13051, "name": "Fish and Chips Shop", "short_name": "Fish and Chips Shop", "plural_name": "Fish and Chips Shops", "icon": {"prefix": "https://ss3.4sqi.net/img/categories_v2/food/fishandchips_", "suffix": ".png"}}], "chains": [], "closed_bucket": "VeryLikelyOpen", "distance": 875, "geocodes": {"main": {"latitude": 55.882515, "longitude": -4.254025}, "roof": {"latitude": 55.882515, "longitude": -4.254025}}, "link": "/v3/places/5638ff9060b2753ece75b96f", "location": {"address": "174-176 Saracen St", "admin_region": "Scotland", "country": "GB", "formatted_address": "174-176 Saracen St, Glasgow, G22 5EP", "locality": "Glasgow", "post_town": "Glasgow", "postcode": "G22 5EP"}, "name": "The Flying Haggis", "related_places": {}, "timezone": "Europe/London"}, {"fsq_id": "efae4c44f04a426799399b19", "categories": [{"id": 13065, "name": "Restaurant", "short_name": "Restaurant", "plural_name": "Restaurants", "icon": {"prefix": "https://ss3.4sqi.net/img/categories_v2/food/default_", "suffix": ".png"}}], "chains": [], "closed_bucket": "VeryLikelyOpen", "distance": 879, "geocodes": {"main": {"latitude": 55.882375, "longitude": -4.230502}, "roof": {"latitude": 55.882375, "longitude": -4.230502}}, "link": "/v3/places/efae4c44f04a426799399b19", "location": {"address": "163 Springburn Way", "admin_region": "Scotland", "country": "GB", "formatted_address": "163 Springburn Way, Glasgow, G21 1DT", "locality": "Glasgow", "post_town": "Glasgow", "postcode": "G21 1DT"}, "name": "Atwals Fish and Chicken Bar", "related_places": {}, "timezone": "Europe/London"}, {"fsq_id": "cb1642f7573a447f6f26f4f3", "categories": [{"id": 13039, "name": "Deli", "short_name": "Deli", "plural_name": "Delis", "icon": {"prefix": "https://ss3.4sqi.net/img/categories_v2/food/deli_", "suffix": ".png"}}], "chains": [], "closed_bucket": "LikelyOpen", "distance": 886, "geocodes": {"main": {"latitude": 55.876544, "longitude": -4.2284}, "roof": {"latitude": 55.876544, "longitude": -4.2284}}, "link": "/v3/places/cb1642f7573a447f6f26f4f3", "location": {"address": "28 Laverockhall St", "admin_region": "Scotland", "country": "GB", "formatted_address": "28 Laverockhall St, Glasgow, G21 4AB", "locality": "Glasgow", "post_town": "Glasgow", "postcode": "G21 4AB"}, "name": "Subzi Spice", "related_places": {}, "timezone": "Europe/London"}, {"fsq_id": "1e93c55c6e1347e3b1ab70dc", "categories": [{"id": 13003, "name": "Bar", "short_name": "Bar", "plural_name": "Bars", "icon": {"prefix": "https://ss3.4sqi.net/img/categories_v2/nightlife/pub_", "suffix": ".png"}}], "chains": [], "closed_bucket": "Unsure", "distance": 920, "geocodes": {"main": {"latitude": 55.883364, "longitude": -4.253911}, "roof": {"latitude": 55.883364, "longitude": -4.253911}}, "link": "/v3/places/1e93c55c6e1347e3b1ab70dc", "location": {"address": "248 Saracen St", "admin_region": "Scotland", "country": "GB", "formatted_address": "248 Saracen St, Glasgow, G22 5ER", "locality": "Glasgow", "post_town": "Glasgow", "postcode": "G22 5ER"}, "name": "Strathmore Taverns", "related_places": {}, "timezone": "Europe/London"}, {"fsq_id": "50879688e4b0b6701decda02", "categories": [{"id": 13034, "name": "Caf\u00e9", "short_name": "Caf\u00e9", "plural_name": "Caf\u00e9s", "icon": {"prefix": "https://ss3.4sqi.net/img/categories_v2/food/cafe_", "suffix": ".png"}}, {"id": 13035, "name": "Coffee Shop", "short_name": "Coffee Shop", "plural_name": "Coffee Shops", "icon": {"prefix": "https://ss3.4sqi.net/img/categories_v2/food/coffeeshop_", "suffix": ".png"}}, {"id": 13065, "name": "Restaurant", "short_name": "Restaurant", "plural_name": "Restaurants", "icon": {"prefix": "https://ss3.4sqi.net/img/categories_v2/food/default_", "suffix": ".png"}}], "chains": [], "closed_bucket": "LikelyOpen", "distance": 934, "geocodes": {"main": {"latitude": 55.874667, "longitude": -4.25589}, "roof": {"latitude": 55.874667, "longitude": -4.25589}}, "link": "/v3/places/50879688e4b0b6701decda02", "location": {"address": "2b Eagle St", "admin_region": "Scotland", "country": "GB", "cross_street": "", "formatted_address": "2b Eagle St, Glasgow, G4 9XA", "locality": "Glasgow", "post_town": "Glasgow", "postcode": "G4 9XA"}, "name": "Up on the Hill", "related_places": {}, "timezone": "Europe/London"}, {"fsq_id": "52487b5811d27f0496d8db5e", "categories": [{"id": 13099, "name": "Chinese Restaurant", "short_name": "Chinese", "plural_name": "Chinese Restaurants", "icon": {"prefix": "https://ss3.4sqi.net/img/categories_v2/food/asian_", "suffix": ".png"}}, {"id": 13145, "name": "Fast Food Restaurant", "short_name": "Fast Food", "plural_name": "Fast Food Restaurants", "icon": {"prefix": "https://ss3.4sqi.net/img/categories_v2/food/fastfood_", "suffix": ".png"}}], "chains": [], "closed_bucket": "VeryLikelyOpen", "distance": 935, "geocodes": {"main": {"latitude": 55.882726, "longitude": -4.229882}, "roof": {"latitude": 55.882726, "longitude": -4.229882}}, "link": "/v3/places/52487b5811d27f0496d8db5e", "location": {"address": "209 Springburn Way", "admin_region": "Scotland", "country": "GB", "cross_street": "", "formatted_address": "209 Springburn Way, Glasgow, Glasgow City, G21 1DU", "locality": "Glasgow", "post_town": "Glasgow", "postcode": "G21 1DU", "region": "Glasgow City"}, "name": "Oriental Cuisine", "related_places": {}, "timezone": "Europe/London"}, {"fsq_id": "6314b1c9748c5836137f8a68", "categories": [{"id": 13029, "name": "Brewery", "short_name": "Brewery", "plural_name": "Breweries", "icon": {"prefix": "https://ss3.4sqi.net/img/categories_v2/food/brewery_", "suffix": ".png"}}], "chains": [], "closed_bucket": "VeryLikelyOpen", "distance": 938, "geocodes": {"drop_off": {"latitude": 55.871374, "longitude": -4.252052}, "main": {"latitude": 55.871564, "longitude": -4.252116}, "roof": {"latitude": 55.871564, "longitude": -4.252116}}, "link": "/v3/places/6314b1c9748c5836137f8a68", "location": {"address": "3A Payne St", "country": "GB", "cross_street": "", "formatted_address": "3A Payne St, Glasgow, Glasgow City", "locality": "Glasgow", "post_town": "Glasgow", "region": "Glasgow City"}, "name": "Epochal Barrel-Fermented Ales", "related_places": {}, "timezone": "Europe/London"}, {"fsq_id": "958612a04b90407058b4bf44", "categories": [{"id": 13065, "name": "Restaurant", "short_name": "Restaurant", "plural_name": "Restaurants", "icon": {"prefix": "https://ss3.4sqi.net/img/categories_v2/food/default_", "suffix": ".png"}}], "chains": [], "closed_bucket": "VeryLikelyOpen", "distance": 941, "geocodes": {"drop_off": {"latitude": 55.883265, "longitude": -4.254254}, "main": {"latitude": 55.88328, "longitude": -4.254469}, "roof": {"latitude": 55.88328, "longitude": -4.254469}}, "link": "/v3/places/958612a04b90407058b4bf44", "location": {"address": "219 Saracen St", "admin_region": "Scotland", "country": "GB", "formatted_address": "219 Saracen St, Glasgow, G22 5JW", "locality": "Glasgow", "post_town": "Glasgow", "postcode": "G22 5JW"}, "name": "Star Curry House", "related_places": {}, "timezone": "Europe/London"}, {"fsq_id": "f5948f71529d4e1830baa4f7", "categories": [{"id": 13003, "name": "Bar", "short_name": "Bar", "plural_name": "Bars", "icon": {"prefix": "https://ss3.4sqi.net/img/categories_v2/nightlife/pub_", "suffix": ".png"}}], "chains": [], "closed_bucket": "VeryLikelyOpen", "distance": 956, "geocodes": {"main": {"latitude": 55.886611, "longitude": -4.244019}, "roof": {"latitude": 55.886611, "longitude": -4.244019}}, "link": "/v3/places/f5948f71529d4e1830baa4f7", "location": {"address": "404 Hawthorn St", "admin_region": "Scotland", "country": "GB", "formatted_address": "404 Hawthorn St, Glasgow, G22 6RU", "locality": "Glasgow", "post_town": "Glasgow", "postcode": "G22 6RU"}, "name": "Ashfield Bar", "related_places": {}, "timezone": "Europe/London"}, {"fsq_id": "569fcd45498e50956b3d19a0", "categories": [{"id": 13051, "name": "Fish and Chips Shop", "short_name": "Fish and Chips Shop", "plural_name": "Fish and Chips Shops", "icon": {"prefix": "https://ss3.4sqi.net/img/categories_v2/food/fishandchips_", "suffix": ".png"}}], "chains": [], "closed_bucket": "VeryLikelyOpen", "distance": 978, "geocodes": {"main": {"latitude": 55.887102, "longitude": -4.243718}, "roof": {"latitude": 55.887102, "longitude": -4.243718}}, "link": "/v3/places/569fcd45498e50956b3d19a0", "location": {"address": "419 Hawthorn St", "admin_region": "Scotland", "country": "GB", "cross_street": "", "formatted_address": "419 Hawthorn St, Glasgow, G22 6EN", "locality": "Glasgow", "post_town": "Glasgow", "postcode": "G22 6EN"}, "name": "Vito's", "related_places": {}, "timezone": "Europe/London"}, {"fsq_id": "4e6786a2b61cf40ed6ad9965", "categories": [{"id": 13072, "name": "Asian Restaurant", "short_name": "Asian", "plural_name": "Asian Restaurants", "icon": {"prefix": "https://ss3.4sqi.net/img/categories_v2/food/asian_", "suffix": ".png"}}], "chains": [], "closed_bucket": "VeryLikelyOpen", "distance": 983, "geocodes": {"main": {"latitude": 55.869965, "longitude": -4.248738}}, "link": "/v3/places/4e6786a2b61cf40ed6ad9965", "location": {"address": "Dobbies Loan", "country": "GB", "cross_street": "", "formatted_address": "Dobbies Loan, Glasgow, Glasgow City", "locality": "Glasgow", "post_town": "Glasgow", "region": "Glasgow City"}, "name": "Kusina de Filipinas", "related_places": {}, "timezone": "Europe/London"}, {"fsq_id": "c844d3b749e54af9127544e8", "categories": [{"id": 13145, "name": "Fast Food Restaurant", "short_name": "Fast Food", "plural_name": "Fast Food Restaurants", "icon": {"prefix": "https://ss3.4sqi.net/img/categories_v2/food/fastfood_", "suffix": ".png"}}], "chains": [], "closed_bucket": "LikelyOpen", "distance": 999, "geocodes": {"main": {"latitude": 55.883608, "longitude": -4.25518}, "roof": {"latitude": 55.883608, "longitude": -4.25518}}, "link": "/v3/places/c844d3b749e54af9127544e8", "location": {"address": "137 Bardowie St", "admin_region": "Scotland", "country": "GB", "formatted_address": "137 Bardowie St, Glasgow, G22 5QJ", "locality": "Glasgow", "post_town": "Glasgow", "postcode": "G22 5QJ"}, "name": "China Hut", "related_places": {}, "timezone": "Europe/London"}, {"fsq_id": "1333b267c337423f83412a63", "categories": [{"id": 13065, "name": "Restaurant", "short_name": "Restaurant", "plural_name": "Restaurants", "icon": {"prefix": "https://ss3.4sqi.net/img/categories_v2/food/default_", "suffix": ".png"}}], "chains": [], "closed_bucket": "LikelyOpen", "distance": 298, "geocodes": {"drop_off": {"latitude": 55.875309, "longitude": -4.244063}, "main": {"latitude": 55.875608, "longitude": -4.243967}, "roof": {"latitude": 55.875608, "longitude": -4.243967}}, "link": "/v3/places/1333b267c337423f83412a63", "location": {"address": "11 Keppochhill Pl", "address_extended": "Unit 2", "admin_region": "Scotland", "country": "GB", "formatted_address": "11 Keppochhill Pl, G21 1HS", "post_town": "Glasgow", "postcode": "G21 1HS"}, "name": "Homaydo", "related_places": {}}, {"fsq_id": "f4aebdd4a0c64c57c8b829df", "categories": [{"id": 13003, "name": "Bar", "short_name": "Bar", "plural_name": "Bars", "icon": {"prefix": "https://ss3.4sqi.net/img/categories_v2/nightlife/pub_", "suffix": ".png"}}], "chains": [], "closed_bucket": "Unsure", "distance": 364, "geocodes": {"drop_off": {"latitude": 55.876713, "longitude": -4.2476}, "main": {"latitude": 55.876613, "longitude": -4.247607}, "roof": {"latitude": 55.876613, "longitude": -4.247607}}, "link": "/v3/places/f4aebdd4a0c64c57c8b829df", "location": {"country": "GB", "formatted_address": "Glasgow", "locality": "Glasgow", "post_town": "Glasgow"}, "name": "Springpark Bar", "related_places": {}}, {"fsq_id": "1bb62a0f656347344901d411", "categories": [{"id": 11043, "name": "Accounting and Bookkeeping Service", "short_name": "Accounting and Bookkeeping Service", "plural_name": "Accounting and Bookkeeping Services", "icon": {"prefix": "https://ss3.4sqi.net/img/categories_v2/building/default_", "suffix": ".png"}}, {"id": 13024, "name": "Whisky Bar", "short_name": "Whisky Bar", "plural_name": "Whisky Bars", "icon": {"prefix": "https://ss3.4sqi.net/img/categories_v2/nightlife/whiskey_", "suffix": ".png"}}, {"id": 13050, "name": "Distillery", "short_name": "Distillery", "plural_name": "Distilleries", "icon": {"prefix": "https://ss3.4sqi.net/img/categories_v2/food/brewery_", "suffix": ".png"}}], "chains": [], "closed_bucket": "Unsure", "distance": 576, "geocodes": {"main": {"latitude": 55.883321, "longitude": -4.241676}, "roof": {"latitude": 55.883321, "longitude": -4.241676}}, "link": "/v3/places/1bb62a0f656347344901d411", "location": {"address": "Springburn Bond, Carlisle St", "admin_region": "Scotland", "country": "GB", "formatted_address": "Springburn Bond, Carlisle St, Glasgow, G21 1EQ", "locality": "Glasgow", "post_town": "Glasgow", "postcode": "G21 1EQ"}, "name": "T. & A. Mcclelland Limited", "related_places": {}}, {"fsq_id": "69c925d8552941cd8b6e5abb", "categories": [{"id": 13145, "name": "Fast Food Restaurant", "short_name": "Fast Food", "plural_name": "Fast Food Restaurants", "icon": {"prefix": "https://ss3.4sqi.net/img/categories_v2/food/fastfood_", "suffix": ".png"}}], "chains": [], "closed_bucket": "LikelyOpen", "distance": 939, "geocodes": {"drop_off": {"latitude": 55.883208, "longitude": -4.254258}, "main": {"latitude": 55.883225, "longitude": -4.254503}, "roof": {"latitude": 55.883225, "longitude": -4.254503}}, "link": "/v3/places/69c925d8552941cd8b6e5abb", "location": {"address": "219 Saracen St", "admin_region": "Scotland", "country": "GB", "formatted_address": "219 Saracen St, Glasgow, G22 5JW", "locality": "Glasgow", "post_town": "Glasgow", "postcode": "G22 5JW"}, "name": "Spicy Bite", "related_places": {}}, {"fsq_id": "31dc173544d74a5d3ca0e719", "categories": [{"id": 10039, "name": "Music Venue", "short_name": "Music Venue", "plural_name": "Music Venues", "icon": {"prefix": "https://ss3.4sqi.net/img/categories_v2/arts_entertainment/musicvenue_", "suffix": ".png"}}, {"id": 13003, "name": "Bar", "short_name": "Bar", "plural_name": "Bars", "icon": {"prefix": "https://ss3.4sqi.net/img/categories_v2/nightlife/pub_", "suffix": ".png"}}, {"id": 13065, "name": "Restaurant", "short_name": "Restaurant", "plural_name": "Restaurants", "icon": {"prefix": "https://ss3.4sqi.net/img/categories_v2/food/default_", "suffix": ".png"}}], "chains": [], "closed_bucket": "LikelyOpen", "distance": 993, "geocodes": {"main": {"latitude": 55.875822, "longitude": -4.257818}, "roof": {"latitude": 55.875822, "longitude": -4.257818}}, "link": "/v3/places/31dc173544d74a5d3ca0e719", "location": {"address": "125 Craighall Rd", "admin_region": "Scotland", "country": "GB", "formatted_address": "125 Craighall Rd, Glasgow, G4 9TL", "locality": "Glasgow", "post_town": "Glasgow", "postcode": "G4 9TL"}, "name": "National Theatre of Scotland", "related_places": {}}], "context": {"geo_bounds": {"circle": {"center": {"latitude": 55.878152, "longitude": -4.242439}, "radius": 1000}}}}