{"results": [{"fsq_id": "026aeb48a9484f5dea2dffdb", "categories": [{"id": 13099, "name": "Chinese Restaurant", "short_name": "Chinese", "plural_name": "Chinese Restaurants", "icon": {"prefix": "https://ss3.4sqi.net/img/categories_v2/food/asian_", "suffix": ".png"}}], "chains": [], "closed_bucket": "LikelyOpen", "distance": 86, "geocodes": {"main": {"latitude": 55.836935, "longitude": -4.334234}, "roof": {"latitude": 55.836935, "longitude": -4.334234}}, "link": "/v3/places/026aeb48a9484f5dea2dffdb", "location": {"address": "25 Corkerhill Pl", "admin_region": "Scotland", "country": "GB", "formatted_address": "25 Corkerhill Pl, Glasgow, G52 1RU", "locality": "Glasgow", "post_town": "Glasgow", "postcode": "G52 1RU"}, "name": "Kapo", "related_places": {}, "timezone": "Europe/London"}, {"fsq_id": "76dcffe3d4e847035a25188c", "categories": [{"id": 13065, "name": "Restaurant", "short_name": "Restaurant", "plural_name": "Restaurants", "icon": {"prefix": "https://ss3.4sqi.net/img/categories_v2/food/default_", "suffix": ".png"}}], "chains": [], "closed_bucket": "LikelyOpen", "distance": 175, "geocodes": {"drop_off": {"latitude": 55.836022, "longitude": -4.332398}, "main": {"latitude": 55.8362, "longitude": -4.332353}, "roof": {"latitude": 55.8362, "longitude": -4.332353}}, "link": "/v3/places/76dcffe3d4e847035a25188c", "location": {"address": "25 Corkerhill Pl", "admin_region": "Scotland", "country": "GB", "formatted_address": "25 Corkerhill Pl, Glasgow, Glasgow City, G52 1RU", "locality": "Glasgow", "post_town": "Glasgow", "postcode": "G52 1RU", "region": "Glasgow City"}, "name": "Golden Star", "related_places": {}, "timezone": "Europe/London"}, {"fsq_id": "5ebaf537c22084000885649a", "categories": [{"id": 13003, "name": "Bar", "short_name": "Bar", "plural_name": "Bars", "icon": {"prefix": "https://ss3.4sqi.net/img/categories_v2/nightlife/pub_", "suffix": ".png"}}], "chains": [], "closed_bucket": "VeryLikelyOpen", "distance": 242, "geocodes": {"main": {"latitude": 55.836831, "longitude": -4.331462}, "roof": {"latitude": 55.836831, "longitude": -4.331462}}, "link": "/v3/places/5ebaf537c22084000885649a", "location": {"admin_region": "Scotland", "country": "GB", "cross_street": "", "formatted_address": "G52 1TJ", "post_town": "Glasgow", "postcode": "G52 1TJ"}, "name": "Star Bar", "related_places": {}, "timezone": "Europe/London"}, {"fsq_id": "5ce09e0980ea489381a7f0b2", "categories": [{"id": 13145, "name": "Fast Food Restaurant", "short_name": "Fast Food", "plural_name": "Fast Food Restaurants", "icon": {"prefix": "https://ss3.4sqi.net/img/categories_v2/food/fastfood_", "suffix": ".png"}}], "chains": [], "closed_bucket": "LikelyOpen", "distance": 252, "geocodes": {"main": {"latitude": 55.838623, "longitude": -4.335128}, "roof": {"latitude": 55.838623, "longitude": -4.335128}}, "link": "/v3/places/5ce09e0980ea489381a7f0b2", "location": {"address": "290 Corkerhill Rd", "admin_region": "Scotland", "country": "GB", "formatted_address": "290 Corkerhill Rd, Glasgow, G52 1TQ", "locality": "Glasgow", "post_town": "Glasgow", "postcode": "G52 1TQ"}, "name": "Aliyans Takeaway", "related_places": {}, "timezone": "Europe/London"}, {"fsq_id": "5cb18de9b0758b47aa1d7431", "categories": [{"id": 13034, "name": "Caf\u00e9", "short_name": "Caf\u00e9", "plural_name": "Caf\u00e9s", "icon": {"prefix": "https://ss3.4sqi.net/img/categories_v2/food/cafe_", "suffix": ".png"}}, {"id": 13145, "name": "Fast Food Restaurant", "short_name": "Fast Food", "plural_name": "Fast Food Restaurants", "icon": {"prefix": "https://ss3.4sqi.net/img/categories_v2/food/fastfood_", "suffix": ".png"}}], "chains": [], "closed_bucket": "LikelyOpen", "distance": 718, "geocodes": {"main": {"latitude": 55.832845, "longitude": -4.344826}, "roof": {"latitude": 55.832845, "longitude": -4.344826}}, "link": "/v3/places/5cb18de9b0758b47aa1d7431", "location": {"country": "GB", "formatted_address": "Glasgow", "locality": "Glasgow", "post_town": "Glasgow"}, "name": "Pollok Express Ices", "related_places": {}}], "context": {"geo_bounds": {"circle": {"center": {"latitude": 55.836355, "longitude": -4.335149}, "radius": 1000}}}}