{"results": [{"fsq_id": "4b8d5addf964a5209df632e3", "categories": [{"id": 13199, "name": "Indian Restaurant", "short_name": "Indian", "plural_name": "Indian Restaurants", "icon": {"prefix": "https://ss3.4sqi.net/img/categories_v2/food/indian_", "suffix": ".png"}}], "chains": [], "closed_bucket": "VeryLikelyOpen", "distance": 563, "geocodes": {"main": {"latitude": 55.857888, "longitude": -4.281346}, "roof": {"latitude": 55.857888, "longitude": -4.281346}}, "link": "/v3/places/4b8d5addf964a5209df632e3", "location": {"address": "181 Finnieston St", "admin_region": "Scotland", "country": "GB", "cross_street": "", "formatted_address": "181 Finnieston St, Glasgow, Glasgow City, G3 8HE", "locality": "Glasgow", "post_town": "Glasgow", "postcode": "G3 8HE", "region": "Glasgow City"}, "name": "India Quay", "related_places": {}, "timezone": "Europe/London"}, {"fsq_id": "4b64a36cf964a52074c42ae3", "categories": [{"id": 13065, "name": "Restaurant", "short_name": "Restaurant", "plural_name": "Restaurants", "icon": {"prefix": "https://ss3.4sqi.net/img/categories_v2/food/default_", "suffix": ".png"}}], "chains": [{"id": "2fceefe0-9c63-0132-6632-3c15c2dde6c8", "name": "Nando's"}], "closed_bucket": "VeryLikelyOpen", "distance": 132, "geocodes": {"main": {"latitude": 55.855409, "longitude": -4.275873}, "roof": {"latitude": 55.855409, "longitude": -4.275873}}, "link": "/v3/places/4b64a36cf964a52074c42ae3", "location": {"address": "Paisley Rd West", "address_extended": "Unit D2", "admin_region": "Scotland", "country": "GB", "cross_street": "", "formatted_address": "Paisley Rd West, Glasgow, Glasgow City, G5 8NP", "locality": "Glasgow", "post_town": "Glasgow", "postcode": "G5 8NP", "region": "Glasgow City"}, "name": "Nando's", "related_places": {"parent": {"fsq_id": "4c27a4683703d13a1f58a736", "categories": [{"id": 10000, "name": "Arts and Entertainment", "short_name": "Arts & Entertainment", "plural_name": "Arts and Entertainment", "icon": {"prefix": "https://ss3.4sqi.net/img/categories_v2/arts_entertainment/default_", "suffix": ".png"}}], "name": "The Quay"}}, "timezone": "Europe/London"}, {"fsq_id": "596e6d68d48ec155ebe2eba6", "categories": [{"id": 13065, "name": "Restaurant", "short_name": "Restaurant", "plural_name": "Restaurants", "icon": {"prefix": "https://ss3.4sqi.net/img/categories_v2/food/default_", "suffix": ".png"}}], "chains": [], "closed_bucket": "VeryLikelyOpen", "distance": 744, "geocodes": {"main": {"latitude": 55.860033, "longitude": -4.268691}, "roof": {"latitude": 55.860033, "longitude": -4.268691}}, "link": "/v3/places/596e6d68d48ec155ebe2eba6", "location": {"address": "500 Argyle St", "admin_region": "Scotland", "country": "GB", "cross_street": "", "formatted_address": "500 Argyle St, Glasgow, Glasgow City, G3 8RR", "locality": "Glasgow", "post_town": "Glasgow", "postcode": "G3 8RR", "region": "Glasgow City"}, "name": "Cast Iron Grill", "related_places": {"parent": {"fsq_id": "4b76346af964a5201a432ee3", "categories": [{"id": 19014, "name": "Hotel", "short_name": "Hotel", "plural_name": "Hotels", "icon": {"prefix": "https://ss3.4sqi.net/img/categories_v2/travel/hotel_", "suffix": ".png"}}], "name": "Marriott Hotels & Resorts"}}, "timezone": "Europe/London"}, {"fsq_id": "5515b46c498edbb34c84b689", "categories": [{"id": 13030, "name": "Buffet", "short_name": "Buffet", "plural_name": "Buffets", "icon": {"prefix": "https://ss3.4sqi.net/img/categories_v2/food/default_", "suffix": ".png"}}], "chains": [], "closed_bucket": "VeryLikelyOpen", "distance": 186, "geocodes": {"main": {"latitude": 55.853525, "longitude": -4.27196}, "roof": {"latitude": 55.853525, "longitude": -4.27196}}, "link": "/v3/places/5515b46c498edbb34c84b689", "location": {"address": "251 Paisley Rd", "admin_region": "Scotland", "country": "GB", "cross_street": "", "formatted_address": "251 Paisley Rd, Glasgow, G5 8RA", "locality": "Glasgow", "post_town": "Glasgow", "postcode": "G5 8RA"}, "name": "Cook & Indi's World Buffet", "related_places": {}, "timezone": "Europe/London"}, {"fsq_id": "53776f4d498e2945af514bd4", "categories": [{"id": 13314, "name": "New American Restaurant", "short_name": "New American", "plural_name": "New American Restaurants", "icon": {"prefix": "https://ss3.4sqi.net/img/categories_v2/food/newamerican_", "suffix": ".png"}}, {"id": 13317, "name": "Persian Restaurant", "short_name": "Persian", "plural_name": "Persian Restaurants", "icon": {"prefix": "https://ss3.4sqi.net/img/categories_v2/food/middleeastern_", "suffix": ".png"}}], "chains": [], "closed_bucket": "VeryLikelyOpen", "distance": 639, "geocodes": {"main": {"latitude": 55.853483, "longitude": -4.264391}, "roof": {"latitude": 55.853483, "longitude": -4.264391}}, "link": "/v3/places/53776f4d498e2945af514bd4", "location": {"address": "146-148 Nelson St", "admin_region": "Scotland", "country": "GB", "cross_street": "", "formatted_address": "146-148 Nelson St, Glasgow", "locality": "Glasgow", "post_town": "Glasgow"}, "name": "Sholeh Persian Restaurant", "related_places": {}, "timezone": "Europe/London"}, {"fsq_id": "4c812e6747cc224ba8af799f", "categories": [{"id": 13145, "name": "Fast Food Restaurant", "short_name": "Fast Food", "plural_name": "Fast Food Restaurants", "icon": {"prefix": "https://ss3.4sqi.net/img/categories_v2/food/fastfood_", "suffix": ".png"}}, {"id": 13356, "name": "Turkish Restaurant", "short_name": "Turkish", "plural_name": "Turkish Restaurants", "icon": {"prefix": "https://ss3.4sqi.net/img/categories_v2/food/turkish_", "suffix": ".png"}}], "chains": [], "closed_bucket": "VeryLikelyOpen", "distance": 292, "geocodes": {"main": {"latitude": 55.85373, "longitude": -4.27943}, "roof": {"latitude": 55.85373, "longitude": -4.27943}}, "link": "/v3/places/4c812e6747cc224ba8af799f", "location": {"address": "7 Paisley Rd West", "admin_region": "Scotland", "country": "GB", "cross_street": "", "formatted_address": "7 Paisley Rd West, Glasgow, Glasgow City, G51 1LF", "locality": "Glasgow", "post_town": "Glasgow", "postcode": "G51 1LF", "region": "Glasgow City"}, "name": "Istanbul Turkish", "related_places": {}, "timezone": "Europe/London"}, {"fsq_id": "4e27e9bc091a1ba18da85029", "categories": [{"id": 13013, "name": "Hotel Bar", "short_name": "Hotel Bar", "plural_name": "Hotel Bars", "icon": {"prefix": "https://ss3.4sqi.net/img/categories_v2/travel/hotel_bar_", "suffix": ".png"}}], "chains": [], "closed_bucket": "VeryLikelyOpen", "distance": 890, "geocodes": {"main": {"latitude": 55.861526, "longitude": -4.268386}, "roof": {"latitude": 55.861526, "longitude": -4.268386}}, "link": "/v3/places/4e27e9bc091a1ba18da85029", "location": {"address": "1 William St", "admin_region": "Scotland", "country": "GB", "formatted_address": "1 William St, Glasgow, Glasgow City, G3 8HT", "locality": "Glasgow", "post_town": "Glasgow", "postcode": "G3 8HT", "region": "Glasgow City"}, "name": "Hilton Glasgow - Executive Lounge", "related_places": {}, "timezone": "Europe/London"}, {"fsq_id": "4b7c4dd1f964a520068b2fe3", "categories": [{"id": 13031, "name": "Burger Joint", "short_name": "Burgers", "plural_name": "Burger Joints", "icon": {"prefix": "https://ss3.4sqi.net/img/categories_v2/food/burger_", "suffix": ".png"}}, {"id": 13145, "name": "Fast Food Restaurant", "short_name": "Fast Food", "plural_name": "Fast Food Restaurants", "icon": {"prefix": "https://ss3.4sqi.net/img/categories_v2/food/fastfood_", "suffix": ".png"}}], "chains": [{"id": "ab4a9b10-d68a-012e-5619-003048cad9da", "name": "Burger King"}], "closed_bucket": "Unsure", "distance": 73, "geocodes": {"main": {"latitude": 55.854327, "longitude": -4.273597}, "roof": {"latitude": 55.854327, "longitude": -4.273597}}, "link": "/v3/places/4b7c4dd1f964a520068b2fe3", "location": {"address": "Springfield Quay", "address_extended": "Unit 1", "admin_region": "Scotland", "country": "GB", "cross_street": "Paisley Rd West", "formatted_address": "Springfield Quay (Paisley Rd West), Glasgow, G5 8NP", "locality": "Glasgow", "post_town": "Glasgow", "postcode": "G5 8NP"}, "name": "Burger King", "related_places": {"parent": {"fsq_id": "4c27a4683703d13a1f58a736", "categories": [{"id": 10000, "name": "Arts and Entertainment", "short_name": "Arts & Entertainment", "plural_name": "Arts and Entertainment", "icon": {"prefix": "https://ss3.4sqi.net/img/categories_v2/arts_entertainment/default_", "suffix": ".png"}}], "name": "The Quay"}}, "timezone": "Europe/London"}, {"fsq_id": "4c8298f074d7b60c730582d8", "categories": [{"id": 13030, "name": "Buffet", "short_name": "Buffet", "plural_name": "Buffets", "icon": {"prefix": "https://ss3.4sqi.net/img/categories_v2/food/default_", "suffix": ".png"}}, {"id": 13102, "name": "Cantonese Restaurant", "short_name": "Cantonese", "plural_name": "Cantonese Restaurants", "icon": {"prefix": "https://ss3.4sqi.net/img/categories_v2/food/asian_", "suffix": ".png"}}], "chains": [], "closed_bucket": "VeryLikelyOpen", "distance": 127, "geocodes": {"main": {"latitude": 55.855324, "longitude": -4.276431}, "roof": {"latitude": 55.855324, "longitude": -4.276431}}, "link": "/v3/places/4c8298f074d7b60c730582d8", "location": {"address": "Springfield Quay", "address_extended": "Unit D3", "admin_region": "Scotland", "country": "GB", "cross_street": "", "formatted_address": "Springfield Quay, Glasgow, Glasgow City, G5 8NP", "locality": "Glasgow", "post_town": "Glasgow", "postcode": "G5 8NP", "region": "Glasgow City"}, "name": "Panda Chinese Cuisine", "related_places": {"parent": {"fsq_id": "4c27a4683703d13a1f58a736", "categories": [{"id": 10000, "name": "Arts and Entertainment", "short_name": "Arts & Entertainment", "plural_name": "Arts and Entertainment", "icon": {"prefix": "https://ss3.4sqi.net/img/categories_v2/arts_entertainment/default_", "suffix": ".png"}}], "name": "The Quay"}}, "timezone": "Europe/London"}, {"fsq_id": "4bebee7362c0c928e5a5e2d4", "categories": [{"id": 13031, "name": "Burger Joint", "short_name": "Burgers", "plural_name": "Burger Joints", "icon": {"prefix": "https://ss3.4sqi.net/img/categories_v2/food/burger_", "suffix": ".png"}}, {"id": 13145, "name": "Fast Food Restaurant", "short_name": "Fast Food", "plural_name": "Fast Food Restaurants", "icon": {"prefix": "https://ss3.4sqi.net/img/categories_v2/food/fastfood_", "suffix": ".png"}}], "chains": [{"id": "ab4a3530-d68a-012e-5619-003048cad9da", "name": "McDonald's"}], "closed_bucket": "VeryLikelyOpen", "distance": 973, "geocodes": {"main": {"latitude": 55.862645, "longitude": -4.280161}, "roof": {"latitude": 55.862645, "longitude": -4.280161}}, "link": "/v3/places/4bebee7362c0c928e5a5e2d4", "location": {"address": "The Clydeway Centre Skypark", "admin_region": "Scotland", "country": "GB", "cross_street": "at Finnieston St.", "formatted_address": "The Clydeway Centre Skypark (at Finnieston St.), Glasgow, Glasgow City, G3 8JU", "locality": "Glasgow", "post_town": "Glasgow", "postcode": "G3 8JU", "region": "Glasgow City"}, "name": "McDonald's", "related_places": {}, "timezone": "Europe/London"}, {"fsq_id": "4c829e74e602b1f703549e7a", "categories": [{"id": 13199, "name": "Indian Restaurant", "short_name": "Indian", "plural_name": "Indian Restaurants", "icon": {"prefix": "https://ss3.4sqi.net/img/categories_v2/food/indian_", "suffix": ".png"}}], "chains": [], "closed_bucket": "VeryLikelyOpen", "distance": 95, "geocodes": {"main": {"latitude": 55.855214, "longitude": -4.275586}, "roof": {"latitude": 55.855214, "longitude": -4.275586}}, "link": "/v3/places/4c829e74e602b1f703549e7a", "location": {"address": "Springfield Quay", "country": "GB", "cross_street": "Paisley Rd", "formatted_address": "Springfield Quay (Paisley Rd)"}, "name": "Ashoka", "related_places": {}, "timezone": "Europe/London"}, {"fsq_id": "620a9876779d115bc147d7cf", "categories": [{"id": 13036, "name": "Tea Room", "short_name": "Tea Room", "plural_name": "Tea Rooms", "icon": {"prefix": "https://ss3.4sqi.net/img/categories_v2/food/tearoom_", "suffix": ".png"}}, {"id": 13199, "name": "Indian Restaurant", "short_name": "Indian", "plural_name": "Indian Restaurants", "icon": {"prefix": "https://ss3.4sqi.net/img/categories_v2/food/indian_", "suffix": ".png"}}], "chains": [], "closed_bucket": "LikelyOpen", "distance": 99, "geocodes": {"main": {"latitude": 55.855147, "longitude": -4.274918}, "roof": {"latitude": 55.855147, "longitude": -4.274918}}, "link": "/v3/places/620a9876779d115bc147d7cf", "location": {"address": "Unit D2, Springfield Quay, Paisley Rd", "admin_region": "Scotland", "country": "GB", "cross_street": "", "formatted_address": "Unit D2, Springfield Quay, Paisley Rd, Glasgow, Glasgow City, G5 8NP", "locality": "Glasgow", "post_town": "Glasgow", "postcode": "G5 8NP", "region": "Glasgow City"}, "name": "Chaiiwala", "related_places": {}, "timezone": "Europe/London"}, {"fsq_id": "4d6aca35d2596ea8ed536a20", "categories": [{"id": 13199, "name": "Indian Restaurant", "short_name": "Indian", "plural_name": "Indian Restaurants", "icon": {"prefix": "https://ss3.4sqi.net/img/categories_v2/food/indian_", "suffix": ".png"}}], "chains": [], "closed_bucket": "VeryLikelyOpen", "distance": 197, "geocodes": {"drop_off": {"latitude": 55.85369, "longitude": -4.277753}, "main": {"latitude": 55.853826, "longitude": -4.277751}, "roof": {"latitude": 55.853826, "longitude": -4.277751}}, "link": "/v3/places/4d6aca35d2596ea8ed536a20", "location": {"admin_region": "Scotland", "country": "GB", "cross_street": "", "formatted_address": "", "post_town": "Glasgow"}, "name": "Abi's Mr. India", "related_places": {}, "timezone": "Europe/London"}, {"fsq_id": "4e468dca62e148603b735d92", "categories": [{"id": 13003, "name": "Bar", "short_name": "Bar", "plural_name": "Bars", "icon": {"prefix": "https://ss3.4sqi.net/img/categories_v2/nightlife/pub_", "suffix": ".png"}}], "chains": [], "closed_bucket": "VeryLikelyOpen", "distance": 236, "geocodes": {"main": {"latitude": 55.85359, "longitude": -4.278199}, "roof": {"latitude": 55.85359, "longitude": -4.278199}}, "link": "/v3/places/4e468dca62e148603b735d92", "location": {"country": "GB", "cross_street": "", "formatted_address": "Glasgow, Glasgow City", "locality": "Glasgow", "post_town": "Glasgow", "region": "Glasgow City"}, "name": "The Angel Bar", "related_places": {}, "timezone": "Europe/London"}, {"fsq_id": "4be3ed45f07b0f47721bf943", "categories": [{"id": 13003, "name": "Bar", "short_name": "Bar", "plural_name": "Bars", "icon": {"prefix": "https://ss3.4sqi.net/img/categories_v2/nightlife/pub_", "suffix": ".png"}}], "chains": [], "closed_bucket": "LikelyOpen", "distance": 242, "geocodes": {"main": {"latitude": 55.853882, "longitude": -4.278629}, "roof": {"latitude": 55.853882, "longitude": -4.278629}}, "link": "/v3/places/4be3ed45f07b0f47721bf943", "location": {"address": "2-4 Govan Rd", "admin_region": "Scotland", "country": "GB", "formatted_address": "2-4 Govan Rd, Glasgow, Glasgow City, G51 1HS", "locality": "Glasgow", "post_town": "Glasgow", "postcode": "G51 1HS", "region": "Glasgow City"}, "name": "Grand Ole Opry", "related_places": {}, "timezone": "Europe/London"}, {"fsq_id": "4bd80fbf0b779c744d4706a0", "categories": [{"id": 13009, "name": "Cocktail Bar", "short_name": "Cocktail", "plural_name": "Cocktail Bars", "icon": {"prefix": "https://ss3.4sqi.net/img/categories_v2/nightlife/cocktails_", "suffix": ".png"}}], "chains": [], "closed_bucket": "VeryLikelyOpen", "distance": 247, "geocodes": {"main": {"latitude": 55.852387, "longitude": -4.2762}, "roof": {"latitude": 55.852387, "longitude": -4.2762}}, "link": "/v3/places/4bd80fbf0b779c744d4706a0", "location": {"admin_region": "Scotland", "country": "GB", "cross_street": "", "formatted_address": "Glasgow, Glasgow City, G5 8RS", "locality": "Glasgow", "post_town": "Glasgow", "postcode": "G5 8RS", "region": "Glasgow City"}, "name": "LA Bartenders", "related_places": {}, "timezone": "Europe/London"}, {"fsq_id": "4f0de049e4b01660dcf9bfa4", "categories": [{"id": 13199, "name": "Indian Restaurant", "short_name": "Indian", "plural_name": "Indian Restaurants", "icon": {"prefix": "https://ss3.4sqi.net/img/categories_v2/food/indian_", "suffix": ".png"}}], "chains": [], "closed_bucket": "LikelyOpen", "distance": 276, "geocodes": {"main": {"latitude": 55.852412, "longitude": -4.277602}, "roof": {"latitude": 55.852412, "longitude": -4.277602}}, "link": "/v3/places/4f0de049e4b01660dcf9bfa4", "location": {"address": "64 Seaward St", "admin_region": "Scotland", "country": "GB", "cross_street": "", "formatted_address": "64 Seaward St, Glasgow, G41 1HJ", "locality": "Glasgow", "post_town": "Glasgow", "postcode": "G41 1HJ"}, "name": "Kabana Restaurant", "related_places": {}, "timezone": "Europe/London"}, {"fsq_id": "4c543e9230f92d7f9bb41bba", "categories": [{"id": 13018, "name": "Pub", "short_name": "Pub", "plural_name": "Pubs", "icon": {"prefix": "https://ss3.4sqi.net/img/categories_v2/nightlife/pub_", "suffix": ".png"}}], "chains": [], "closed_bucket": "Unsure", "distance": 276, "geocodes": {"main": {"latitude": 55.853784, "longitude": -4.277575}, "roof": {"latitude": 55.853784, "longitude": -4.277575}}, "link": "/v3/places/4c543e9230f92d7f9bb41bba", "location": {"address": "464-466 Paisley Rd", "admin_region": "Scotland", "country": "GB", "formatted_address": "464-466 Paisley Rd, Glasgow, Glasgow City, G5 8RE", "locality": "Glasgow", "post_town": "Glasgow", "postcode": "G5 8RE", "region": "Glasgow City"}, "name": "Quayside", "related_places": {}, "timezone": "Europe/London"}, {"fsq_id": "4e6a692cb61cc3728d9519d2", "categories": [{"id": 13025, "name": "Wine Bar", "short_name": "Wine Bar", "plural_name": "Wine Bars", "icon": {"prefix": "https://ss3.4sqi.net/img/categories_v2/food/winery_", "suffix": ".png"}}], "chains": [], "closed_bucket": "LikelyOpen", "distance": 279, "geocodes": {"main": {"latitude": 55.853506, "longitude": -4.279668}, "roof": {"latitude": 55.853506, "longitude": -4.279668}}, "link": "/v3/places/4e6a692cb61cc3728d9519d2", "location": {"address": "1-3 Paisley Rd West", "admin_region": "Scotland", "country": "GB", "cross_street": "", "formatted_address": "1-3 Paisley Rd West, Glasgow, Glasgow City, G51 1LF", "locality": "Glasgow", "post_town": "Glasgow", "postcode": "G51 1LF", "region": "Glasgow City"}, "name": "The Old Toll Bar", "related_places": {}, "timezone": "Europe/London"}, {"fsq_id": "57058f4acd100bc677fa2089", "categories": [{"id": 13142, "name": "English Restaurant", "short_name": "English", "plural_name": "English Restaurants", "icon": {"prefix": "https://ss3.4sqi.net/img/categories_v2/food/default_", "suffix": ".png"}}], "chains": [], "closed_bucket": "VeryLikelyOpen", "distance": 622, "geocodes": {"main": {"latitude": 55.859105, "longitude": -4.269258}, "roof": {"latitude": 55.859105, "longitude": -4.269258}}, "link": "/v3/places/57058f4acd100bc677fa2089", "location": {"country": "GB", "cross_street": "", "formatted_address": ""}, "name": "Brasserie", "related_places": {"parent": {"fsq_id": "56254fc1498e5c23f35e57d6", "categories": [{"id": 19014, "name": "Hotel", "short_name": "Hotel", "plural_name": "Hotels", "icon": {"prefix": "https://ss3.4sqi.net/img/categories_v2/travel/hotel_", "suffix": ".png"}}], "name": "Hallmark Hotel Glasgow"}}, "timezone": "Europe/London"}, {"fsq_id": "5979cf38747ecd2ae6a2fdac", "categories": [{"id": 13065, "name": "Restaurant", "short_name": "Restaurant", "plural_name": "Restaurants", "icon": {"prefix": "https://ss3.4sqi.net/img/categories_v2/food/default_", "suffix": ".png"}}], "chains": [], "closed_bucket": "LikelyOpen", "distance": 626, "geocodes": {"main": {"latitude": 55.857931, "longitude": -4.282433}, "roof": {"latitude": 55.857931, "longitude": -4.282433}}, "link": "/v3/places/5979cf38747ecd2ae6a2fdac", "location": {"address": "Finnieston Quay", "admin_region": "Scotland", "country": "GB", "cross_street": "", "formatted_address": "Finnieston Quay, Glasgow, Glasgow City, G3 8HN", "locality": "Glasgow", "post_town": "Glasgow", "postcode": "G3 8HN", "region": "Glasgow City"}, "name": "Recess", "related_places": {"parent": {"fsq_id": "4f3fcd07e4b06010fc18ad01", "categories": [{"id": 19014, "name": "Hotel", "short_name": "Hotel", "plural_name": "Hotels", "icon": {"prefix": "https://ss3.4sqi.net/img/categories_v2/travel/hotel_", "suffix": ".png"}}], "name": "Hilton Garden Inn Glasgow City Centre"}}, "timezone": "Europe/London"}, {"fsq_id": "5b099a55b399f7002cd7bb21", "categories": [{"id": 13003, "name": "Bar", "short_name": "Bar", "plural_name": "Bars", "icon": {"prefix": "https://ss3.4sqi.net/img/categories_v2/nightlife/pub_", "suffix": ".png"}}, {"id": 13065, "name": "Restaurant", "short_name": "Restaurant", "plural_name": "Restaurants", "icon": {"prefix": "https://ss3.4sqi.net/img/categories_v2/food/default_", "suffix": ".png"}}], "chains": [], "closed_bucket": "VeryLikelyOpen", "distance": 644, "geocodes": {"drop_off": {"latitude": 55.858101, "longitude": -4.282673}, "main": {"latitude": 55.85829, "longitude": -4.28262}, "roof": {"latitude": 55.85829, "longitude": -4.28262}}, "link": "/v3/places/5b099a55b399f7002cd7bb21", "location": {"address": "Finnieston Quay", "admin_region": "Scotland", "country": "GB", "cross_street": "", "formatted_address": "Finnieston Quay, Glasgow, Glasgow City, G3 8HN", "locality": "Glasgow", "post_town": "Glasgow", "postcode": "G3 8HN", "region": "Glasgow City"}, "name": "OUIBar + KTCHN", "related_places": {"parent": {"fsq_id": "5af167bc6adbf5002c4339d2", "categories": [{"id": 19014, "name": "Hotel", "short_name": "Hotel", "plural_name": "Hotels", "icon": {"prefix": "https://ss3.4sqi.net/img/categories_v2/travel/hotel_", "suffix": ".png"}}], "name": "Radisson RED Glasgow"}}, "timezone": "Europe/London"}, {"fsq_id": "4f10b460e4b09e81d7e58920", "categories": [{"id": 13003, "name": "Bar", "short_name": "Bar", "plural_name": "Bars", "icon": {"prefix": "https://ss3.4sqi.net/img/categories_v2/nightlife/pub_", "suffix": ".png"}}, {"id": 17134, "name": "Tobacco Store", "short_name": "Tobacco Store", "plural_name": "Tobacco Stores", "icon": {"prefix": "https://ss3.4sqi.net/img/categories_v2/shops/tobacco_", "suffix": ".png"}}], "chains": [], "closed_bucket": "VeryLikelyOpen", "distance": 646, "geocodes": {"main": {"latitude": 55.8523, "longitude": -4.26481}, "roof": {"latitude": 55.8523, "longitude": -4.26481}}, "link": "/v3/places/4f10b460e4b09e81d7e58920", "location": {"address": "155 Wallace St", "country": "GB", "cross_street": "", "formatted_address": "155 Wallace St, Glasgow, Glasgow City", "locality": "Glasgow", "post_town": "Glasgow", "region": "Glasgow City"}, "name": "Lime light shisha", "related_places": {}, "timezone": "Europe/London"}, {"fsq_id": "522e6ffa61fc96df51d2d674", "categories": [{"id": 13065, "name": "Restaurant", "short_name": "Restaurant", "plural_name": "Restaurants", "icon": {"prefix": "https://ss3.4sqi.net/img/categories_v2/food/default_", "suffix": ".png"}}], "chains": [], "closed_bucket": "LikelyOpen", "distance": 682, "geocodes": {"drop_off": {"latitude": 55.858807, "longitude": -4.28199}, "main": {"latitude": 55.859011, "longitude": -4.281976}, "roof": {"latitude": 55.859011, "longitude": -4.281976}}, "link": "/v3/places/522e6ffa61fc96df51d2d674", "location": {"address": "28 Tunnel St", "admin_region": "Scotland", "country": "GB", "formatted_address": "28 Tunnel St, Glasgow, G3 8HL", "locality": "Glasgow", "post_town": "Glasgow", "postcode": "G3 8HL"}, "name": "Rotunda Bar and Diner", "related_places": {}, "timezone": "Europe/London"}, {"fsq_id": "59e4f4ba4a1cc07f8b51f69d", "categories": [{"id": 13016, "name": "Lounge", "short_name": "Lounge", "plural_name": "Lounges", "icon": {"prefix": "https://ss3.4sqi.net/img/categories_v2/nightlife/default_", "suffix": ".png"}}], "chains": [], "closed_bucket": "VeryLikelyOpen", "distance": 724, "geocodes": {"main": {"latitude": 55.859833, "longitude": -4.26851}, "roof": {"latitude": 55.859833, "longitude": -4.26851}}, "link": "/v3/places/59e4f4ba4a1cc07f8b51f69d", "location": {"address": "Marriott Hotel", "admin_region": "Scotland", "country": "GB", "cross_street": "", "formatted_address": "Marriott Hotel, Glasgow, Glasgow City, G3 8RR", "locality": "Glasgow", "post_town": "Glasgow", "postcode": "G3 8RR", "region": "Glasgow City"}, "name": "The Brew Bar Lounge", "related_places": {"parent": {"fsq_id": "4b76346af964a5201a432ee3", "categories": [{"id": 19014, "name": "Hotel", "short_name": "Hotel", "plural_name": "Hotels", "icon": {"prefix": "https://ss3.4sqi.net/img/categories_v2/travel/hotel_", "suffix": ".png"}}], "name": "Marriott Hotels & Resorts"}}, "timezone": "Europe/London"}, {"fsq_id": "63c1ba397a445e65639e6469", "categories": [{"id": 13337, "name": "Scottish Restaurant", "short_name": "Scottish", "plural_name": "Scottish Restaurants", "icon": {"prefix": "https://ss3.4sqi.net/img/categories_v2/food/default_", "suffix": ".png"}}], "chains": [], "closed_bucket": "VeryLikelyOpen", "distance": 802, "geocodes": {"drop_off": {"latitude": 55.855147, "longitude": -4.262064}, "main": {"latitude": 55.854931, "longitude": -4.262088}, "roof": {"latitude": 55.854931, "longitude": -4.262088}}, "link": "/v3/places/63c1ba397a445e65639e6469", "location": {"address": "1-4 Clyde Pl", "admin_region": "Scotland", "country": "GB", "cross_street": "", "formatted_address": "1-4 Clyde Pl, Glasgow, Glasgow City, G5 8DP", "locality": "Glasgow", "post_town": "Glasgow", "postcode": "G5 8DP", "region": "Glasgow City"}, "name": "Beacon Clubhouse", "related_places": {"parent": {"fsq_id": "6166bc458c4164034f8c7ad4", "categories": [{"id": 11124, "name": "Office", "short_name": "Office", "plural_name": "Offices", "icon": {"prefix": "https://ss3.4sqi.net/img/categories_v2/building/default_", "suffix": ".png"}}], "name": "Barclays Glasgow Campus"}}, "timezone": "Europe/London"}, {"fsq_id": "5aada5cddee770732c3ce4aa", "categories": [{"id": 13013, "name": "Hotel Bar", "short_name": "Hotel Bar", "plural_name": "Hotel Bars", "icon": {"prefix": "https://ss3.4sqi.net/img/categories_v2/travel/hotel_bar_", "suffix": ".png"}}], "chains": [], "closed_bucket": "VeryLikelyOpen", "distance": 850, "geocodes": {"main": {"latitude": 55.861423, "longitude": -4.269259}, "roof": {"latitude": 55.861423, "longitude": -4.269259}}, "link": "/v3/places/5aada5cddee770732c3ce4aa", "location": {"admin_region": "Scotland", "country": "GB", "cross_street": "", "formatted_address": "Glasgow, Glasgow City, G3 8HT", "locality": "Glasgow", "post_town": "Glasgow", "postcode": "G3 8HT", "region": "Glasgow City"}, "name": "Whisky Mist", "related_places": {"parent": {"fsq_id": "4b705970f964a5207c142de3", "categories": [{"id": 19014, "name": "Hotel", "short_name": "Hotel", "plural_name": "Hotels", "icon": {"prefix": "https://ss3.4sqi.net/img/categories_v2/travel/hotel_", "suffix": ".png"}}], "name": "Hilton Glasgow"}}, "timezone": "Europe/London"}, {"fsq_id": "60a2a672d52ce00947aa397a", "categories": [{"id": 13018, "name": "Pub", "short_name": "Pub", "plural_name": "Pubs", "icon": {"prefix": "https://ss3.4sqi.net/img/categories_v2/nightlife/pub_", "suffix": ".png"}}, {"id": 13065, "name": "Restaurant", "short_name": "Restaurant", "plural_name": "Restaurants", "icon": {"prefix": "https://ss3.4sqi.net/img/categories_v2/food/default_", "suffix": ".png"}}], "chains": [], "closed_bucket": "LikelyOpen", "distance": 852, "geocodes": {"drop_off": {"latitude": 55.858971, "longitude": -4.263632}, "main": {"latitude": 55.858846, "longitude": -4.263644}, "roof": {"latitude": 55.858846, "longitude": -4.263644}}, "link": "/v3/places/60a2a672d52ce00947aa397a", "location": {"address": "363 Argyle St", "admin_region": "Scotland", "country": "GB", "cross_street": "", "formatted_address": "363 Argyle St, Glasgow, Glasgow City, G2 8LT", "locality": "Glasgow", "post_town": "Glasgow", "postcode": "G2 8LT", "region": "Glasgow City"}, "name": "The Duke\u2019s Umbrella", "related_places": {}, "timezone": "Europe/London"}, {"fsq_id": "4eff394ac2ee2cc870ce8727", "categories": [{"id": 13099, "name": "Chinese Restaurant", "short_name": "Chinese", "plural_name": "Chinese Restaurants", "icon": {"prefix": "https://ss3.4sqi.net/img/categories_v2/food/asian_", "suffix": ".png"}}, {"id": 13145, "name": "Fast Food Restaurant", "short_name": "Fast Food", "plural_name": "Fast Food Restaurants", "icon": {"prefix": "https://ss3.4sqi.net/img/categories_v2/food/fastfood_", "suffix": ".png"}}], "chains": [], "closed_bucket": "Unsure", "distance": 857, "geocodes": {"main": {"latitude": 55.852801, "longitude": -4.288302}, "roof": {"latitude": 55.852801, "longitude": -4.288302}}, "link": "/v3/places/4eff394ac2ee2cc870ce8727", "location": {"address": "12 Lorne St", "admin_region": "Scotland", "country": "GB", "formatted_address": "12 Lorne St, Glasgow, Glasgow City, G51 1DP", "locality": "Glasgow", "post_town": "Glasgow", "postcode": "G51 1DP", "region": "Glasgow City"}, "name": "Golden City", "related_places": {}, "timezone": "Europe/London"}, {"fsq_id": "4f846259e4b0422a017948aa", "categories": [{"id": 13145, "name": "Fast Food Restaurant", "short_name": "Fast Food", "plural_name": "Fast Food Restaurants", "icon": {"prefix": "https://ss3.4sqi.net/img/categories_v2/food/fastfood_", "suffix": ".png"}}], "chains": [], "closed_bucket": "LikelyOpen", "distance": 874, "geocodes": {"main": {"latitude": 55.852486, "longitude": -4.288292}, "roof": {"latitude": 55.852486, "longitude": -4.288292}}, "link": "/v3/places/4f846259e4b0422a017948aa", "location": {"address": "240-242 Paisley Rd West", "admin_region": "Scotland", "country": "GB", "cross_street": "", "formatted_address": "240-242 Paisley Rd West, Glasgow, G51 1BU", "locality": "Glasgow", "post_town": "Glasgow", "postcode": "G51 1BU"}, "name": "Chicken Choice", "related_places": {}, "timezone": "Europe/London"}, {"fsq_id": "52d99e9b498e5140a1fae25e", "categories": [{"id": 13003, "name": "Bar", "short_name": "Bar", "plural_name": "Bars", "icon": {"prefix": "https://ss3.4sqi.net/img/categories_v2/nightlife/pub_", "suffix": ".png"}}], "chains": [], "closed_bucket": "VeryLikelyOpen", "distance": 912, "geocodes": {"main": {"latitude": 55.859748, "longitude": -4.285679}, "roof": {"latitude": 55.859748, "longitude": -4.285679}}, "link": "/v3/places/52d99e9b498e5140a1fae25e", "location": {"country": "GB", "cross_street": "", "formatted_address": ""}, "name": "The Hydro Club", "related_places": {"parent": {"fsq_id": "4ecfe4e68b81b47395e67c15", "categories": [{"id": 10037, "name": "Concert Hall", "short_name": "Concert Hall", "plural_name": "Concert Halls", "icon": {"prefix": "https://ss3.4sqi.net/img/categories_v2/arts_entertainment/musicvenue_", "suffix": ".png"}}, {"id": 10039, "name": "Music Venue", "short_name": "Music Venue", "plural_name": "Music Venues", "icon": {"prefix": "https://ss3.4sqi.net/img/categories_v2/arts_entertainment/musicvenue_", "suffix": ".png"}}, {"id": 11039, "name": "Event Space", "short_name": "Event Space", "plural_name": "Event Spaces", "icon": {"prefix": "https://ss3.4sqi.net/img/categories_v2/building/eventspace_", "suffix": ".png"}}], "name": "The SSE Hydro"}}, "timezone": "Europe/London"}, {"fsq_id": "4be1ccf04283c9b6808954f8", "categories": [{"id": 13010, "name": "Dive Bar", "short_name": "Dive Bar", "plural_name": "Dive Bars", "icon": {"prefix": "https://ss3.4sqi.net/img/categories_v2/nightlife/divebar_", "suffix": ".png"}}], "chains": [], "closed_bucket": "LikelyOpen", "distance": 941, "geocodes": {"main": {"latitude": 55.85242, "longitude": -4.289446}, "roof": {"latitude": 55.85242, "longitude": -4.289446}}, "link": "/v3/places/4be1ccf04283c9b6808954f8", "location": {"address": "252 Paisley Rd West", "admin_region": "Scotland", "country": "GB", "cross_street": "", "formatted_address": "252 Paisley Rd West, Glasgow, Glasgow City, G51 1BS", "locality": "Glasgow", "post_town": "Glasgow", "postcode": "G51 1BS", "region": "Glasgow City"}, "name": "District Bar", "related_places": {}, "timezone": "Europe/London"}, {"fsq_id": "4dc3d3c218387d1bd512867f", "categories": [{"id": 13034, "name": "Caf\u00e9", "short_name": "Caf\u00e9", "plural_name": "Caf\u00e9s", "icon": {"prefix": "https://ss3.4sqi.net/img/categories_v2/food/cafe_", "suffix": ".png"}}, {"id": 13035, "name": "Coffee Shop", "short_name": "Coffee Shop", "plural_name": "Coffee Shops", "icon": {"prefix": "https://ss3.4sqi.net/img/categories_v2/food/coffeeshop_", "suffix": ".png"}}, {"id": 13065, "name": "Restaurant", "short_name": "Restaurant", "plural_name": "Restaurants", "icon": {"prefix": "https://ss3.4sqi.net/img/categories_v2/food/default_", "suffix": ".png"}}], "chains": [], "closed_bucket": "VeryLikelyOpen", "distance": 942, "geocodes": {"main": {"latitude": 55.85242, "longitude": -4.289446}, "roof": {"latitude": 55.85242, "longitude": -4.289446}}, "link": "/v3/places/4dc3d3c218387d1bd512867f", "location": {"address": "4-8 Harvie St", "admin_region": "Scotland", "country": "GB", "formatted_address": "4-8 Harvie St, Glasgow, Glasgow City, G51 1BW", "locality": "Glasgow", "post_town": "Glasgow", "postcode": "G51 1BW", "region": "Glasgow City"}, "name": "Kinning Perk", "related_places": {}, "timezone": "Europe/London"}, {"fsq_id": "6eaa13dcc4144b81503d6190", "categories": [{"id": 13065, "name": "Restaurant", "short_name": "Restaurant", "plural_name": "Restaurants", "icon": {"prefix": "https://ss3.4sqi.net/img/categories_v2/food/default_", "suffix": ".png"}}], "chains": [], "closed_bucket": "LikelyOpen", "distance": 975, "geocodes": {"drop_off": {"latitude": 55.8457, "longitude": -4.275152}, "main": {"latitude": 55.845614, "longitude": -4.274871}, "roof": {"latitude": 55.845614, "longitude": -4.274871}}, "link": "/v3/places/6eaa13dcc4144b81503d6190", "location": {"address": "407 Shields Rd", "admin_region": "Scotland", "country": "GB", "formatted_address": "407 Shields Rd, Glasgow, Glasgow City, G41 1NY", "locality": "Glasgow", "post_town": "Glasgow", "postcode": "G41 1NY", "region": "Glasgow City"}, "name": "Jay's Gelato", "related_places": {}, "timezone": "Europe/London"}, {"fsq_id": "5e5d68cb6f5546000826e6c1", "categories": [{"id": 13191, "name": "Halal Restaurant", "short_name": "Halal", "plural_name": "Halal Restaurants", "icon": {"prefix": "https://ss3.4sqi.net/img/categories_v2/food/halal_", "suffix": ".png"}}], "chains": [], "closed_bucket": "VeryLikelyOpen", "distance": 1011, "geocodes": {"main": {"latitude": 55.853909, "longitude": -4.258763}, "roof": {"latitude": 55.853909, "longitude": -4.258763}}, "link": "/v3/places/5e5d68cb6f5546000826e6c1", "location": {"admin_region": "Scotland", "country": "GB", "cross_street": "", "formatted_address": "Glasgow, Glasgow City, G5 9HR", "locality": "Glasgow", "post_town": "Glasgow", "postcode": "G5 9HR", "region": "Glasgow City"}, "name": "Palmtree Kitchen", "related_places": {}, "timezone": "Europe/London"}, {"fsq_id": "eeb2c44d771043ecff5eff32", "categories": [{"id": 13003, "name": "Bar", "short_name": "Bar", "plural_name": "Bars", "icon": {"prefix": "https://ss3.4sqi.net/img/categories_v2/nightlife/pub_", "suffix": ".png"}}], "chains": [], "closed_bucket": "Unsure", "distance": 653, "geocodes": {"main": {"latitude": 55.857009, "longitude": -4.265375}, "roof": {"latitude": 55.857009, "longitude": -4.265375}}, "link": "/v3/places/eeb2c44d771043ecff5eff32", "location": {"address": "9 Brown St", "admin_region": "Scotland", "country": "GB", "formatted_address": "9 Brown St, Glasgow", "locality": "Glasgow", "post_town": "Glasgow"}, "name": "Rat Trap Rock Club - Glasgow", "related_places": {}}], "context": {"geo_bounds": {"circle": {"center": {"latitude": 55.854391, "longitude": -4.274764}, "radius": 1000}}}}