{"results": [{"fsq_id": "5d73c64be6ad7400086dc5f2", "categories": [{"id": 13039, "name": "Deli", "short_name": "Deli", "plural_name": "Delis", "icon": {"prefix": "https://ss3.4sqi.net/img/categories_v2/food/deli_", "suffix": ".png"}}, {"id": 13145, "name": "Fast Food Restaurant", "short_name": "Fast Food", "plural_name": "Fast Food Restaurants", "icon": {"prefix": "https://ss3.4sqi.net/img/categories_v2/food/fastfood_", "suffix": ".png"}}, {"id": 13334, "name": "Sandwich Spot", "short_name": "Sandwich Spot", "plural_name": "Sandwich Spots", "icon": {"prefix": "https://ss3.4sqi.net/img/categories_v2/food/deli_", "suffix": ".png"}}], "chains": [{"id": "ab4bee40-d68a-012e-5619-003048cad9da", "name": "Subway"}], "closed_bucket": "VeryLikelyOpen", "distance": 970, "geocodes": {"drop_off": {"latitude": 55.873939, "longitude": -4.229034}, "front_door": {"latitude": 55.873513, "longitude": -4.229927}, "main": {"latitude": 55.873513, "longitude": -4.229927}, "roof": {"latitude": 55.873555, "longitude": -4.230028}}, "link": "/v3/places/5d73c64be6ad7400086dc5f2", "location": {"address": "Tesco Extra, Cobden Rd", "admin_region": "Scotland", "country": "GB", "cross_street": "Cobden Road", "formatted_address": "Tesco Extra, Cobden Rd (Cobden Road), Glasgow, Glasgow City, G21 1YL", "locality": "Glasgow", "post_town": "Glasgow", "postcode": "G21 1YL", "region": "Glasgow City"}, "name": "Subway", "related_places": {}, "timezone": "Europe/London"}, {"fsq_id": "4d876a91651041bd53339b30", "categories": [{"id": 13039, "name": "Deli", "short_name": "Deli", "plural_name": "Delis", "icon": {"prefix": "https://ss3.4sqi.net/img/categories_v2/food/deli_", "suffix": ".png"}}, {"id": 13145, "name": "Fast Food Restaurant", "short_name": "Fast Food", "plural_name": "Fast Food Restaurants", "icon": {"prefix": "https://ss3.4sqi.net/img/categories_v2/food/fastfood_", "suffix": ".png"}}, {"id": 13334, "name": "Sandwich Spot", "short_name": "Sandwich Spot", "plural_name": "Sandwich Spots", "icon": {"prefix": "https://ss3.4sqi.net/img/categories_v2/food/deli_", "suffix": ".png"}}], "chains": [{"id": "ab4bee40-d68a-012e-5619-003048cad9da", "name": "Subway"}], "closed_bucket": "VeryLikelyOpen", "distance": 209, "geocodes": {"main": {"latitude": 55.883469, "longitude": -4.227906}, "roof": {"latitude": 55.883469, "longitude": -4.227906}}, "link": "/v3/places/4d876a91651041bd53339b30", "location": {"address": "230 Springburn Way", "address_extended": "Unit 3", "admin_region": "Scotland", "country": "GB", "cross_street": "230 Springburn Way", "formatted_address": "230 Springburn Way (230 Springburn Way), Glasgow, G21 1TS", "locality": "Glasgow", "post_town": "Glasgow", "postcode": "G21 1TS"}, "name": "Subway", "related_places": {}, "timezone": "Europe/London"}, {"fsq_id": "efae4c44f04a426799399b19", "categories": [{"id": 13065, "name": "Restaurant", "short_name": "Restaurant", "plural_name": "Restaurants", "icon": {"prefix": "https://ss3.4sqi.net/img/categories_v2/food/default_", "suffix": ".png"}}], "chains": [], "closed_bucket": "VeryLikelyOpen", "distance": 16, "geocodes": {"main": {"latitude": 55.882375, "longitude": -4.230502}, "roof": {"latitude": 55.882375, "longitude": -4.230502}}, "link": "/v3/places/efae4c44f04a426799399b19", "location": {"address": "163 Springburn Way", "admin_region": "Scotland", "country": "GB", "formatted_address": "163 Springburn Way, Glasgow, G21 1DT", "locality": "Glasgow", "post_town": "Glasgow", "postcode": "G21 1DT"}, "name": "Atwals Fish and Chicken Bar", "related_places": {}, "timezone": "Europe/London"}, {"fsq_id": "52487b5811d27f0496d8db5e", "categories": [{"id": 13099, "name": "Chinese Restaurant", "short_name": "Chinese", "plural_name": "Chinese Restaurants", "icon": {"prefix": "https://ss3.4sqi.net/img/categories_v2/food/asian_", "suffix": ".png"}}, {"id": 13145, "name": "Fast Food Restaurant", "short_name": "Fast Food", "plural_name": "Fast Food Restaurants", "icon": {"prefix": "https://ss3.4sqi.net/img/categories_v2/food/fastfood_", "suffix": ".png"}}], "chains": [], "closed_bucket": "VeryLikelyOpen", "distance": 63, "geocodes": {"main": {"latitude": 55.882726, "longitude": -4.229882}, "roof": {"latitude": 55.882726, "longitude": -4.229882}}, "link": "/v3/places/52487b5811d27f0496d8db5e", "location": {"address": "209 Springburn Way", "admin_region": "Scotland", "country": "GB", "cross_street": "", "formatted_address": "209 Springburn Way, Glasgow, Glasgow City, G21 1DU", "locality": "Glasgow", "post_town": "Glasgow", "postcode": "G21 1DU", "region": "Glasgow City"}, "name": "Oriental Cuisine", "related_places": {}, "timezone": "Europe/London"}, {"fsq_id": "4e72f75c45dd41e9ccb9a2e9", "categories": [{"id": 13034, "name": "Caf\u00e9", "short_name": "Caf\u00e9", "plural_name": "Caf\u00e9s", "icon": {"prefix": "https://ss3.4sqi.net/img/categories_v2/food/cafe_", "suffix": ".png"}}, {"id": 13035, "name": "Coffee Shop", "short_name": "Coffee Shop", "plural_name": "Coffee Shops", "icon": {"prefix": "https://ss3.4sqi.net/img/categories_v2/food/coffeeshop_", "suffix": ".png"}}, {"id": 13065, "name": "Restaurant", "short_name": "Restaurant", "plural_name": "Restaurants", "icon": {"prefix": "https://ss3.4sqi.net/img/categories_v2/food/default_", "suffix": ".png"}}], "chains": [], "closed_bucket": "VeryLikelyOpen", "distance": 152, "geocodes": {"main": {"latitude": 55.883307, "longitude": -4.228918}, "roof": {"latitude": 55.883307, "longitude": -4.228918}}, "link": "/v3/places/4e72f75c45dd41e9ccb9a2e9", "location": {"address": "Springburn Shopping Centre 230 Springburn Way", "address_extended": "Unit 1", "admin_region": "Scotland", "country": "GB", "cross_street": "", "formatted_address": "Springburn Shopping Centre 230 Springburn Way, Glasgow, G21 1TS", "locality": "Glasgow", "post_town": "Glasgow", "postcode": "G21 1TS"}, "name": "Spring Cafe", "related_places": {}, "timezone": "Europe/London"}, {"fsq_id": "19acf2be2ccc464d6ad5fc5b", "categories": [{"id": 13145, "name": "Fast Food Restaurant", "short_name": "Fast Food", "plural_name": "Fast Food Restaurants", "icon": {"prefix": "https://ss3.4sqi.net/img/categories_v2/food/fastfood_", "suffix": ".png"}}], "chains": [], "closed_bucket": "LikelyOpen", "distance": 158, "geocodes": {"main": {"latitude": 55.881467, "longitude": -4.232578}, "roof": {"latitude": 55.881467, "longitude": -4.232578}}, "link": "/v3/places/19acf2be2ccc464d6ad5fc5b", "location": {"address": "94 Springburn Way", "admin_region": "Scotland", "country": "GB", "formatted_address": "94 Springburn Way, Glasgow, G21 1SL", "locality": "Glasgow", "post_town": "Glasgow", "postcode": "G21 1SL"}, "name": "Chakwal", "related_places": {}, "timezone": "Europe/London"}, {"fsq_id": "4cbafab7a33bb1f7187b91fd", "categories": [{"id": 13003, "name": "Bar", "short_name": "Bar", "plural_name": "Bars", "icon": {"prefix": "https://ss3.4sqi.net/img/categories_v2/nightlife/pub_", "suffix": ".png"}}], "chains": [], "closed_bucket": "VeryLikelyOpen", "distance": 192, "geocodes": {"main": {"latitude": 55.883939, "longitude": -4.229848}, "roof": {"latitude": 55.883939, "longitude": -4.229848}}, "link": "/v3/places/4cbafab7a33bb1f7187b91fd", "location": {"address": "Twechar Main St", "country": "GB", "cross_street": "", "formatted_address": "Twechar Main St, North Lanarkshire", "locality": "North Lanarkshire", "post_town": "Glasgow", "region": "North Lanarkshire"}, "name": "Twechar Miners Club", "related_places": {}, "timezone": "Europe/London"}, {"fsq_id": "3f510113fe65421fb84b0b8f", "categories": [{"id": 13199, "name": "Indian Restaurant", "short_name": "Indian", "plural_name": "Indian Restaurants", "icon": {"prefix": "https://ss3.4sqi.net/img/categories_v2/food/indian_", "suffix": ".png"}}], "chains": [], "closed_bucket": "VeryLikelyOpen", "distance": 548, "geocodes": {"main": {"latitude": 55.882455, "longitude": -4.221637}, "roof": {"latitude": 55.882455, "longitude": -4.221637}}, "link": "/v3/places/3f510113fe65421fb84b0b8f", "location": {"address": "361 Edgefauld Rd", "admin_region": "Scotland", "country": "GB", "formatted_address": "361 Edgefauld Rd, Glasgow, G21 4JY", "locality": "Glasgow", "post_town": "Glasgow", "postcode": "G21 4JY"}, "name": "Indian Times", "related_places": {}, "timezone": "Europe/London"}, {"fsq_id": "62cd6b62e4804737c6fca1ba", "categories": [{"id": 13030, "name": "Buffet", "short_name": "Buffet", "plural_name": "Buffets", "icon": {"prefix": "https://ss3.4sqi.net/img/categories_v2/food/default_", "suffix": ".png"}}, {"id": 13145, "name": "Fast Food Restaurant", "short_name": "Fast Food", "plural_name": "Fast Food Restaurants", "icon": {"prefix": "https://ss3.4sqi.net/img/categories_v2/food/fastfood_", "suffix": ".png"}}], "chains": [], "closed_bucket": "LikelyOpen", "distance": 550, "geocodes": {"drop_off": {"latitude": 55.882692, "longitude": -4.221937}, "main": {"latitude": 55.88277, "longitude": -4.221647}, "roof": {"latitude": 55.88277, "longitude": -4.221647}}, "link": "/v3/places/62cd6b62e4804737c6fca1ba", "location": {"address": "361 Edgefauld Rd", "admin_region": "Scotland", "country": "GB", "formatted_address": "361 Edgefauld Rd, Glasgow, Glasgow City, G21 4JY", "locality": "Glasgow", "post_town": "Glasgow", "postcode": "G21 4JY", "region": "Glasgow City"}, "name": "Chef's World Buffet", "related_places": {}, "timezone": "Europe/London"}, {"fsq_id": "cb1642f7573a447f6f26f4f3", "categories": [{"id": 13039, "name": "Deli", "short_name": "Deli", "plural_name": "Delis", "icon": {"prefix": "https://ss3.4sqi.net/img/categories_v2/food/deli_", "suffix": ".png"}}], "chains": [], "closed_bucket": "LikelyOpen", "distance": 644, "geocodes": {"main": {"latitude": 55.876544, "longitude": -4.2284}, "roof": {"latitude": 55.876544, "longitude": -4.2284}}, "link": "/v3/places/cb1642f7573a447f6f26f4f3", "location": {"address": "28 Laverockhall St", "admin_region": "Scotland", "country": "GB", "formatted_address": "28 Laverockhall St, Glasgow, G21 4AB", "locality": "Glasgow", "post_town": "Glasgow", "postcode": "G21 4AB"}, "name": "Subzi Spice", "related_places": {}, "timezone": "Europe/London"}, {"fsq_id": "7ffd9226f60d4a6175ec786a", "categories": [{"id": 13051, "name": "Fish and Chips Shop", "short_name": "Fish and Chips Shop", "plural_name": "Fish and Chips Shops", "icon": {"prefix": "https://ss3.4sqi.net/img/categories_v2/food/fishandchips_", "suffix": ".png"}}, {"id": 13338, "name": "Seafood Restaurant", "short_name": "Seafood", "plural_name": "Seafood Restaurants", "icon": {"prefix": "https://ss3.4sqi.net/img/categories_v2/food/seafood_", "suffix": ".png"}}], "chains": [], "closed_bucket": "Unsure", "distance": 663, "geocodes": {"main": {"latitude": 55.888132, "longitude": -4.232041}, "roof": {"latitude": 55.888132, "longitude": -4.232041}}, "link": "/v3/places/7ffd9226f60d4a6175ec786a", "location": {"address": "145-147 Balgrayhill Rd", "address_extended": "Unit 2", "admin_region": "Scotland", "country": "GB", "formatted_address": "145-147 Balgrayhill Rd, Glasgow, G21 3AF", "locality": "Glasgow", "post_town": "Glasgow", "postcode": "G21 3AF"}, "name": "The Wee Chippy", "related_places": {}, "timezone": "Europe/London"}, {"fsq_id": "4bc203b4920eb713bc741b2c", "categories": [{"id": 13099, "name": "Chinese Restaurant", "short_name": "Chinese", "plural_name": "Chinese Restaurants", "icon": {"prefix": "https://ss3.4sqi.net/img/categories_v2/food/asian_", "suffix": ".png"}}], "chains": [], "closed_bucket": "LikelyOpen", "distance": 685, "geocodes": {"main": {"latitude": 55.888495, "longitude": -4.231211}, "roof": {"latitude": 55.888495, "longitude": -4.231211}}, "link": "/v3/places/4bc203b4920eb713bc741b2c", "location": {"address": "143 Balgrayhill Rd", "admin_region": "Scotland", "country": "GB", "cross_street": "", "formatted_address": "143 Balgrayhill Rd, Glasgow, Glasgow City, G21 3AF", "locality": "Glasgow", "post_town": "Glasgow", "postcode": "G21 3AF", "region": "Glasgow City"}, "name": "Lilys Cuisine", "related_places": {}, "timezone": "Europe/London"}, {"fsq_id": "4b76e418f964a520b5672ee3", "categories": [{"id": 13099, "name": "Chinese Restaurant", "short_name": "Chinese", "plural_name": "Chinese Restaurants", "icon": {"prefix": "https://ss3.4sqi.net/img/categories_v2/food/asian_", "suffix": ".png"}}, {"id": 13145, "name": "Fast Food Restaurant", "short_name": "Fast Food", "plural_name": "Fast Food Restaurants", "icon": {"prefix": "https://ss3.4sqi.net/img/categories_v2/food/fastfood_", "suffix": ".png"}}], "chains": [], "closed_bucket": "VeryLikelyOpen", "distance": 717, "geocodes": {"main": {"latitude": 55.888598, "longitude": -4.231249}, "roof": {"latitude": 55.888598, "longitude": -4.231249}}, "link": "/v3/places/4b76e418f964a520b5672ee3", "location": {"address": "143 Balgrayhill Rd", "country": "GB", "formatted_address": "143 Balgrayhill Rd, Glasgow, Glasgow City", "locality": "Glasgow", "post_town": "Glasgow", "region": "Glasgow City"}, "name": "Curry Cuisine", "related_places": {}, "timezone": "Europe/London"}, {"fsq_id": "4bfa65e1b182c9b626367a5a", "categories": [{"id": 16007, "name": "Structure", "short_name": "Structure", "plural_name": "Structures", "icon": {"prefix": "https://ss3.4sqi.net/img/categories_v2/building/default_", "suffix": ".png"}}, {"id": 13065, "name": "Restaurant", "short_name": "Restaurant", "plural_name": "Restaurants", "icon": {"prefix": "https://ss3.4sqi.net/img/categories_v2/food/default_", "suffix": ".png"}}], "chains": [], "closed_bucket": "VeryLikelyOpen", "distance": 748, "geocodes": {"main": {"latitude": 55.883128, "longitude": -4.242301}, "roof": {"latitude": 55.883128, "longitude": -4.242301}}, "link": "/v3/places/4bfa65e1b182c9b626367a5a", "location": {"country": "GB", "cross_street": "", "formatted_address": ""}, "name": "Morrison Bowmore", "related_places": {}, "timezone": "Europe/London"}, {"fsq_id": "4c87acfed8086dcba517a452", "categories": [{"id": 13099, "name": "Chinese Restaurant", "short_name": "Chinese", "plural_name": "Chinese Restaurants", "icon": {"prefix": "https://ss3.4sqi.net/img/categories_v2/food/asian_", "suffix": ".png"}}], "chains": [], "closed_bucket": "VeryLikelyOpen", "distance": 859, "geocodes": {"main": {"latitude": 55.884694, "longitude": -4.217428}, "roof": {"latitude": 55.884694, "longitude": -4.217428}}, "link": "/v3/places/4c87acfed8086dcba517a452", "location": {"address": "560c Broomfield Rd", "admin_region": "Scotland", "country": "GB", "cross_street": "", "formatted_address": "560c Broomfield Rd, Glasgow, Glasgow City, G21 3HN", "locality": "Glasgow", "post_town": "Glasgow", "postcode": "G21 3HN", "region": "Glasgow City"}, "name": "Loman Chinese Takeaway", "related_places": {}, "timezone": "Europe/London"}, {"fsq_id": "f5948f71529d4e1830baa4f7", "categories": [{"id": 13003, "name": "Bar", "short_name": "Bar", "plural_name": "Bars", "icon": {"prefix": "https://ss3.4sqi.net/img/categories_v2/nightlife/pub_", "suffix": ".png"}}], "chains": [], "closed_bucket": "VeryLikelyOpen", "distance": 984, "geocodes": {"main": {"latitude": 55.886611, "longitude": -4.244019}, "roof": {"latitude": 55.886611, "longitude": -4.244019}}, "link": "/v3/places/f5948f71529d4e1830baa4f7", "location": {"address": "404 Hawthorn St", "admin_region": "Scotland", "country": "GB", "formatted_address": "404 Hawthorn St, Glasgow, G22 6RU", "locality": "Glasgow", "post_town": "Glasgow", "postcode": "G22 6RU"}, "name": "Ashfield Bar", "related_places": {}, "timezone": "Europe/London"}, {"fsq_id": "569fcd45498e50956b3d19a0", "categories": [{"id": 13051, "name": "Fish and Chips Shop", "short_name": "Fish and Chips Shop", "plural_name": "Fish and Chips Shops", "icon": {"prefix": "https://ss3.4sqi.net/img/categories_v2/food/fishandchips_", "suffix": ".png"}}], "chains": [], "closed_bucket": "VeryLikelyOpen", "distance": 984, "geocodes": {"main": {"latitude": 55.887102, "longitude": -4.243718}, "roof": {"latitude": 55.887102, "longitude": -4.243718}}, "link": "/v3/places/569fcd45498e50956b3d19a0", "location": {"address": "419 Hawthorn St", "admin_region": "Scotland", "country": "GB", "cross_street": "", "formatted_address": "419 Hawthorn St, Glasgow, G22 6EN", "locality": "Glasgow", "post_town": "Glasgow", "postcode": "G22 6EN"}, "name": "Vito's", "related_places": {}, "timezone": "Europe/London"}, {"fsq_id": "5d8129cb153d78000803fc12", "categories": [{"id": 13003, "name": "Bar", "short_name": "Bar", "plural_name": "Bars", "icon": {"prefix": "https://ss3.4sqi.net/img/categories_v2/nightlife/pub_", "suffix": ".png"}}], "chains": [], "closed_bucket": "LikelyOpen", "distance": 2496, "geocodes": {"drop_off": {"latitude": 55.881466, "longitude": -4.219914}, "main": {"latitude": 55.881658, "longitude": -4.219896}, "roof": {"latitude": 55.881658, "longitude": -4.219896}}, "link": "/v3/places/5d8129cb153d78000803fc12", "location": {"address": "Young Terrace", "admin_region": "Scotland", "country": "GB", "cross_street": "", "formatted_address": "Young Terrace, Glasgow, Glasgow City, G21 4LN", "locality": "Glasgow", "post_town": "Glasgow", "postcode": "G21 4LN", "region": "Glasgow City"}, "name": "High Spirits Mobile", "related_places": {}, "timezone": "Europe/London"}, {"fsq_id": "1bb62a0f656347344901d411", "categories": [{"id": 11043, "name": "Accounting and Bookkeeping Service", "short_name": "Accounting and Bookkeeping Service", "plural_name": "Accounting and Bookkeeping Services", "icon": {"prefix": "https://ss3.4sqi.net/img/categories_v2/building/default_", "suffix": ".png"}}, {"id": 13024, "name": "Whisky Bar", "short_name": "Whisky Bar", "plural_name": "Whisky Bars", "icon": {"prefix": "https://ss3.4sqi.net/img/categories_v2/nightlife/whiskey_", "suffix": ".png"}}, {"id": 13050, "name": "Distillery", "short_name": "Distillery", "plural_name": "Distilleries", "icon": {"prefix": "https://ss3.4sqi.net/img/categories_v2/food/brewery_", "suffix": ".png"}}], "chains": [], "closed_bucket": "Unsure", "distance": 711, "geocodes": {"main": {"latitude": 55.883321, "longitude": -4.241676}, "roof": {"latitude": 55.883321, "longitude": -4.241676}}, "link": "/v3/places/1bb62a0f656347344901d411", "location": {"address": "Springburn Bond, Carlisle St", "admin_region": "Scotland", "country": "GB", "formatted_address": "Springburn Bond, Carlisle St, Glasgow, G21 1EQ", "locality": "Glasgow", "post_town": "Glasgow", "postcode": "G21 1EQ"}, "name": "T. & A. Mcclelland Limited", "related_places": {}}], "context": {"geo_bounds": {"circle": {"center": {"latitude": 55.882232, "longitude": -4.230428}, "radius": 1000}}}}