{"results": [{"fsq_id": "19775f18ad2b4c0c10f433ed", "categories": [{"id": 13145, "name": "Fast Food Restaurant", "short_name": "Fast Food", "plural_name": "Fast Food Restaurants", "icon": {"prefix": "https://ss3.4sqi.net/img/categories_v2/food/fastfood_", "suffix": ".png"}}], "chains": [], "closed_bucket": "VeryLikelyOpen", "distance": 71, "geocodes": {"main": {"latitude": 55.875834, "longitude": -4.343226}, "roof": {"latitude": 55.875834, "longitude": -4.343226}}, "link": "/v3/places/19775f18ad2b4c0c10f433ed", "location": {"address": "1351 Dumbarton Rd", "admin_region": "Scotland", "country": "GB", "formatted_address": "1351 Dumbarton Rd, Glasgow, G14 9UZ", "locality": "Glasgow", "post_town": "Glasgow", "postcode": "G14 9UZ"}, "name": "The Tuck Shop", "related_places": {}, "timezone": "Europe/London"}, {"fsq_id": "59f753961acf113e70a4fdc8", "categories": [{"id": 13145, "name": "Fast Food Restaurant", "short_name": "Fast Food", "plural_name": "Fast Food Restaurants", "icon": {"prefix": "https://ss3.4sqi.net/img/categories_v2/food/fastfood_", "suffix": ".png"}}, {"id": 13298, "name": "Lebanese Restaurant", "short_name": "Lebanese", "plural_name": "Lebanese Restaurants", "icon": {"prefix": "https://ss3.4sqi.net/img/categories_v2/food/middleeastern_", "suffix": ".png"}}], "chains": [], "closed_bucket": "Unsure", "distance": 90, "geocodes": {"main": {"latitude": 55.875925, "longitude": -4.343474}, "roof": {"latitude": 55.875925, "longitude": -4.343474}}, "link": "/v3/places/59f753961acf113e70a4fdc8", "location": {"address": "1363 Dumbarton Rd", "admin_region": "Scotland", "country": "GB", "cross_street": "", "formatted_address": "1363 Dumbarton Rd, Glasgow, Glasgow City, G14 9UZ", "locality": "Glasgow", "post_town": "Glasgow", "postcode": "G14 9UZ", "region": "Glasgow City"}, "name": "Lotus", "related_places": {}, "timezone": "Europe/London"}, {"fsq_id": "4e9eb621b6340e3e34ac1281", "categories": [{"id": 13072, "name": "Asian Restaurant", "short_name": "Asian", "plural_name": "Asian Restaurants", "icon": {"prefix": "https://ss3.4sqi.net/img/categories_v2/food/asian_", "suffix": ".png"}}], "chains": [], "closed_bucket": "VeryLikelyOpen", "distance": 166, "geocodes": {"main": {"latitude": 55.876428, "longitude": -4.341141}, "roof": {"latitude": 55.876428, "longitude": -4.341141}}, "link": "/v3/places/4e9eb621b6340e3e34ac1281", "location": {"country": "GB", "cross_street": "", "formatted_address": "Glasgow, Glasgow City", "locality": "Glasgow", "post_town": "Glasgow", "region": "Glasgow City"}, "name": "Chelios", "related_places": {}, "timezone": "Europe/London"}, {"fsq_id": "5e3d7c4674e3de0007eaa4ff", "categories": [{"id": 13032, "name": "Cafe, Coffee, and Tea House", "short_name": "Cafe, Coffee, and Tea House", "plural_name": "Cafes, Coffee, and Tea Houses", "icon": {"prefix": "https://ss3.4sqi.net/img/categories_v2/food/coffeeshop_", "suffix": ".png"}}, {"id": 13079, "name": "Brazilian Restaurant", "short_name": "Brazilian", "plural_name": "Brazilian Restaurants", "icon": {"prefix": "https://ss3.4sqi.net/img/categories_v2/food/argentinian_", "suffix": ".png"}}], "chains": [], "closed_bucket": "Unsure", "distance": 178, "geocodes": {"main": {"latitude": 55.876338, "longitude": -4.34454}, "roof": {"latitude": 55.876338, "longitude": -4.34454}}, "link": "/v3/places/5e3d7c4674e3de0007eaa4ff", "location": {"address": "1 Methil St", "admin_region": "Scotland", "country": "GB", "cross_street": "", "formatted_address": "1 Methil St, Glasgow, Glasgow City, G14 0AA", "locality": "Glasgow", "post_town": "Glasgow", "postcode": "G14 0AA", "region": "Glasgow City"}, "name": "Brazuca Cafe", "related_places": {}, "timezone": "Europe/London"}, {"fsq_id": "840e5184cbf6441c112380e6", "categories": [{"id": 13051, "name": "Fish and Chips Shop", "short_name": "Fish and Chips Shop", "plural_name": "Fish and Chips Shops", "icon": {"prefix": "https://ss3.4sqi.net/img/categories_v2/food/fishandchips_", "suffix": ".png"}}], "chains": [], "closed_bucket": "LikelyOpen", "distance": 185, "geocodes": {"main": {"latitude": 55.874668, "longitude": -4.339681}, "roof": {"latitude": 55.874668, "longitude": -4.339681}}, "link": "/v3/places/840e5184cbf6441c112380e6", "location": {"address": "1255 Dumbarton Rd", "admin_region": "Scotland", "country": "GB", "formatted_address": "1255 Dumbarton Rd, Glasgow, G14 9UU", "locality": "Glasgow", "post_town": "Glasgow", "postcode": "G14 9UU"}, "name": "Sumerians Fish & Chicken Bar", "related_places": {}, "timezone": "Europe/London"}, {"fsq_id": "5947b37da4236221ad0feb15", "categories": [{"id": 13051, "name": "Fish and Chips Shop", "short_name": "Fish and Chips Shop", "plural_name": "Fish and Chips Shops", "icon": {"prefix": "https://ss3.4sqi.net/img/categories_v2/food/fishandchips_", "suffix": ".png"}}, {"id": 13145, "name": "Fast Food Restaurant", "short_name": "Fast Food", "plural_name": "Fast Food Restaurants", "icon": {"prefix": "https://ss3.4sqi.net/img/categories_v2/food/fastfood_", "suffix": ".png"}}], "chains": [], "closed_bucket": "Unsure", "distance": 188, "geocodes": {"main": {"latitude": 55.874662, "longitude": -4.339786}, "roof": {"latitude": 55.874662, "longitude": -4.339786}}, "link": "/v3/places/5947b37da4236221ad0feb15", "location": {"address": "1050 Dumbarton Rd, Dumbarton Rd", "admin_region": "Scotland", "country": "GB", "cross_street": "", "formatted_address": "1050 Dumbarton Rd, Dumbarton Rd, Glasgow, Glasgow City, G14 9PU", "locality": "Glasgow", "post_town": "Glasgow", "postcode": "G14 9PU", "region": "Glasgow City"}, "name": "Sumerians", "related_places": {}, "timezone": "Europe/London"}, {"fsq_id": "4d2210915c4ca1cd82baae3d", "categories": [{"id": 13099, "name": "Chinese Restaurant", "short_name": "Chinese", "plural_name": "Chinese Restaurants", "icon": {"prefix": "https://ss3.4sqi.net/img/categories_v2/food/asian_", "suffix": ".png"}}, {"id": 13145, "name": "Fast Food Restaurant", "short_name": "Fast Food", "plural_name": "Fast Food Restaurants", "icon": {"prefix": "https://ss3.4sqi.net/img/categories_v2/food/fastfood_", "suffix": ".png"}}], "chains": [], "closed_bucket": "LikelyOpen", "distance": 202, "geocodes": {"main": {"latitude": 55.876587, "longitude": -4.344793}, "roof": {"latitude": 55.876587, "longitude": -4.344793}}, "link": "/v3/places/4d2210915c4ca1cd82baae3d", "location": {"address": "1401 Dumbarton Rd", "admin_region": "Scotland", "country": "GB", "cross_street": "", "formatted_address": "1401 Dumbarton Rd, Glasgow, Glasgow City, G14 9XS", "locality": "Glasgow", "post_town": "Glasgow", "postcode": "G14 9XS", "region": "Glasgow City"}, "name": "Chinese Fortune", "related_places": {}, "timezone": "Europe/London"}, {"fsq_id": "e6fcb1a3d7c14135fcc9982f", "categories": [{"id": 13145, "name": "Fast Food Restaurant", "short_name": "Fast Food", "plural_name": "Fast Food Restaurants", "icon": {"prefix": "https://ss3.4sqi.net/img/categories_v2/food/fastfood_", "suffix": ".png"}}], "chains": [], "closed_bucket": "VeryLikelyOpen", "distance": 225, "geocodes": {"main": {"latitude": 55.876726, "longitude": -4.345113}, "roof": {"latitude": 55.876726, "longitude": -4.345113}}, "link": "/v3/places/e6fcb1a3d7c14135fcc9982f", "location": {"address": "1425 Dumbarton Rd", "admin_region": "Scotland", "country": "GB", "formatted_address": "1425 Dumbarton Rd, Glasgow, G14 9XS", "locality": "Glasgow", "post_town": "Glasgow", "postcode": "G14 9XS"}, "name": "Lunches", "related_places": {}, "timezone": "Europe/London"}, {"fsq_id": "cf6b38af11564b86cfa29752", "categories": [{"id": 13036, "name": "Tea Room", "short_name": "Tea Room", "plural_name": "Tea Rooms", "icon": {"prefix": "https://ss3.4sqi.net/img/categories_v2/food/tearoom_", "suffix": ".png"}}, {"id": 13145, "name": "Fast Food Restaurant", "short_name": "Fast Food", "plural_name": "Fast Food Restaurants", "icon": {"prefix": "https://ss3.4sqi.net/img/categories_v2/food/fastfood_", "suffix": ".png"}}], "chains": [], "closed_bucket": "Unsure", "distance": 431, "geocodes": {"drop_off": {"latitude": 55.873029, "longitude": -4.336459}, "main": {"latitude": 55.873435, "longitude": -4.336381}, "roof": {"latitude": 55.873435, "longitude": -4.336381}}, "link": "/v3/places/cf6b38af11564b86cfa29752", "location": {"address": "1 Northinch Ct", "admin_region": "Scotland", "country": "GB", "formatted_address": "1 Northinch Ct, Glasgow, Glasgow City", "locality": "Glasgow", "post_town": "Glasgow", "region": "Glasgow City"}, "name": "Teapots Cafe", "related_places": {}, "timezone": "Europe/London"}, {"fsq_id": "eb32c4e6fd78435ff4e57eed", "categories": [{"id": 13065, "name": "Restaurant", "short_name": "Restaurant", "plural_name": "Restaurants", "icon": {"prefix": "https://ss3.4sqi.net/img/categories_v2/food/default_", "suffix": ".png"}}, {"id": 17041, "name": "Bridal Store", "short_name": "Bridal", "plural_name": "Bridal Stores", "icon": {"prefix": "https://ss3.4sqi.net/img/categories_v2/shops/bridal_", "suffix": ".png"}}], "chains": [], "closed_bucket": "VeryLikelyOpen", "distance": 453, "geocodes": {"drop_off": {"latitude": 55.879293, "longitude": -4.343612}, "main": {"latitude": 55.87945, "longitude": -4.343552}, "roof": {"latitude": 55.87945, "longitude": -4.343552}}, "link": "/v3/places/eb32c4e6fd78435ff4e57eed", "location": {"address": "Norse Rd", "admin_region": "Scotland", "country": "GB", "formatted_address": "Norse Rd, Glasgow, Glasgow City", "locality": "Glasgow", "post_town": "Glasgow", "region": "Glasgow City"}, "name": "Andrew Edmond - Pianist", "related_places": {}, "timezone": "Europe/London"}, {"fsq_id": "4e0f8d0e1838f62321d0b040", "categories": [{"id": 10032, "name": "Night Club", "short_name": "Night Club", "plural_name": "Night Clubs", "icon": {"prefix": "https://ss3.4sqi.net/img/categories_v2/nightlife/nightclub_", "suffix": ".png"}}, {"id": 13003, "name": "Bar", "short_name": "Bar", "plural_name": "Bars", "icon": {"prefix": "https://ss3.4sqi.net/img/categories_v2/nightlife/pub_", "suffix": ".png"}}], "chains": [], "closed_bucket": "VeryLikelyOpen", "distance": 578, "geocodes": {"main": {"latitude": 55.876977, "longitude": -4.354486}, "roof": {"latitude": 55.876977, "longitude": -4.354486}}, "link": "/v3/places/4e0f8d0e1838f62321d0b040", "location": {"address": "1084 South St", "admin_region": "Scotland", "country": "GB", "formatted_address": "1084 South St, Glasgow, G14 0AP", "locality": "Glasgow", "post_town": "Glasgow", "postcode": "G14 0AP"}, "name": "Big Joint", "related_places": {}, "timezone": "Europe/London"}, {"fsq_id": "4c4475662d3ec9b667de2eae", "categories": [{"id": 13347, "name": "Tapas Restaurant", "short_name": "Tapas", "plural_name": "Tapas Restaurants", "icon": {"prefix": "https://ss3.4sqi.net/img/categories_v2/food/tapas_", "suffix": ".png"}}], "chains": [], "closed_bucket": "VeryLikelyOpen", "distance": 629, "geocodes": {"main": {"latitude": 55.87691, "longitude": -4.351993}, "roof": {"latitude": 55.87691, "longitude": -4.351993}}, "link": "/v3/places/4c4475662d3ec9b667de2eae", "location": {"address": "1120 South St", "admin_region": "Scotland", "country": "GB", "cross_street": "Harland Street", "formatted_address": "1120 South St (Harland Street), Glasgow, Glasgow City, G14 0AP", "locality": "Glasgow", "post_town": "Glasgow", "postcode": "G14 0AP", "region": "Glasgow City"}, "name": "La Bodega Tapas Bar", "related_places": {}, "timezone": "Europe/London"}, {"fsq_id": "50fac6d1e4b0c3b20b350688", "categories": [{"id": 13022, "name": "Sports Bar", "short_name": "Sports Bar", "plural_name": "Sports Bars", "icon": {"prefix": "https://ss3.4sqi.net/img/categories_v2/nightlife/sportsbar_", "suffix": ".png"}}], "chains": [], "closed_bucket": "VeryLikelyOpen", "distance": 695, "geocodes": {"main": {"latitude": 55.881646, "longitude": -4.341098}, "roof": {"latitude": 55.881646, "longitude": -4.341098}}, "link": "/v3/places/50fac6d1e4b0c3b20b350688", "location": {"address": "112 Danes Dr", "admin_region": "Scotland", "country": "GB", "cross_street": "", "formatted_address": "112 Danes Dr, Glasgow, Glasgow City, G14 9HD", "locality": "Glasgow", "post_town": "Glasgow", "postcode": "G14 9HD", "region": "Glasgow City"}, "name": "The Clubhouse", "related_places": {"parent": {"fsq_id": "4c41add6cc410f471880ab61", "categories": [{"id": 10051, "name": "Stadium", "short_name": "Stadium", "plural_name": "Stadiums", "icon": {"prefix": "https://ss3.4sqi.net/img/categories_v2/arts_entertainment/stadium_", "suffix": ".png"}}, {"id": 18021, "name": "Gym and Studio", "short_name": "Gym and Studio", "plural_name": "Gym and Studios", "icon": {"prefix": "https://ss3.4sqi.net/img/categories_v2/building/gym_", "suffix": ".png"}}, {"id": 18050, "name": "Rugby Pitch", "short_name": "Pitch", "plural_name": "Rugby Pitches", "icon": {"prefix": "https://ss3.4sqi.net/img/categories_v2/arts_entertainment/stadium_football_", "suffix": ".png"}}], "name": "Scotstoun Stadium"}}, "timezone": "Europe/London"}, {"fsq_id": "575000c0498e01cd20e0afb5", "categories": [{"id": 13065, "name": "Restaurant", "short_name": "Restaurant", "plural_name": "Restaurants", "icon": {"prefix": "https://ss3.4sqi.net/img/categories_v2/food/default_", "suffix": ".png"}}], "chains": [], "closed_bucket": "LikelyOpen", "distance": 714, "geocodes": {"drop_off": {"latitude": 55.871376, "longitude": -4.333779}, "main": {"latitude": 55.871159, "longitude": -4.333818}, "roof": {"latitude": 55.871159, "longitude": -4.333818}}, "link": "/v3/places/575000c0498e01cd20e0afb5", "location": {"address": "South St", "country": "GB", "cross_street": "", "formatted_address": "South St, Glasgow, Glasgow City", "locality": "Glasgow", "post_town": "Glasgow", "region": "Glasgow City"}, "name": "Golden Grill", "related_places": {}, "timezone": "Europe/London"}, {"fsq_id": "4c5c50a72815c92813b2b167", "categories": [{"id": 13199, "name": "Indian Restaurant", "short_name": "Indian", "plural_name": "Indian Restaurants", "icon": {"prefix": "https://ss3.4sqi.net/img/categories_v2/food/indian_", "suffix": ".png"}}], "chains": [], "closed_bucket": "VeryLikelyOpen", "distance": 732, "geocodes": {"main": {"latitude": 55.872948, "longitude": -4.331105}, "roof": {"latitude": 55.872948, "longitude": -4.331105}}, "link": "/v3/places/4c5c50a72815c92813b2b167", "location": {"address": "1010 Dumbarton Rd", "admin_region": "Scotland", "country": "GB", "cross_street": "", "formatted_address": "1010 Dumbarton Rd, Glasgow, G14 9UJ", "locality": "Glasgow", "post_town": "Glasgow", "postcode": "G14 9UJ"}, "name": "Punjabi Fusion", "related_places": {}, "timezone": "Europe/London"}, {"fsq_id": "503e63b8e4b01c9b2b349948", "categories": [{"id": 13018, "name": "Pub", "short_name": "Pub", "plural_name": "Pubs", "icon": {"prefix": "https://ss3.4sqi.net/img/categories_v2/nightlife/pub_", "suffix": ".png"}}], "chains": [], "closed_bucket": "Unsure", "distance": 754, "geocodes": {"main": {"latitude": 55.879664, "longitude": -4.351732}, "roof": {"latitude": 55.879664, "longitude": -4.351732}}, "link": "/v3/places/503e63b8e4b01c9b2b349948", "location": {"address": "1552 Dumbarton Rd", "admin_region": "Scotland", "country": "GB", "cross_street": "West End", "formatted_address": "1552 Dumbarton Rd (West End), Glasgow, Glasgow City, G14 9DB", "locality": "Glasgow", "post_town": "Glasgow", "postcode": "G14 9DB", "region": "Glasgow City"}, "name": "McNabbs Lounge Bar", "related_places": {}, "timezone": "Europe/London"}, {"fsq_id": "4e56832bc65be3cea4671c54", "categories": [{"id": 13051, "name": "Fish and Chips Shop", "short_name": "Fish and Chips Shop", "plural_name": "Fish and Chips Shops", "icon": {"prefix": "https://ss3.4sqi.net/img/categories_v2/food/fishandchips_", "suffix": ".png"}}, {"id": 13145, "name": "Fast Food Restaurant", "short_name": "Fast Food", "plural_name": "Fast Food Restaurants", "icon": {"prefix": "https://ss3.4sqi.net/img/categories_v2/food/fastfood_", "suffix": ".png"}}], "chains": [], "closed_bucket": "VeryLikelyOpen", "distance": 770, "geocodes": {"main": {"latitude": 55.880035, "longitude": -4.35262}, "roof": {"latitude": 55.880035, "longitude": -4.35262}}, "link": "/v3/places/4e56832bc65be3cea4671c54", "location": {"address": "1580 Dumbarton Rd", "admin_region": "Scotland", "country": "GB", "cross_street": "", "formatted_address": "1580 Dumbarton Rd, Glasgow, Glasgow City, G14 9DB", "locality": "Glasgow", "post_town": "Glasgow", "postcode": "G14 9DB", "region": "Glasgow City"}, "name": "Chip Chik Inn", "related_places": {}, "timezone": "Europe/London"}, {"fsq_id": "91ac3fd30d5c4f73ee86696f", "categories": [{"id": 13199, "name": "Indian Restaurant", "short_name": "Indian", "plural_name": "Indian Restaurants", "icon": {"prefix": "https://ss3.4sqi.net/img/categories_v2/food/indian_", "suffix": ".png"}}, {"id": 13236, "name": "Italian Restaurant", "short_name": "Italian", "plural_name": "Italian Restaurants", "icon": {"prefix": "https://ss3.4sqi.net/img/categories_v2/food/italian_", "suffix": ".png"}}], "chains": [], "closed_bucket": "LikelyOpen", "distance": 806, "geocodes": {"main": {"latitude": 55.879937, "longitude": -4.352477}, "roof": {"latitude": 55.879937, "longitude": -4.352477}}, "link": "/v3/places/91ac3fd30d5c4f73ee86696f", "location": {"address": "1576 Dumbarton Rd", "admin_region": "Scotland", "country": "GB", "formatted_address": "1576 Dumbarton Rd, Glasgow, Glasgow City, G14 9DB", "locality": "Glasgow", "post_town": "Glasgow", "postcode": "G14 9DB", "region": "Glasgow City"}, "name": "New Aladdin", "related_places": {}, "timezone": "Europe/London"}, {"fsq_id": "4c51e3c89d642d7fa66256de", "categories": [{"id": 13068, "name": "American Restaurant", "short_name": "American", "plural_name": "American Restaurants", "icon": {"prefix": "https://ss3.4sqi.net/img/categories_v2/food/default_", "suffix": ".png"}}, {"id": 13199, "name": "Indian Restaurant", "short_name": "Indian", "plural_name": "Indian Restaurants", "icon": {"prefix": "https://ss3.4sqi.net/img/categories_v2/food/indian_", "suffix": ".png"}}], "chains": [], "closed_bucket": "VeryLikelyOpen", "distance": 830, "geocodes": {"main": {"latitude": 55.880126, "longitude": -4.352869}, "roof": {"latitude": 55.880126, "longitude": -4.352869}}, "link": "/v3/places/4c51e3c89d642d7fa66256de", "location": {"address": "1590 Dumbarton Rd", "admin_region": "Scotland", "country": "GB", "cross_street": "", "formatted_address": "1590 Dumbarton Rd, Glasgow, Glasgow City, G14 9DB", "locality": "Glasgow", "post_town": "Glasgow", "postcode": "G14 9DB", "region": "Glasgow City"}, "name": "Neelim", "related_places": {}, "timezone": "Europe/London"}, {"fsq_id": "4f71d899e4b0741eb4b0a532", "categories": [{"id": 13022, "name": "Sports Bar", "short_name": "Sports Bar", "plural_name": "Sports Bars", "icon": {"prefix": "https://ss3.4sqi.net/img/categories_v2/nightlife/sportsbar_", "suffix": ".png"}}], "chains": [], "closed_bucket": "VeryLikelyOpen", "distance": 870, "geocodes": {"main": {"latitude": 55.883132, "longitude": -4.3409}, "roof": {"latitude": 55.883132, "longitude": -4.3409}}, "link": "/v3/places/4f71d899e4b0741eb4b0a532", "location": {"country": "GB", "cross_street": "", "formatted_address": ""}, "name": "The Snooker Room", "related_places": {}, "timezone": "Europe/London"}, {"fsq_id": "4e65ddcc1f6ef7d07c25997a", "categories": [{"id": 13034, "name": "Caf\u00e9", "short_name": "Caf\u00e9", "plural_name": "Caf\u00e9s", "icon": {"prefix": "https://ss3.4sqi.net/img/categories_v2/food/cafe_", "suffix": ".png"}}, {"id": 13065, "name": "Restaurant", "short_name": "Restaurant", "plural_name": "Restaurants", "icon": {"prefix": "https://ss3.4sqi.net/img/categories_v2/food/default_", "suffix": ".png"}}], "chains": [], "closed_bucket": "VeryLikelyOpen", "distance": 925, "geocodes": {"drop_off": {"latitude": 55.872348, "longitude": -4.32868}, "main": {"latitude": 55.872244, "longitude": -4.328698}, "roof": {"latitude": 55.872244, "longitude": -4.328698}}, "link": "/v3/places/4e65ddcc1f6ef7d07c25997a", "location": {"address": "935 Dumbarton Rd", "admin_region": "Scotland", "country": "GB", "cross_street": "", "formatted_address": "935 Dumbarton Rd, Glasgow, Glasgow City", "locality": "Glasgow", "post_town": "Glasgow", "region": "Glasgow City"}, "name": "How We Roll", "related_places": {}, "timezone": "Europe/London"}, {"fsq_id": "4f89c724f4184b3092169ab5", "categories": [{"id": 13099, "name": "Chinese Restaurant", "short_name": "Chinese", "plural_name": "Chinese Restaurants", "icon": {"prefix": "https://ss3.4sqi.net/img/categories_v2/food/asian_", "suffix": ".png"}}], "chains": [], "closed_bucket": "Unsure", "distance": 995, "geocodes": {"main": {"latitude": 55.871528, "longitude": -4.356695}, "roof": {"latitude": 55.871528, "longitude": -4.356695}}, "link": "/v3/places/4f89c724f4184b3092169ab5", "location": {"address": "Xscape Kings Inch Rd", "address_extended": "Unit 27", "admin_region": "Scotland", "country": "GB", "formatted_address": "Xscape Kings Inch Rd, Glasgow, G51 4BN", "locality": "Glasgow", "post_town": "Glasgow", "postcode": "G51 4BN"}, "name": "China Buffet Glasgow", "related_places": {}, "timezone": "Europe/London"}, {"fsq_id": "db920815dc554b0523969a91", "categories": [{"id": 13334, "name": "Sandwich Spot", "short_name": "Sandwich Spot", "plural_name": "Sandwich Spots", "icon": {"prefix": "https://ss3.4sqi.net/img/categories_v2/food/deli_", "suffix": ".png"}}], "chains": [], "closed_bucket": "Unsure", "distance": 225, "geocodes": {"drop_off": {"latitude": 55.876826, "longitude": -4.345073}, "main": {"latitude": 55.876726, "longitude": -4.345113}, "roof": {"latitude": 55.876726, "longitude": -4.345113}}, "link": "/v3/places/db920815dc554b0523969a91", "location": {"address": "1425 Dumbarton Rd", "admin_region": "Scotland", "country": "GB", "formatted_address": "1425 Dumbarton Rd, Glasgow, G14 9XS", "locality": "Glasgow", "post_town": "Glasgow", "postcode": "G14 9XS"}, "name": "Lexys Snack Shack", "related_places": {}}, {"fsq_id": "c28e1da8910a4a5e4f44a82a", "categories": [{"id": 13032, "name": "Cafe, Coffee, and Tea House", "short_name": "Cafe, Coffee, and Tea House", "plural_name": "Cafes, Coffee, and Tea Houses", "icon": {"prefix": "https://ss3.4sqi.net/img/categories_v2/food/coffeeshop_", "suffix": ".png"}}, {"id": 13065, "name": "Restaurant", "short_name": "Restaurant", "plural_name": "Restaurants", "icon": {"prefix": "https://ss3.4sqi.net/img/categories_v2/food/default_", "suffix": ".png"}}], "chains": [], "closed_bucket": "Unsure", "distance": 614, "geocodes": {"main": {"latitude": 55.870572, "longitude": -4.337622}, "roof": {"latitude": 55.870572, "longitude": -4.337622}}, "link": "/v3/places/c28e1da8910a4a5e4f44a82a", "location": {"address": "150 Clydeholm Rd, Whiteinch", "admin_region": "Scotland", "country": "GB", "formatted_address": "150 Clydeholm Rd, Whiteinch, Glasgow, G14 0QQ", "locality": "Glasgow", "post_town": "Glasgow", "postcode": "G14 0QQ"}, "name": "Holm cafe", "related_places": {}}, {"fsq_id": "baa9996038504b4a50056395", "categories": [{"id": 13064, "name": "Pizzeria", "short_name": "Pizza", "plural_name": "Pizzerias", "icon": {"prefix": "https://ss3.4sqi.net/img/categories_v2/food/pizza_", "suffix": ".png"}}, {"id": 13068, "name": "American Restaurant", "short_name": "American", "plural_name": "American Restaurants", "icon": {"prefix": "https://ss3.4sqi.net/img/categories_v2/food/default_", "suffix": ".png"}}, {"id": 13191, "name": "Halal Restaurant", "short_name": "Halal", "plural_name": "Halal Restaurants", "icon": {"prefix": "https://ss3.4sqi.net/img/categories_v2/food/halal_", "suffix": ".png"}}], "chains": [], "closed_bucket": "LikelyOpen", "distance": 979, "geocodes": {"drop_off": {"latitude": 55.872179, "longitude": -4.327763}, "main": {"latitude": 55.872086, "longitude": -4.327781}, "roof": {"latitude": 55.872086, "longitude": -4.327781}}, "link": "/v3/places/baa9996038504b4a50056395", "location": {"address": "911 Dumbarton Rd", "admin_region": "Scotland", "country": "GB", "formatted_address": "911 Dumbarton Rd, Glasgow, G11 6NB", "locality": "Glasgow", "post_town": "Glasgow", "postcode": "G11 6NB"}, "name": "Ninja Turtles Restaurant", "related_places": {}}, {"fsq_id": "39b3e5010cae4e981bc1eddf", "categories": [{"id": 13276, "name": "Sushi Restaurant", "short_name": "Sushi", "plural_name": "Sushi Restaurants", "icon": {"prefix": "https://ss3.4sqi.net/img/categories_v2/food/sushi_", "suffix": ".png"}}], "chains": [{"id": "2fcf52a0-9c63-0132-6632-3c15c2dde6c8", "name": "YO! Sushi"}], "closed_bucket": "LikelyOpen", "distance": 999, "geocodes": {"main": {"latitude": 55.871473, "longitude": -4.356728}, "roof": {"latitude": 55.871473, "longitude": -4.356728}}, "link": "/v3/places/39b3e5010cae4e981bc1eddf", "location": {"address": "Intu Braehead Shopping Centre", "address_extended": "Unit C7", "admin_region": "Scotland", "country": "GB", "formatted_address": "Intu Braehead Shopping Centre, Glasgow, G51 4BP", "locality": "Glasgow", "post_town": "Glasgow", "postcode": "G51 4BP"}, "name": "YO! Sushi", "related_places": {}}], "context": {"geo_bounds": {"circle": {"center": {"latitude": 55.875431, "longitude": -4.342325}, "radius": 1000}}}}