{"results": [{"fsq_id": "5199072e498e5d44d755aa35", "categories": [{"id": 13065, "name": "Restaurant", "short_name": "Restaurant", "plural_name": "Restaurants", "icon": {"prefix": "https://ss3.4sqi.net/img/categories_v2/food/default_", "suffix": ".png"}}, {"id": 13007, "name": "Beer Garden", "short_name": "Beer Garden", "plural_name": "Beer Gardens", "icon": {"prefix": "https://ss3.4sqi.net/img/categories_v2/nightlife/beergarden_", "suffix": ".png"}}], "chains": [], "closed_bucket": "VeryLikelyOpen", "distance": 987, "geocodes": {"main": {"latitude": 55.866764, "longitude": -4.356155}, "roof": {"latitude": 55.866764, "longitude": -4.356155}}, "link": "/v3/places/5199072e498e5d44d755aa35", "location": {"address": "1 Row Ave", "admin_region": "Scotland", "country": "GB", "cross_street": "", "formatted_address": "1 Row Ave, Braehead, North Lanarkshire, G51 4SY", "locality": "Glasgow", "post_town": "Glasgow", "postcode": "G51 4SY", "region": "North Lanarkshire"}, "name": "Steam Wheeler", "related_places": {}, "timezone": "Europe/London"}, {"fsq_id": "590a0503dee7705d7f5b81a1", "categories": [{"id": 13342, "name": "Soup Spot", "short_name": "Soup Spot", "plural_name": "Soup Spots", "icon": {"prefix": "https://ss3.4sqi.net/img/categories_v2/food/soup_", "suffix": ".png"}}], "chains": [], "closed_bucket": "VeryLikelyOpen", "distance": 90, "geocodes": {"main": {"latitude": 55.86204, "longitude": -4.341205}, "roof": {"latitude": 55.86204, "longitude": -4.341205}}, "link": "/v3/places/590a0503dee7705d7f5b81a1", "location": {"country": "GB", "cross_street": "", "formatted_address": "Glasgow, Glasgow City", "locality": "Glasgow", "post_town": "Glasgow", "region": "Glasgow City"}, "name": "The Soup & Juice Co", "related_places": {"parent": {"fsq_id": "4b98a55ff964a520f74935e3", "categories": [{"id": 15014, "name": "Hospital", "short_name": "Hospital", "plural_name": "Hospitals", "icon": {"prefix": "https://ss3.4sqi.net/img/categories_v2/building/medical_", "suffix": ".png"}}], "name": "Queen Elizabeth University Hospital"}}, "timezone": "Europe/London"}, {"fsq_id": "4dc418c5fa76d685cdbd9c3b", "categories": [{"id": 13051, "name": "Fish and Chips Shop", "short_name": "Fish and Chips Shop", "plural_name": "Fish and Chips Shops", "icon": {"prefix": "https://ss3.4sqi.net/img/categories_v2/food/fishandchips_", "suffix": ".png"}}], "chains": [], "closed_bucket": "LikelyOpen", "distance": 525, "geocodes": {"main": {"latitude": 55.86429, "longitude": -4.33416}, "roof": {"latitude": 55.86429, "longitude": -4.33416}}, "link": "/v3/places/4dc418c5fa76d685cdbd9c3b", "location": {"address": "97 Govan Rd", "admin_region": "Scotland", "country": "GB", "cross_street": "", "formatted_address": "97 Govan Rd, Glasgow, Glasgow City, G51 4PW", "locality": "Glasgow", "post_town": "Glasgow", "postcode": "G51 4PW", "region": "Glasgow City"}, "name": "Peralla Chip Shop", "related_places": {}, "timezone": "Europe/London"}, {"fsq_id": "4ca477cdf832a1cdac05a6e5", "categories": [{"id": 13334, "name": "Sandwich Spot", "short_name": "Sandwich Spot", "plural_name": "Sandwich Spots", "icon": {"prefix": "https://ss3.4sqi.net/img/categories_v2/food/deli_", "suffix": ".png"}}], "chains": [], "closed_bucket": "VeryLikelyOpen", "distance": 592, "geocodes": {"drop_off": {"latitude": 55.864318, "longitude": -4.332598}, "main": {"latitude": 55.864168, "longitude": -4.332613}, "roof": {"latitude": 55.864168, "longitude": -4.332613}}, "link": "/v3/places/4ca477cdf832a1cdac05a6e5", "location": {"address": "1277 Govan Rd", "country": "GB", "cross_street": "", "formatted_address": "1277 Govan Rd, Glasgow, Glasgow City", "locality": "Glasgow", "post_town": "Glasgow", "region": "Glasgow City"}, "name": "Lazy Days", "related_places": {}, "timezone": "Europe/London"}, {"fsq_id": "4c39fa2393db0f473e442492", "categories": [{"id": 13099, "name": "Chinese Restaurant", "short_name": "Chinese", "plural_name": "Chinese Restaurants", "icon": {"prefix": "https://ss3.4sqi.net/img/categories_v2/food/asian_", "suffix": ".png"}}], "chains": [], "closed_bucket": "VeryLikelyOpen", "distance": 596, "geocodes": {"drop_off": {"latitude": 55.864316, "longitude": -4.332571}, "main": {"latitude": 55.864223, "longitude": -4.33258}, "roof": {"latitude": 55.864223, "longitude": -4.33258}}, "link": "/v3/places/4c39fa2393db0f473e442492", "location": {"address": "1183 Govan Rd", "country": "GB", "cross_street": "", "formatted_address": "1183 Govan Rd, Glasgow, Glasgow City", "locality": "Glasgow", "post_town": "Glasgow", "region": "Glasgow City"}, "name": "Hong Kong Takeaway", "related_places": {}, "timezone": "Europe/London"}, {"fsq_id": "564dc710498ee1886e0a916d", "categories": [{"id": 13018, "name": "Pub", "short_name": "Pub", "plural_name": "Pubs", "icon": {"prefix": "https://ss3.4sqi.net/img/categories_v2/nightlife/pub_", "suffix": ".png"}}, {"id": 13065, "name": "Restaurant", "short_name": "Restaurant", "plural_name": "Restaurants", "icon": {"prefix": "https://ss3.4sqi.net/img/categories_v2/food/default_", "suffix": ".png"}}], "chains": [], "closed_bucket": "VeryLikelyOpen", "distance": 611, "geocodes": {"main": {"latitude": 55.864223, "longitude": -4.33258}, "roof": {"latitude": 55.864223, "longitude": -4.33258}}, "link": "/v3/places/564dc710498ee1886e0a916d", "location": {"address": "1209 Govan Rd", "admin_region": "Scotland", "country": "GB", "cross_street": "", "formatted_address": "1209 Govan Rd, Glasgow, G51 4PW", "locality": "Glasgow", "post_town": "Glasgow", "postcode": "G51 4PW"}, "name": "The Amethyst", "related_places": {}, "timezone": "Europe/London"}, {"fsq_id": "4c0bf7ec009a0f47bee8ebbf", "categories": [{"id": 13099, "name": "Chinese Restaurant", "short_name": "Chinese", "plural_name": "Chinese Restaurants", "icon": {"prefix": "https://ss3.4sqi.net/img/categories_v2/food/asian_", "suffix": ".png"}}], "chains": [], "closed_bucket": "VeryLikelyOpen", "distance": 683, "geocodes": {"main": {"latitude": 55.864113, "longitude": -4.330824}, "roof": {"latitude": 55.864113, "longitude": -4.330824}}, "link": "/v3/places/4c0bf7ec009a0f47bee8ebbf", "location": {"country": "GB", "cross_street": "", "formatted_address": ""}, "name": "Rainbow Chinese Take Away", "related_places": {}, "timezone": "Europe/London"}, {"fsq_id": "9bffb891df7e45afce681ad8", "categories": [{"id": 13003, "name": "Bar", "short_name": "Bar", "plural_name": "Bars", "icon": {"prefix": "https://ss3.4sqi.net/img/categories_v2/nightlife/pub_", "suffix": ".png"}}], "chains": [], "closed_bucket": "VeryLikelyOpen", "distance": 746, "geocodes": {"main": {"latitude": 55.864101, "longitude": -4.330122}, "roof": {"latitude": 55.864101, "longitude": -4.330122}}, "link": "/v3/places/9bffb891df7e45afce681ad8", "location": {"address": "1149 Govan Rd", "admin_region": "Scotland", "country": "GB", "formatted_address": "1149 Govan Rd, Glasgow, G51 4RX", "locality": "Glasgow", "post_town": "Glasgow", "postcode": "G51 4RX"}, "name": "Fairfield Bar", "related_places": {}, "timezone": "Europe/London"}, {"fsq_id": "4f22e047e4b0dc27b7ce8799", "categories": [{"id": 13051, "name": "Fish and Chips Shop", "short_name": "Fish and Chips Shop", "plural_name": "Fish and Chips Shops", "icon": {"prefix": "https://ss3.4sqi.net/img/categories_v2/food/fishandchips_", "suffix": ".png"}}], "chains": [], "closed_bucket": "VeryLikelyOpen", "distance": 835, "geocodes": {"main": {"latitude": 55.855983, "longitude": -4.337506}, "roof": {"latitude": 55.855983, "longitude": -4.337506}}, "link": "/v3/places/4f22e047e4b0dc27b7ce8799", "location": {"address": "307 Shieldhall Rd", "admin_region": "Scotland", "country": "GB", "cross_street": "", "formatted_address": "307 Shieldhall Rd, Glasgow, G51 4HB", "locality": "Glasgow", "post_town": "Glasgow", "postcode": "G51 4HB"}, "name": "Ralphs Tastybites", "related_places": {}, "timezone": "Europe/London"}, {"fsq_id": "c28e1da8910a4a5e4f44a82a", "categories": [{"id": 13032, "name": "Cafe, Coffee, and Tea House", "short_name": "Cafe, Coffee, and Tea House", "plural_name": "Cafes, Coffee, and Tea Houses", "icon": {"prefix": "https://ss3.4sqi.net/img/categories_v2/food/coffeeshop_", "suffix": ".png"}}, {"id": 13065, "name": "Restaurant", "short_name": "Restaurant", "plural_name": "Restaurants", "icon": {"prefix": "https://ss3.4sqi.net/img/categories_v2/food/default_", "suffix": ".png"}}], "chains": [], "closed_bucket": "Unsure", "distance": 899, "geocodes": {"main": {"latitude": 55.870572, "longitude": -4.337622}, "roof": {"latitude": 55.870572, "longitude": -4.337622}}, "link": "/v3/places/c28e1da8910a4a5e4f44a82a", "location": {"address": "150 Clydeholm Rd, Whiteinch", "admin_region": "Scotland", "country": "GB", "formatted_address": "150 Clydeholm Rd, Whiteinch, Glasgow, G14 0QQ", "locality": "Glasgow", "post_town": "Glasgow", "postcode": "G14 0QQ"}, "name": "Holm cafe", "related_places": {}}], "context": {"geo_bounds": {"circle": {"center": {"latitude": 55.862838, "longitude": -4.341885}, "radius": 1000}}}}