{"results": [{"fsq_id": "546df31e498eeca6e6ab282c", "categories": [{"id": 13065, "name": "Restaurant", "short_name": "Restaurant", "plural_name": "Restaurants", "icon": {"prefix": "https://ss3.4sqi.net/img/categories_v2/food/default_", "suffix": ".png"}}], "chains": [], "closed_bucket": "VeryLikelyOpen", "distance": 744, "geocodes": {"main": {"latitude": 55.823516, "longitude": -4.28806}, "roof": {"latitude": 55.823516, "longitude": -4.28806}}, "link": "/v3/places/546df31e498eeca6e6ab282c", "location": {"address": "16 Newlandsfield Rd", "admin_region": "Scotland", "country": "GB", "cross_street": "", "formatted_address": "16 Newlandsfield Rd, Glasgow, G43 2XU", "locality": "Glasgow", "post_town": "Glasgow", "postcode": "G43 2XU"}, "name": "Loks Bar & Kitchen", "related_places": {}, "timezone": "Europe/London"}, {"fsq_id": "4bf7fa684a67c928cd7624cf", "categories": [{"id": 13018, "name": "Pub", "short_name": "Pub", "plural_name": "Pubs", "icon": {"prefix": "https://ss3.4sqi.net/img/categories_v2/nightlife/pub_", "suffix": ".png"}}], "chains": [{"id": "07841cd9-3716-4bd6-8ebd-ad13070b3125", "name": "J D Wetherspoon"}], "closed_bucket": "Unsure", "distance": 989, "geocodes": {"main": {"latitude": 55.827557, "longitude": -4.284683}, "roof": {"latitude": 55.827557, "longitude": -4.284683}}, "link": "/v3/places/4bf7fa684a67c928cd7624cf", "location": {"address": "140 Kilmarnock Rd", "admin_region": "Scotland", "country": "GB", "formatted_address": "140 Kilmarnock Rd, Glasgow, Glasgow City, G41 3NN", "locality": "Glasgow", "post_town": "Glasgow", "postcode": "G41 3NN", "region": "Glasgow City"}, "name": "Sir John Stirling Maxwell", "related_places": {}, "timezone": "Europe/London"}, {"fsq_id": "4e3bc7586365a251c7023f9f", "categories": [{"id": 13099, "name": "Chinese Restaurant", "short_name": "Chinese", "plural_name": "Chinese Restaurants", "icon": {"prefix": "https://ss3.4sqi.net/img/categories_v2/food/asian_", "suffix": ".png"}}, {"id": 13145, "name": "Fast Food Restaurant", "short_name": "Fast Food", "plural_name": "Fast Food Restaurants", "icon": {"prefix": "https://ss3.4sqi.net/img/categories_v2/food/fastfood_", "suffix": ".png"}}], "chains": [], "closed_bucket": "LikelyOpen", "distance": 279, "geocodes": {"main": {"latitude": 55.825632, "longitude": -4.29527}, "roof": {"latitude": 55.825632, "longitude": -4.29527}}, "link": "/v3/places/4e3bc7586365a251c7023f9f", "location": {"address": "33 Shawbridge Arcade", "admin_region": "Scotland", "country": "GB", "formatted_address": "33 Shawbridge Arcade, Glasgow, Glasgow City, G43 1RT", "locality": "Glasgow", "post_town": "Glasgow", "postcode": "G43 1RT", "region": "Glasgow City"}, "name": "Lucky Star", "related_places": {}, "timezone": "Europe/London"}, {"fsq_id": "4e3e88846365a251c703ceef", "categories": [{"id": 13145, "name": "Fast Food Restaurant", "short_name": "Fast Food", "plural_name": "Fast Food Restaurants", "icon": {"prefix": "https://ss3.4sqi.net/img/categories_v2/food/fastfood_", "suffix": ".png"}}, {"id": 13199, "name": "Indian Restaurant", "short_name": "Indian", "plural_name": "Indian Restaurants", "icon": {"prefix": "https://ss3.4sqi.net/img/categories_v2/food/indian_", "suffix": ".png"}}], "chains": [], "closed_bucket": "LikelyOpen", "distance": 281, "geocodes": {"main": {"latitude": 55.825583, "longitude": -4.295199}, "roof": {"latitude": 55.825583, "longitude": -4.295199}}, "link": "/v3/places/4e3e88846365a251c703ceef", "location": {"address": "29 Shawbridge Arcade", "admin_region": "Scotland", "country": "GB", "formatted_address": "29 Shawbridge Arcade, Glasgow, Glasgow City, G43 1RT", "locality": "Glasgow", "post_town": "Glasgow", "postcode": "G43 1RT", "region": "Glasgow City"}, "name": "Spice Routes", "related_places": {}, "timezone": "Europe/London"}, {"fsq_id": "529634c311d21b0f7e41c474", "categories": [{"id": 10000, "name": "Arts and Entertainment", "short_name": "Arts & Entertainment", "plural_name": "Arts and Entertainment", "icon": {"prefix": "https://ss3.4sqi.net/img/categories_v2/arts_entertainment/default_", "suffix": ".png"}}, {"id": 13003, "name": "Bar", "short_name": "Bar", "plural_name": "Bars", "icon": {"prefix": "https://ss3.4sqi.net/img/categories_v2/nightlife/pub_", "suffix": ".png"}}, {"id": 13031, "name": "Burger Joint", "short_name": "Burgers", "plural_name": "Burger Joints", "icon": {"prefix": "https://ss3.4sqi.net/img/categories_v2/food/burger_", "suffix": ".png"}}], "chains": [], "closed_bucket": "VeryLikelyOpen", "distance": 372, "geocodes": {"main": {"latitude": 55.823219, "longitude": -4.303321}, "roof": {"latitude": 55.823219, "longitude": -4.303321}}, "link": "/v3/places/529634c311d21b0f7e41c474", "location": {"address": "2060 Pollockshaw Rd", "admin_region": "Scotland", "country": "GB", "cross_street": "", "formatted_address": "2060 Pollockshaw Rd, Glasgow, G43 1AT", "locality": "Glasgow", "post_town": "Glasgow", "postcode": "G43 1AT"}, "name": "Burrell Restaurant", "related_places": {}, "timezone": "Europe/London"}, {"fsq_id": "51c25663454a342160dc7b34", "categories": [{"id": 13003, "name": "Bar", "short_name": "Bar", "plural_name": "Bars", "icon": {"prefix": "https://ss3.4sqi.net/img/categories_v2/nightlife/pub_", "suffix": ".png"}}], "chains": [], "closed_bucket": "VeryLikelyOpen", "distance": 383, "geocodes": {"drop_off": {"latitude": 55.825502, "longitude": -4.293661}, "main": {"latitude": 55.825407, "longitude": -4.293687}, "roof": {"latitude": 55.825407, "longitude": -4.293687}}, "link": "/v3/places/51c25663454a342160dc7b34", "location": {"address": "12 Greenview St", "admin_region": "Scotland", "country": "GB", "formatted_address": "12 Greenview St, Glasgow, Glasgow City, G43 1SN", "locality": "Glasgow", "post_town": "Glasgow", "postcode": "G43 1SN", "region": "Glasgow City"}, "name": "Taps Oan", "related_places": {}, "timezone": "Europe/London"}, {"fsq_id": "4fc50f1cd5fbe3b4351367bd", "categories": [{"id": 13003, "name": "Bar", "short_name": "Bar", "plural_name": "Bars", "icon": {"prefix": "https://ss3.4sqi.net/img/categories_v2/nightlife/pub_", "suffix": ".png"}}, {"id": 13347, "name": "Tapas Restaurant", "short_name": "Tapas", "plural_name": "Tapas Restaurants", "icon": {"prefix": "https://ss3.4sqi.net/img/categories_v2/food/tapas_", "suffix": ".png"}}], "chains": [], "closed_bucket": "LikelyOpen", "distance": 385, "geocodes": {"main": {"latitude": 55.827617, "longitude": -4.295577}, "roof": {"latitude": 55.827617, "longitude": -4.295577}}, "link": "/v3/places/4fc50f1cd5fbe3b4351367bd", "location": {"address": "1534 Pollokshaws Rd", "admin_region": "Scotland", "country": "GB", "cross_street": "Pollokshaws", "formatted_address": "1534 Pollokshaws Rd (Pollokshaws), Glasgow, G43 1RF", "locality": "Glasgow", "post_town": "Glasgow", "postcode": "G43 1RF"}, "name": "La Vida Tapas Bar", "related_places": {}, "timezone": "Europe/London"}, {"fsq_id": "526ea7df498e5b63e521e724", "categories": [{"id": 13003, "name": "Bar", "short_name": "Bar", "plural_name": "Bars", "icon": {"prefix": "https://ss3.4sqi.net/img/categories_v2/nightlife/pub_", "suffix": ".png"}}], "chains": [], "closed_bucket": "VeryLikelyOpen", "distance": 390, "geocodes": {"main": {"latitude": 55.827611, "longitude": -4.295682}, "roof": {"latitude": 55.827611, "longitude": -4.295682}}, "link": "/v3/places/526ea7df498e5b63e521e724", "location": {"admin_region": "Scotland", "country": "GB", "cross_street": "", "formatted_address": "Glasgow, Glasgow City, G43 1RF", "locality": "Glasgow", "post_town": "Glasgow", "postcode": "G43 1RF", "region": "Glasgow City"}, "name": "Burrell", "related_places": {}, "timezone": "Europe/London"}, {"fsq_id": "cedaf863c895467a9d350648", "categories": [{"id": 13003, "name": "Bar", "short_name": "Bar", "plural_name": "Bars", "icon": {"prefix": "https://ss3.4sqi.net/img/categories_v2/nightlife/pub_", "suffix": ".png"}}, {"id": 13347, "name": "Tapas Restaurant", "short_name": "Tapas", "plural_name": "Tapas Restaurants", "icon": {"prefix": "https://ss3.4sqi.net/img/categories_v2/food/tapas_", "suffix": ".png"}}], "chains": [], "closed_bucket": "Unsure", "distance": 395, "geocodes": {"main": {"latitude": 55.827617, "longitude": -4.295577}, "roof": {"latitude": 55.827617, "longitude": -4.295577}}, "link": "/v3/places/cedaf863c895467a9d350648", "location": {"address": "1543 Pollokshaws Rd", "admin_region": "Scotland", "country": "GB", "formatted_address": "1543 Pollokshaws Rd, Glasgow, Glasgow City, G43 1RF", "locality": "Glasgow", "post_town": "Glasgow", "postcode": "G43 1RF", "region": "Glasgow City"}, "name": "Nineteenoone Bar", "related_places": {}, "timezone": "Europe/London"}, {"fsq_id": "4e74296c315188bfdc50a73a", "categories": [{"id": 13034, "name": "Caf\u00e9", "short_name": "Caf\u00e9", "plural_name": "Caf\u00e9s", "icon": {"prefix": "https://ss3.4sqi.net/img/categories_v2/food/cafe_", "suffix": ".png"}}, {"id": 13039, "name": "Deli", "short_name": "Deli", "plural_name": "Delis", "icon": {"prefix": "https://ss3.4sqi.net/img/categories_v2/food/deli_", "suffix": ".png"}}, {"id": 13145, "name": "Fast Food Restaurant", "short_name": "Fast Food", "plural_name": "Fast Food Restaurants", "icon": {"prefix": "https://ss3.4sqi.net/img/categories_v2/food/fastfood_", "suffix": ".png"}}], "chains": [], "closed_bucket": "Unsure", "distance": 698, "geocodes": {"main": {"latitude": 55.824833, "longitude": -4.286245}, "roof": {"latitude": 55.824833, "longitude": -4.286245}}, "link": "/v3/places/4e74296c315188bfdc50a73a", "location": {"address": "262 Kilmarnock Rd", "admin_region": "Scotland", "country": "GB", "formatted_address": "262 Kilmarnock Rd, Glasgow, Glasgow City, G43 2XS", "locality": "Glasgow", "post_town": "Glasgow", "postcode": "G43 2XS", "region": "Glasgow City"}, "name": "Newlands Cafe", "related_places": {}, "timezone": "Europe/London"}, {"fsq_id": "5cc0d99af00a70002c4a5e6b", "categories": [{"id": 13003, "name": "Bar", "short_name": "Bar", "plural_name": "Bars", "icon": {"prefix": "https://ss3.4sqi.net/img/categories_v2/nightlife/pub_", "suffix": ".png"}}], "chains": [], "closed_bucket": "LikelyOpen", "distance": 736, "geocodes": {"main": {"latitude": 55.818593, "longitude": -4.303106}, "roof": {"latitude": 55.818593, "longitude": -4.303106}}, "link": "/v3/places/5cc0d99af00a70002c4a5e6b", "location": {"address": "9 Westwood Rd", "admin_region": "Scotland", "country": "GB", "cross_street": "", "formatted_address": "9 Westwood Rd, Glasgow, Glasgow City, G43 1DU", "locality": "Glasgow", "post_town": "Glasgow", "postcode": "G43 1DU", "region": "Glasgow City"}, "name": "The Shaws Bar", "related_places": {}, "timezone": "Europe/London"}, {"fsq_id": "4c092db47e3fc928277df182", "categories": [{"id": 13018, "name": "Pub", "short_name": "Pub", "plural_name": "Pubs", "icon": {"prefix": "https://ss3.4sqi.net/img/categories_v2/nightlife/pub_", "suffix": ".png"}}], "chains": [], "closed_bucket": "LikelyOpen", "distance": 758, "geocodes": {"drop_off": {"latitude": 55.825513, "longitude": -4.28753}, "main": {"latitude": 55.825392, "longitude": -4.287523}, "roof": {"latitude": 55.825392, "longitude": -4.287523}}, "link": "/v3/places/4c092db47e3fc928277df182", "location": {"address": "52 Coustonholm Rd", "admin_region": "Scotland", "country": "GB", "formatted_address": "52 Coustonholm Rd, Glasgow, Glasgow City, G43 1UF", "locality": "Glasgow", "post_town": "Glasgow", "postcode": "G43 1UF", "region": "Glasgow City"}, "name": "Quaich", "related_places": {}, "timezone": "Europe/London"}, {"fsq_id": "4e5fc2b4d164df36c40571c9", "categories": [{"id": 13199, "name": "Indian Restaurant", "short_name": "Indian", "plural_name": "Indian Restaurants", "icon": {"prefix": "https://ss3.4sqi.net/img/categories_v2/food/indian_", "suffix": ".png"}}], "chains": [], "closed_bucket": "VeryLikelyOpen", "distance": 809, "geocodes": {"main": {"latitude": 55.821191, "longitude": -4.288163}, "roof": {"latitude": 55.821191, "longitude": -4.288163}}, "link": "/v3/places/4e5fc2b4d164df36c40571c9", "location": {"address": "182 Riverford Rd", "admin_region": "Scotland", "country": "GB", "cross_street": "", "formatted_address": "182 Riverford Rd, Glasgow, G43 2DE", "locality": "Glasgow", "post_town": "Glasgow", "postcode": "G43 2DE"}, "name": "Kebab City", "related_places": {}, "timezone": "Europe/London"}, {"fsq_id": "4e3f12836365a251c7041caf", "categories": [{"id": 13051, "name": "Fish and Chips Shop", "short_name": "Fish and Chips Shop", "plural_name": "Fish and Chips Shops", "icon": {"prefix": "https://ss3.4sqi.net/img/categories_v2/food/fishandchips_", "suffix": ".png"}}, {"id": 13145, "name": "Fast Food Restaurant", "short_name": "Fast Food", "plural_name": "Fast Food Restaurants", "icon": {"prefix": "https://ss3.4sqi.net/img/categories_v2/food/fastfood_", "suffix": ".png"}}], "chains": [], "closed_bucket": "VeryLikelyOpen", "distance": 821, "geocodes": {"drop_off": {"latitude": 55.825634, "longitude": -4.286574}, "main": {"latitude": 55.8255, "longitude": -4.286545}, "roof": {"latitude": 55.8255, "longitude": -4.286545}}, "link": "/v3/places/4e3f12836365a251c7041caf", "location": {"address": "74 Coustonholm Rd", "admin_region": "Scotland", "country": "GB", "formatted_address": "74 Coustonholm Rd, Glasgow, Glasgow City, G43 1TZ", "locality": "Glasgow", "post_town": "Glasgow", "postcode": "G43 1TZ", "region": "Glasgow City"}, "name": "Guido's Fish & Chips", "related_places": {}, "timezone": "Europe/London"}, {"fsq_id": "4e625c25e4cdf1e2bf430d33", "categories": [{"id": 13007, "name": "Beer Garden", "short_name": "Beer Garden", "plural_name": "Beer Gardens", "icon": {"prefix": "https://ss3.4sqi.net/img/categories_v2/nightlife/beergarden_", "suffix": ".png"}}], "chains": [], "closed_bucket": "VeryLikelyOpen", "distance": 842, "geocodes": {"main": {"latitude": 55.827127, "longitude": -4.286666}, "roof": {"latitude": 55.827127, "longitude": -4.286666}}, "link": "/v3/places/4e625c25e4cdf1e2bf430d33", "location": {"country": "GB", "cross_street": "", "formatted_address": "Glasgow, Glasgow City", "locality": "Glasgow", "post_town": "Glasgow", "region": "Glasgow City"}, "name": "Celtic Pub", "related_places": {}, "timezone": "Europe/London"}, {"fsq_id": "5e08d3c3743019000856bb99", "categories": [{"id": 13065, "name": "Restaurant", "short_name": "Restaurant", "plural_name": "Restaurants", "icon": {"prefix": "https://ss3.4sqi.net/img/categories_v2/food/default_", "suffix": ".png"}}], "chains": [], "closed_bucket": "LikelyOpen", "distance": 843, "geocodes": {"drop_off": {"latitude": 55.825191, "longitude": -4.285968}, "main": {"latitude": 55.825257, "longitude": -4.286188}, "roof": {"latitude": 55.825257, "longitude": -4.286188}}, "link": "/v3/places/5e08d3c3743019000856bb99", "location": {"address": "248 Kilmarnock Rd", "admin_region": "Scotland", "country": "GB", "cross_street": "", "formatted_address": "248 Kilmarnock Rd, Glasgow, Glasgow City, G43 1TT", "locality": "Glasgow", "post_town": "Glasgow", "postcode": "G43 1TT", "region": "Glasgow City"}, "name": "The Dapper Mongoose", "related_places": {}, "timezone": "Europe/London"}, {"fsq_id": "4e742901315188bfdc509a5d", "categories": [{"id": 13034, "name": "Caf\u00e9", "short_name": "Caf\u00e9", "plural_name": "Caf\u00e9s", "icon": {"prefix": "https://ss3.4sqi.net/img/categories_v2/food/cafe_", "suffix": ".png"}}, {"id": 13199, "name": "Indian Restaurant", "short_name": "Indian", "plural_name": "Indian Restaurants", "icon": {"prefix": "https://ss3.4sqi.net/img/categories_v2/food/indian_", "suffix": ".png"}}], "chains": [], "closed_bucket": "LikelyOpen", "distance": 856, "geocodes": {"main": {"latitude": 55.824426, "longitude": -4.285987}, "roof": {"latitude": 55.824426, "longitude": -4.285987}}, "link": "/v3/places/4e742901315188bfdc509a5d", "location": {"address": "317 Kilmarnock Rd", "admin_region": "Scotland", "country": "GB", "formatted_address": "317 Kilmarnock Rd, Glasgow, Glasgow City, G43 2XS", "locality": "Glasgow", "post_town": "Glasgow", "postcode": "G43 2XS", "region": "Glasgow City"}, "name": "Spice Aroma", "related_places": {}, "timezone": "Europe/London"}, {"fsq_id": "589cd2aa005a0f1cef9e9343", "categories": [{"id": 13064, "name": "Pizzeria", "short_name": "Pizza", "plural_name": "Pizzerias", "icon": {"prefix": "https://ss3.4sqi.net/img/categories_v2/food/pizza_", "suffix": ".png"}}, {"id": 13145, "name": "Fast Food Restaurant", "short_name": "Fast Food", "plural_name": "Fast Food Restaurants", "icon": {"prefix": "https://ss3.4sqi.net/img/categories_v2/food/fastfood_", "suffix": ".png"}}], "chains": [{"id": "ab4afc60-d68a-012e-5619-003048cad9da", "name": "Domino's Pizza"}], "closed_bucket": "VeryLikelyOpen", "distance": 856, "geocodes": {"main": {"latitude": 55.825634, "longitude": -4.286059}, "roof": {"latitude": 55.825634, "longitude": -4.286059}}, "link": "/v3/places/589cd2aa005a0f1cef9e9343", "location": {"address": "228-232 Kilmarnock Rd", "admin_region": "Scotland", "country": "GB", "cross_street": "", "formatted_address": "228-232 Kilmarnock Rd, Glasgow, Glasgow City, G43 1TY", "locality": "Glasgow", "post_town": "Glasgow", "postcode": "G43 1TY", "region": "Glasgow City"}, "name": "Domino's Pizza", "related_places": {}, "timezone": "Europe/London"}, {"fsq_id": "5b6ecdecc9f907002ccedf8f", "categories": [{"id": 13065, "name": "Restaurant", "short_name": "Restaurant", "plural_name": "Restaurants", "icon": {"prefix": "https://ss3.4sqi.net/img/categories_v2/food/default_", "suffix": ".png"}}], "chains": [], "closed_bucket": "LikelyOpen", "distance": 886, "geocodes": {"main": {"latitude": 55.826168, "longitude": -4.285936}, "roof": {"latitude": 55.826168, "longitude": -4.285936}}, "link": "/v3/places/5b6ecdecc9f907002ccedf8f", "location": {"address": "210 Kilmarnock Rd", "admin_region": "Scotland", "country": "GB", "cross_street": "", "formatted_address": "210 Kilmarnock Rd, Glasgow, Glasgow City, G43 1TY", "locality": "Glasgow", "post_town": "Glasgow", "postcode": "G43 1TY", "region": "Glasgow City"}, "name": "Kilmurry & Co", "related_places": {}, "timezone": "Europe/London"}, {"fsq_id": "5079bd26e4b0eb8b83d13211", "categories": [{"id": 13099, "name": "Chinese Restaurant", "short_name": "Chinese", "plural_name": "Chinese Restaurants", "icon": {"prefix": "https://ss3.4sqi.net/img/categories_v2/food/asian_", "suffix": ".png"}}], "chains": [], "closed_bucket": "VeryLikelyOpen", "distance": 887, "geocodes": {"main": {"latitude": 55.821191, "longitude": -4.288163}, "roof": {"latitude": 55.821191, "longitude": -4.288163}}, "link": "/v3/places/5079bd26e4b0eb8b83d13211", "location": {"address": "186 Riverford Rd", "admin_region": "Scotland", "country": "GB", "cross_street": "Newlands", "formatted_address": "186 Riverford Rd (Newlands), Glasgow, G43 2DE", "locality": "Glasgow", "post_town": "Glasgow", "postcode": "G43 2DE"}, "name": "Happy Garden", "related_places": {}, "timezone": "Europe/London"}, {"fsq_id": "4cf2520c6c29236a40ec6aa2", "categories": [{"id": 13027, "name": "Bistro", "short_name": "Bistro", "plural_name": "Bistros", "icon": {"prefix": "https://ss3.4sqi.net/img/categories_v2/food/default_", "suffix": ".png"}}, {"id": 13034, "name": "Caf\u00e9", "short_name": "Caf\u00e9", "plural_name": "Caf\u00e9s", "icon": {"prefix": "https://ss3.4sqi.net/img/categories_v2/food/cafe_", "suffix": ".png"}}, {"id": 13035, "name": "Coffee Shop", "short_name": "Coffee Shop", "plural_name": "Coffee Shops", "icon": {"prefix": "https://ss3.4sqi.net/img/categories_v2/food/coffeeshop_", "suffix": ".png"}}], "chains": [], "closed_bucket": "LikelyOpen", "distance": 895, "geocodes": {"main": {"latitude": 55.826841, "longitude": -4.285221}, "roof": {"latitude": 55.826841, "longitude": -4.285221}}, "link": "/v3/places/4cf2520c6c29236a40ec6aa2", "location": {"address": "178 Kilmarnock Rd", "admin_region": "Scotland", "country": "GB", "cross_street": "", "formatted_address": "178 Kilmarnock Rd, Glasgow, Glasgow City, G41 3PG", "locality": "Glasgow", "post_town": "Glasgow", "postcode": "G41 3PG", "region": "Glasgow City"}, "name": "One Seven Ate", "related_places": {}, "timezone": "Europe/London"}, {"fsq_id": "e61e39929ab24f94dc65bf5a", "categories": [{"id": 13145, "name": "Fast Food Restaurant", "short_name": "Fast Food", "plural_name": "Fast Food Restaurants", "icon": {"prefix": "https://ss3.4sqi.net/img/categories_v2/food/fastfood_", "suffix": ".png"}}], "chains": [], "closed_bucket": "VeryLikelyOpen", "distance": 911, "geocodes": {"drop_off": {"latitude": 55.826636, "longitude": -4.285208}, "main": {"latitude": 55.826878, "longitude": -4.285502}, "roof": {"latitude": 55.826878, "longitude": -4.285502}}, "link": "/v3/places/e61e39929ab24f94dc65bf5a", "location": {"address": "162-164 Kilmarnock Rd", "admin_region": "Scotland", "country": "GB", "formatted_address": "162-164 Kilmarnock Rd, Glasgow, Glasgow City, G41 3PG", "locality": "Glasgow", "post_town": "Glasgow", "postcode": "G41 3PG", "region": "Glasgow City"}, "name": "Berivan", "related_places": {}, "timezone": "Europe/London"}, {"fsq_id": "4c0d624b336220a1a6a3ca77", "categories": [{"id": 13145, "name": "Fast Food Restaurant", "short_name": "Fast Food", "plural_name": "Fast Food Restaurants", "icon": {"prefix": "https://ss3.4sqi.net/img/categories_v2/food/fastfood_", "suffix": ".png"}}, {"id": 13199, "name": "Indian Restaurant", "short_name": "Indian", "plural_name": "Indian Restaurants", "icon": {"prefix": "https://ss3.4sqi.net/img/categories_v2/food/indian_", "suffix": ".png"}}], "chains": [], "closed_bucket": "VeryLikelyOpen", "distance": 945, "geocodes": {"main": {"latitude": 55.821191, "longitude": -4.288163}, "roof": {"latitude": 55.821191, "longitude": -4.288163}}, "link": "/v3/places/4c0d624b336220a1a6a3ca77", "location": {"address": "184 Riverford Rd", "admin_region": "Scotland", "country": "GB", "cross_street": "", "formatted_address": "184 Riverford Rd, Glasgow, Glasgow City, G43 2DE", "locality": "Glasgow", "post_town": "Glasgow", "postcode": "G43 2DE", "region": "Glasgow City"}, "name": "Natural Spice", "related_places": {}, "timezone": "Europe/London"}, {"fsq_id": "5d27b7d6e7e5fc0023f51248", "categories": [{"id": 13066, "name": "Afghan Restaurant", "short_name": "Afghan", "plural_name": "Afghan Restaurants", "icon": {"prefix": "https://ss3.4sqi.net/img/categories_v2/food/afghan_", "suffix": ".png"}}], "chains": [], "closed_bucket": "LikelyOpen", "distance": 956, "geocodes": {"drop_off": {"latitude": 55.826931, "longitude": -4.28494}, "main": {"latitude": 55.82706, "longitude": -4.285088}, "roof": {"latitude": 55.82706, "longitude": -4.285088}}, "link": "/v3/places/5d27b7d6e7e5fc0023f51248", "location": {"address": "162 164 Kilmarnock Rd", "admin_region": "Scotland", "country": "GB", "cross_street": "", "formatted_address": "162 164 Kilmarnock Rd, Glasgow, Glasgow City", "locality": "Glasgow", "post_town": "Glasgow", "region": "Glasgow City"}, "name": "Bab-e-khyber", "related_places": {}, "timezone": "Europe/London"}, {"fsq_id": "4c3786b693db0f47a9f31f92", "categories": [{"id": 13018, "name": "Pub", "short_name": "Pub", "plural_name": "Pubs", "icon": {"prefix": "https://ss3.4sqi.net/img/categories_v2/nightlife/pub_", "suffix": ".png"}}], "chains": [], "closed_bucket": "VeryLikelyOpen", "distance": 975, "geocodes": {"drop_off": {"latitude": 55.827314, "longitude": -4.284604}, "main": {"latitude": 55.827448, "longitude": -4.284749}, "roof": {"latitude": 55.827448, "longitude": -4.284749}}, "link": "/v3/places/4c3786b693db0f47a9f31f92", "location": {"address": "137 Kilmarnock Road", "country": "GB", "formatted_address": "137 Kilmarnock Road, Glasgow, Glasgow City, G41 3YT", "locality": "Glasgow", "postcode": "G41 3YT", "region": "Glasgow City"}, "name": "The Millwood", "related_places": {}, "timezone": "Europe/London"}, {"fsq_id": "5182b140498e5b375e6bc442", "categories": [{"id": 13099, "name": "Chinese Restaurant", "short_name": "Chinese", "plural_name": "Chinese Restaurants", "icon": {"prefix": "https://ss3.4sqi.net/img/categories_v2/food/asian_", "suffix": ".png"}}], "chains": [], "closed_bucket": "LikelyOpen", "distance": 1344, "geocodes": {"main": {"latitude": 55.827114, "longitude": -4.285054}, "roof": {"latitude": 55.827114, "longitude": -4.285054}}, "link": "/v3/places/5182b140498e5b375e6bc442", "location": {"address": "162 Kilmarnock Rd", "admin_region": "Scotland", "country": "GB", "cross_street": "", "formatted_address": "162 Kilmarnock Rd, Glasgow, G41 3PG", "locality": "Glasgow", "post_town": "Glasgow", "postcode": "G41 3PG"}, "name": "Tao Chinese Takeaway", "related_places": {}, "timezone": "Europe/London"}, {"fsq_id": "42f4f4f5e7ba48d86de180d4", "categories": [{"id": 13029, "name": "Brewery", "short_name": "Brewery", "plural_name": "Breweries", "icon": {"prefix": "https://ss3.4sqi.net/img/categories_v2/food/brewery_", "suffix": ".png"}}], "chains": [], "closed_bucket": "Unsure", "distance": 255, "geocodes": {"main": {"latitude": 55.822913, "longitude": -4.297638}, "roof": {"latitude": 55.822913, "longitude": -4.297638}}, "link": "/v3/places/42f4f4f5e7ba48d86de180d4", "location": {"address": "137 Shawbridge St", "admin_region": "Scotland", "country": "GB", "formatted_address": "137 Shawbridge St, Glasgow, G43 1QQ", "locality": "Glasgow", "post_town": "Glasgow", "postcode": "G43 1QQ"}, "name": "Isle of Skye Brewery", "related_places": {}}, {"fsq_id": "6a729aeca40c489d49dc50c9", "categories": [{"id": 13003, "name": "Bar", "short_name": "Bar", "plural_name": "Bars", "icon": {"prefix": "https://ss3.4sqi.net/img/categories_v2/nightlife/pub_", "suffix": ".png"}}, {"id": 13065, "name": "Restaurant", "short_name": "Restaurant", "plural_name": "Restaurants", "icon": {"prefix": "https://ss3.4sqi.net/img/categories_v2/food/default_", "suffix": ".png"}}], "chains": [], "closed_bucket": "Unsure", "distance": 399, "geocodes": {"drop_off": {"latitude": 55.827513, "longitude": -4.295442}, "main": {"latitude": 55.827623, "longitude": -4.295473}, "roof": {"latitude": 55.827623, "longitude": -4.295473}}, "link": "/v3/places/6a729aeca40c489d49dc50c9", "location": {"admin_region": "Scotland", "country": "GB", "formatted_address": "Glasgow", "locality": "Glasgow", "post_town": "Glasgow"}, "name": "1901 Public House", "related_places": {}}, {"fsq_id": "a6fd60fd248b9da1980f75f0", "categories": [{"id": 13072, "name": "Asian Restaurant", "short_name": "Asian", "plural_name": "Asian Restaurants", "icon": {"prefix": "https://ss3.4sqi.net/img/categories_v2/food/asian_", "suffix": ".png"}}, {"id": 13145, "name": "Fast Food Restaurant", "short_name": "Fast Food", "plural_name": "Fast Food Restaurants", "icon": {"prefix": "https://ss3.4sqi.net/img/categories_v2/food/fastfood_", "suffix": ".png"}}], "chains": [], "closed_bucket": "Unsure", "distance": 735, "geocodes": {"drop_off": {"latitude": 55.823374, "longitude": -4.288066}, "main": {"latitude": 55.823565, "longitude": -4.288132}, "roof": {"latitude": 55.823565, "longitude": -4.288132}}, "link": "/v3/places/a6fd60fd248b9da1980f75f0", "location": {"address": "16 Newlandsfield Rd", "admin_region": "Scotland", "country": "GB", "formatted_address": "16 Newlandsfield Rd, Glasgow", "locality": "Glasgow", "post_town": "Glasgow"}, "name": "Bao Craft", "related_places": {}}, {"fsq_id": "653577ec301642da9a145dcd", "categories": [{"id": 13199, "name": "Indian Restaurant", "short_name": "Indian", "plural_name": "Indian Restaurants", "icon": {"prefix": "https://ss3.4sqi.net/img/categories_v2/food/indian_", "suffix": ".png"}}], "chains": [], "closed_bucket": "Unsure", "distance": 736, "geocodes": {"drop_off": {"latitude": 55.818773, "longitude": -4.304739}, "main": {"latitude": 55.818921, "longitude": -4.304728}, "roof": {"latitude": 55.818921, "longitude": -4.304728}}, "link": "/v3/places/653577ec301642da9a145dcd", "location": {"address": "5 Stat 18 Westwood Square", "country": "GB", "formatted_address": "5 Stat 18 Westwood Square, Glasgow", "locality": "Glasgow", "post_town": "Glasgow"}, "name": "Balti Palace", "related_places": {}}], "context": {"geo_bounds": {"circle": {"center": {"latitude": 55.824907, "longitude": -4.299678}, "radius": 1000}}}}