{"results": [{"fsq_id": "4b7b007cf964a5205b4b2fe3", "categories": [{"id": 13199, "name": "Indian Restaurant", "short_name": "Indian", "plural_name": "Indian Restaurants", "icon": {"prefix": "https://ss3.4sqi.net/img/categories_v2/food/indian_", "suffix": ".png"}}], "chains": [], "closed_bucket": "Unsure", "distance": 1002, "geocodes": {"main": {"latitude": 55.867287, "longitude": -4.2911}, "roof": {"latitude": 55.867287, "longitude": -4.2911}}, "link": "/v3/places/4b7b007cf964a5205b4b2fe3", "location": {"address": "1355 Argyle St", "admin_region": "Scotland", "country": "GB", "formatted_address": "1355 Argyle St, Glasgow, Glasgow City, G3 8AD", "locality": "Glasgow", "post_town": "Glasgow", "postcode": "G3 8AD", "region": "Glasgow City"}, "name": "Mother India's Cafe", "related_places": {}, "timezone": "Europe/London"}, {"fsq_id": "536e0497498effee047e1ab2", "categories": [{"id": 13065, "name": "Restaurant", "short_name": "Restaurant", "plural_name": "Restaurants", "icon": {"prefix": "https://ss3.4sqi.net/img/categories_v2/food/default_", "suffix": ".png"}}], "chains": [], "closed_bucket": "Unsure", "distance": 940, "geocodes": {"main": {"latitude": 55.865754, "longitude": -4.284743}, "roof": {"latitude": 55.865754, "longitude": -4.284743}}, "link": "/v3/places/536e0497498effee047e1ab2", "location": {"address": "920 Sauchiehall St", "admin_region": "Scotland", "country": "GB", "cross_street": "", "formatted_address": "920 Sauchiehall St, Glasgow, G3 7TF", "locality": "Glasgow", "post_town": "Glasgow", "postcode": "G3 7TF"}, "name": "Ox and Finch", "related_places": {}, "timezone": "Europe/London"}, {"fsq_id": "4b687ef1f964a520237c2be3", "categories": [{"id": 13024, "name": "Whisky Bar", "short_name": "Whisky Bar", "plural_name": "Whisky Bars", "icon": {"prefix": "https://ss3.4sqi.net/img/categories_v2/nightlife/whiskey_", "suffix": ".png"}}], "chains": [], "closed_bucket": "Unsure", "distance": 873, "geocodes": {"main": {"latitude": 55.864838, "longitude": -4.2851}, "roof": {"latitude": 55.864838, "longitude": -4.2851}}, "link": "/v3/places/4b687ef1f964a520237c2be3", "location": {"address": "1147 Argyle St", "admin_region": "Scotland", "country": "GB", "cross_street": "Corunna St", "formatted_address": "1147 Argyle St (Corunna St), Glasgow, Glasgow City, G3 8TB", "locality": "Glasgow", "post_town": "Glasgow", "postcode": "G3 8TB", "region": "Glasgow City"}, "name": "The Ben Nevis", "related_places": {}, "timezone": "Europe/London"}, {"fsq_id": "4bc2003eabf49521bdbfc193", "categories": [{"id": 13025, "name": "Wine Bar", "short_name": "Wine Bar", "plural_name": "Wine Bars", "icon": {"prefix": "https://ss3.4sqi.net/img/categories_v2/food/winery_", "suffix": ".png"}}, {"id": 13383, "name": "Steakhouse", "short_name": "Steakhouse", "plural_name": "Steakhouses", "icon": {"prefix": "https://ss3.4sqi.net/img/categories_v2/food/steakhouse_", "suffix": ".png"}}], "chains": [], "closed_bucket": "Unsure", "distance": 966, "geocodes": {"main": {"latitude": 55.866819, "longitude": -4.289157}, "roof": {"latitude": 55.866819, "longitude": -4.289157}}, "link": "/v3/places/4bc2003eabf49521bdbfc193", "location": {"address": "1055 Sauchiehall St", "admin_region": "Scotland", "country": "GB", "formatted_address": "1055 Sauchiehall St, Glasgow, Glasgow City, G3 7UD", "locality": "Glasgow", "post_town": "Glasgow", "postcode": "G3 7UD", "region": "Glasgow City"}, "name": "The Butchershop Bar & Grill", "related_places": {}, "timezone": "Europe/London"}, {"fsq_id": "4c8530ab74d7b60cac4999d8", "categories": [{"id": 13199, "name": "Indian Restaurant", "short_name": "Indian", "plural_name": "Indian Restaurants", "icon": {"prefix": "https://ss3.4sqi.net/img/categories_v2/food/indian_", "suffix": ".png"}}], "chains": [], "closed_bucket": "Unsure", "distance": 949, "geocodes": {"main": {"latitude": 55.865238, "longitude": -4.28364}, "roof": {"latitude": 55.865238, "longitude": -4.28364}}, "link": "/v3/places/4c8530ab74d7b60cac4999d8", "location": {"address": "28 Westminster Terrace", "admin_region": "Scotland", "country": "GB", "formatted_address": "28 Westminster Terrace, Glasgow, Glasgow City, G3 7RU", "locality": "Glasgow", "post_town": "Glasgow", "postcode": "G3 7RU", "region": "Glasgow City"}, "name": "Mother India", "related_places": {}, "timezone": "Europe/London"}, {"fsq_id": "56752941498ef438347e5c5e", "categories": [{"id": 13002, "name": "Bakery", "short_name": "Bakery", "plural_name": "Bakeries", "icon": {"prefix": "https://ss3.4sqi.net/img/categories_v2/food/bakery_", "suffix": ".png"}}, {"id": 13035, "name": "Coffee Shop", "short_name": "Coffee Shop", "plural_name": "Coffee Shops", "icon": {"prefix": "https://ss3.4sqi.net/img/categories_v2/food/coffeeshop_", "suffix": ".png"}}, {"id": 13145, "name": "Fast Food Restaurant", "short_name": "Fast Food", "plural_name": "Fast Food Restaurants", "icon": {"prefix": "https://ss3.4sqi.net/img/categories_v2/food/fastfood_", "suffix": ".png"}}], "chains": [], "closed_bucket": "LikelyOpen", "distance": 963, "geocodes": {"main": {"latitude": 55.86693, "longitude": -4.291825}, "roof": {"latitude": 55.86693, "longitude": -4.291825}}, "link": "/v3/places/56752941498ef438347e5c5e", "location": {"address": "27 Old Dumbarton Rd", "admin_region": "Scotland", "country": "GB", "cross_street": "", "formatted_address": "27 Old Dumbarton Rd, Glasgow, Glasgow City, G3 8RD", "locality": "Glasgow", "post_town": "Glasgow", "postcode": "G3 8RD", "region": "Glasgow City"}, "name": "Tantrum Doughnuts", "related_places": {}, "timezone": "Europe/London"}, {"fsq_id": "4b8d5addf964a5209df632e3", "categories": [{"id": 13199, "name": "Indian Restaurant", "short_name": "Indian", "plural_name": "Indian Restaurants", "icon": {"prefix": "https://ss3.4sqi.net/img/categories_v2/food/indian_", "suffix": ".png"}}], "chains": [], "closed_bucket": "VeryLikelyOpen", "distance": 722, "geocodes": {"main": {"latitude": 55.857888, "longitude": -4.281346}, "roof": {"latitude": 55.857888, "longitude": -4.281346}}, "link": "/v3/places/4b8d5addf964a5209df632e3", "location": {"address": "181 Finnieston St", "admin_region": "Scotland", "country": "GB", "cross_street": "", "formatted_address": "181 Finnieston St, Glasgow, Glasgow City, G3 8HE", "locality": "Glasgow", "post_town": "Glasgow", "postcode": "G3 8HE", "region": "Glasgow City"}, "name": "India Quay", "related_places": {}, "timezone": "Europe/London"}, {"fsq_id": "4c263d74b012b7135fd90893", "categories": [{"id": 13002, "name": "Bakery", "short_name": "Bakery", "plural_name": "Bakeries", "icon": {"prefix": "https://ss3.4sqi.net/img/categories_v2/food/bakery_", "suffix": ".png"}}, {"id": 13036, "name": "Tea Room", "short_name": "Tea Room", "plural_name": "Tea Rooms", "icon": {"prefix": "https://ss3.4sqi.net/img/categories_v2/food/tearoom_", "suffix": ".png"}}, {"id": 13065, "name": "Restaurant", "short_name": "Restaurant", "plural_name": "Restaurants", "icon": {"prefix": "https://ss3.4sqi.net/img/categories_v2/food/default_", "suffix": ".png"}}], "chains": [], "closed_bucket": "LikelyOpen", "distance": 863, "geocodes": {"main": {"latitude": 55.864291, "longitude": -4.283611}, "roof": {"latitude": 55.864291, "longitude": -4.283611}}, "link": "/v3/places/4c263d74b012b7135fd90893", "location": {"address": "1103 Argyle St", "address_extended": "Unit 8", "admin_region": "Scotland", "country": "GB", "cross_street": "Argyle Court", "formatted_address": "1103 Argyle St (Argyle Court), Glasgow, G3 8ND", "locality": "Glasgow", "post_town": "Glasgow", "postcode": "G3 8ND"}, "name": "The Hidden Lane Tearoom", "related_places": {"children": [{"fsq_id": "6177c84b1b7e0864e20470d8", "categories": [{"id": 11124, "name": "Office", "short_name": "Office", "plural_name": "Offices", "icon": {"prefix": "https://ss3.4sqi.net/img/categories_v2/building/default_", "suffix": ".png"}}], "name": "Rakata Technology Limited"}]}, "timezone": "Europe/London"}, {"fsq_id": "59db8f289b0473324995f784", "categories": [{"id": 13298, "name": "Lebanese Restaurant", "short_name": "Lebanese", "plural_name": "Lebanese Restaurants", "icon": {"prefix": "https://ss3.4sqi.net/img/categories_v2/food/middleeastern_", "suffix": ".png"}}], "chains": [], "closed_bucket": "VeryLikelyOpen", "distance": 858, "geocodes": {"main": {"latitude": 55.851521, "longitude": -4.298705}, "roof": {"latitude": 55.851521, "longitude": -4.298705}}, "link": "/v3/places/59db8f289b0473324995f784", "location": {"address": "450 Paisley Rd West", "admin_region": "Scotland", "country": "GB", "cross_street": "", "formatted_address": "450 Paisley Rd West, Glasgow, Glasgow City, G51 1PX", "locality": "Glasgow", "post_town": "Glasgow", "postcode": "G51 1PX", "region": "Glasgow City"}, "name": "Beirut Star", "related_places": {}, "timezone": "Europe/London"}, {"fsq_id": "523f5bd411d202b54c76c7c3", "categories": [{"id": 13337, "name": "Scottish Restaurant", "short_name": "Scottish", "plural_name": "Scottish Restaurants", "icon": {"prefix": "https://ss3.4sqi.net/img/categories_v2/food/default_", "suffix": ".png"}}], "chains": [], "closed_bucket": "VeryLikelyOpen", "distance": 872, "geocodes": {"drop_off": {"latitude": 55.865039, "longitude": -4.285229}, "main": {"latitude": 55.864881, "longitude": -4.285277}, "roof": {"latitude": 55.864881, "longitude": -4.285277}}, "link": "/v3/places/523f5bd411d202b54c76c7c3", "location": {"address": "1155 Argyle St", "admin_region": "Scotland", "country": "GB", "cross_street": "", "formatted_address": "1155 Argyle St, Glasgow, G3 8TB", "locality": "Glasgow", "post_town": "Glasgow", "postcode": "G3 8TB"}, "name": "The Gannet", "related_places": {}, "timezone": "Europe/London"}, {"fsq_id": "4b65dd17f964a520ac042be3", "categories": [{"id": 13009, "name": "Cocktail Bar", "short_name": "Cocktail", "plural_name": "Cocktail Bars", "icon": {"prefix": "https://ss3.4sqi.net/img/categories_v2/nightlife/cocktails_", "suffix": ".png"}}, {"id": 13057, "name": "Gastropub", "short_name": "Gastropub", "plural_name": "Gastropubs", "icon": {"prefix": "https://ss3.4sqi.net/img/categories_v2/food/gastropub_", "suffix": ".png"}}], "chains": [], "closed_bucket": "Unsure", "distance": 933, "geocodes": {"main": {"latitude": 55.864078, "longitude": -4.281817}, "roof": {"latitude": 55.864078, "longitude": -4.281817}}, "link": "/v3/places/4b65dd17f964a520ac042be3", "location": {"address": "1008 Argyle St", "admin_region": "Scotland", "country": "GB", "cross_street": "", "formatted_address": "1008 Argyle St, Glasgow, Glasgow City, G3 8LX", "locality": "Glasgow", "post_town": "Glasgow", "postcode": "G3 8LX", "region": "Glasgow City"}, "name": "Lebowskis", "related_places": {}, "timezone": "Europe/London"}, {"fsq_id": "4c125afbb7b9c9284698a737", "categories": [{"id": 13018, "name": "Pub", "short_name": "Pub", "plural_name": "Pubs", "icon": {"prefix": "https://ss3.4sqi.net/img/categories_v2/nightlife/pub_", "suffix": ".png"}}, {"id": 13049, "name": "Diner", "short_name": "Diner", "plural_name": "Diners", "icon": {"prefix": "https://ss3.4sqi.net/img/categories_v2/food/diner_", "suffix": ".png"}}], "chains": [], "closed_bucket": "VeryLikelyOpen", "distance": 907, "geocodes": {"main": {"latitude": 55.866412, "longitude": -4.288899}, "roof": {"latitude": 55.866412, "longitude": -4.288899}}, "link": "/v3/places/4c125afbb7b9c9284698a737", "location": {"address": "1256 Argyle St", "admin_region": "Scotland", "country": "GB", "cross_street": "West End", "formatted_address": "1256 Argyle St (West End), Glasgow, Glasgow City, G3 8TJ", "locality": "Glasgow", "post_town": "Glasgow", "postcode": "G3 8TJ", "region": "Glasgow City"}, "name": "Islay Inn", "related_places": {}, "timezone": "Europe/London"}, {"fsq_id": "4b71383ef964a520023d2de3", "categories": [{"id": 13199, "name": "Indian Restaurant", "short_name": "Indian", "plural_name": "Indian Restaurants", "icon": {"prefix": "https://ss3.4sqi.net/img/categories_v2/food/indian_", "suffix": ".png"}}], "chains": [], "closed_bucket": "Unsure", "distance": 966, "geocodes": {"main": {"latitude": 55.867306, "longitude": -4.292607}, "roof": {"latitude": 55.867306, "longitude": -4.292607}}, "link": "/v3/places/4b71383ef964a520023d2de3", "location": {"address": "76 Old Dumbarton Rd", "admin_region": "Scotland", "country": "GB", "formatted_address": "76 Old Dumbarton Rd, Glasgow, Glasgow City, G3 8RE", "locality": "Glasgow", "post_town": "Glasgow", "postcode": "G3 8RE", "region": "Glasgow City"}, "name": "Banana Leaf", "related_places": {}, "timezone": "Europe/London"}, {"fsq_id": "4b597d4bf964a520f48928e3", "categories": [{"id": 13049, "name": "Diner", "short_name": "Diner", "plural_name": "Diners", "icon": {"prefix": "https://ss3.4sqi.net/img/categories_v2/food/diner_", "suffix": ".png"}}, {"id": 13337, "name": "Scottish Restaurant", "short_name": "Scottish", "plural_name": "Scottish Restaurants", "icon": {"prefix": "https://ss3.4sqi.net/img/categories_v2/food/default_", "suffix": ".png"}}], "chains": [], "closed_bucket": "Unsure", "distance": 961, "geocodes": {"main": {"latitude": 55.865602, "longitude": -4.283722}, "roof": {"latitude": 55.865602, "longitude": -4.283722}}, "link": "/v3/places/4b597d4bf964a520f48928e3", "location": {"address": "36 Kelvingrove St", "admin_region": "Scotland", "country": "GB", "formatted_address": "36 Kelvingrove St, Kelvingrove Park, Glasgow City, G3 7RZ", "locality": "Kelvingrove Park", "post_town": "Glasgow", "postcode": "G3 7RZ", "region": "Glasgow City"}, "name": "The Sisters", "related_places": {}, "timezone": "Europe/London"}, {"fsq_id": "4b658635f964a52041f32ae3", "categories": [{"id": 13018, "name": "Pub", "short_name": "Pub", "plural_name": "Pubs", "icon": {"prefix": "https://ss3.4sqi.net/img/categories_v2/nightlife/pub_", "suffix": ".png"}}, {"id": 13025, "name": "Wine Bar", "short_name": "Wine Bar", "plural_name": "Wine Bars", "icon": {"prefix": "https://ss3.4sqi.net/img/categories_v2/food/winery_", "suffix": ".png"}}, {"id": 13057, "name": "Gastropub", "short_name": "Gastropub", "plural_name": "Gastropubs", "icon": {"prefix": "https://ss3.4sqi.net/img/categories_v2/food/gastropub_", "suffix": ".png"}}], "chains": [], "closed_bucket": "LikelyOpen", "distance": 968, "geocodes": {"main": {"latitude": 55.865596, "longitude": -4.283827}, "roof": {"latitude": 55.865596, "longitude": -4.283827}}, "link": "/v3/places/4b658635f964a52041f32ae3", "location": {"address": "36a Kelvingrove St", "admin_region": "Scotland", "country": "GB", "formatted_address": "36a Kelvingrove St, Glasgow, Glasgow City, G3 7SA", "locality": "Glasgow", "post_town": "Glasgow", "postcode": "G3 7SA", "region": "Glasgow City"}, "name": "Big Slope", "related_places": {}, "timezone": "Europe/London"}, {"fsq_id": "4bc9e70dfb84c9b6ded81b3e", "categories": [{"id": 13352, "name": "Thai Restaurant", "short_name": "Thai", "plural_name": "Thai Restaurants", "icon": {"prefix": "https://ss3.4sqi.net/img/categories_v2/food/thai_", "suffix": ".png"}}], "chains": [], "closed_bucket": "LikelyOpen", "distance": 871, "geocodes": {"main": {"latitude": 55.865373, "longitude": -4.286799}, "roof": {"latitude": 55.865373, "longitude": -4.286799}}, "link": "/v3/places/4bc9e70dfb84c9b6ded81b3e", "location": {"address": "1191 Argyle St", "admin_region": "Scotland", "country": "GB", "cross_street": "", "formatted_address": "1191 Argyle St, Glasgow, Glasgow City, G3 8TQ", "locality": "Glasgow", "post_town": "Glasgow", "postcode": "G3 8TQ", "region": "Glasgow City"}, "name": "Thai Siam", "related_places": {}, "timezone": "Europe/London"}, {"fsq_id": "4ee28df99a521fcbefc9cf9a", "categories": [{"id": 13003, "name": "Bar", "short_name": "Bar", "plural_name": "Bars", "icon": {"prefix": "https://ss3.4sqi.net/img/categories_v2/nightlife/pub_", "suffix": ".png"}}], "chains": [], "closed_bucket": "LikelyOpen", "distance": 957, "geocodes": {"main": {"latitude": 55.866966, "longitude": -4.292106}, "roof": {"latitude": 55.866966, "longitude": -4.292106}}, "link": "/v3/places/4ee28df99a521fcbefc9cf9a", "location": {"address": "41 Old Dumbarton Rd", "admin_region": "Scotland", "country": "GB", "cross_street": "Yorkhill St", "formatted_address": "41 Old Dumbarton Rd (Yorkhill St), Glasgow, G3 8RD", "locality": "Glasgow", "post_town": "Glasgow", "postcode": "G3 8RD"}, "name": "Dukes Bar", "related_places": {}, "timezone": "Europe/London"}, {"fsq_id": "4c894ce9da5da1cdec563be9", "categories": [{"id": 13018, "name": "Pub", "short_name": "Pub", "plural_name": "Pubs", "icon": {"prefix": "https://ss3.4sqi.net/img/categories_v2/nightlife/pub_", "suffix": ".png"}}], "chains": [], "closed_bucket": "Unsure", "distance": 942, "geocodes": {"main": {"latitude": 55.863859, "longitude": -4.281039}, "roof": {"latitude": 55.863859, "longitude": -4.281039}}, "link": "/v3/places/4c894ce9da5da1cdec563be9", "location": {"address": "1004 Argyle St", "admin_region": "Scotland", "country": "GB", "formatted_address": "1004 Argyle St, Glasgow, Glasgow City, G3 8LZ", "locality": "Glasgow", "post_town": "Glasgow", "postcode": "G3 8LZ", "region": "Glasgow City"}, "name": "The Brass Monkey", "related_places": {}, "timezone": "Europe/London"}, {"fsq_id": "4c812e6747cc224ba8af799f", "categories": [{"id": 13145, "name": "Fast Food Restaurant", "short_name": "Fast Food", "plural_name": "Fast Food Restaurants", "icon": {"prefix": "https://ss3.4sqi.net/img/categories_v2/food/fastfood_", "suffix": ".png"}}, {"id": 13356, "name": "Turkish Restaurant", "short_name": "Turkish", "plural_name": "Turkish Restaurants", "icon": {"prefix": "https://ss3.4sqi.net/img/categories_v2/food/turkish_", "suffix": ".png"}}], "chains": [], "closed_bucket": "VeryLikelyOpen", "distance": 994, "geocodes": {"main": {"latitude": 55.85373, "longitude": -4.27943}, "roof": {"latitude": 55.85373, "longitude": -4.27943}}, "link": "/v3/places/4c812e6747cc224ba8af799f", "location": {"address": "7 Paisley Rd West", "admin_region": "Scotland", "country": "GB", "cross_street": "", "formatted_address": "7 Paisley Rd West, Glasgow, Glasgow City, G51 1LF", "locality": "Glasgow", "post_town": "Glasgow", "postcode": "G51 1LF", "region": "Glasgow City"}, "name": "Istanbul Turkish", "related_places": {}, "timezone": "Europe/London"}, {"fsq_id": "4f6f44c2e4b08a0bbbd5164a", "categories": [{"id": 10000, "name": "Arts and Entertainment", "short_name": "Arts & Entertainment", "plural_name": "Arts and Entertainment", "icon": {"prefix": "https://ss3.4sqi.net/img/categories_v2/arts_entertainment/default_", "suffix": ".png"}}, {"id": 13003, "name": "Bar", "short_name": "Bar", "plural_name": "Bars", "icon": {"prefix": "https://ss3.4sqi.net/img/categories_v2/nightlife/pub_", "suffix": ".png"}}, {"id": 13065, "name": "Restaurant", "short_name": "Restaurant", "plural_name": "Restaurants", "icon": {"prefix": "https://ss3.4sqi.net/img/categories_v2/food/default_", "suffix": ".png"}}], "chains": [], "closed_bucket": "Unsure", "distance": 828, "geocodes": {"main": {"latitude": 55.854485, "longitude": -4.303984}, "roof": {"latitude": 55.854485, "longitude": -4.303984}}, "link": "/v3/places/4f6f44c2e4b08a0bbbd5164a", "location": {"address": "111 Copland Rd", "admin_region": "Scotland", "country": "GB", "cross_street": "at Woodville St", "formatted_address": "111 Copland Rd (at Woodville St), Glasgow, Glasgow City, G51 2SL", "locality": "Glasgow", "post_town": "Glasgow", "postcode": "G51 2SL", "region": "Glasgow City"}, "name": "The Louden Tavern", "related_places": {}, "timezone": "Europe/London"}, {"fsq_id": "530b2e55498e560107d891b4", "categories": [{"id": 13031, "name": "Burger Joint", "short_name": "Burgers", "plural_name": "Burger Joints", "icon": {"prefix": "https://ss3.4sqi.net/img/categories_v2/food/burger_", "suffix": ".png"}}], "chains": [], "closed_bucket": "VeryLikelyOpen", "distance": 380, "geocodes": {"main": {"latitude": 55.860216, "longitude": -4.287621}, "roof": {"latitude": 55.860216, "longitude": -4.287621}}, "link": "/v3/places/530b2e55498e560107d891b4", "location": {"address": "Queens Dock", "admin_region": "Scotland", "country": "GB", "cross_street": "", "formatted_address": "Queens Dock, Glasgow, Glasgow City, G3 8YW", "locality": "Glasgow", "post_town": "Glasgow", "postcode": "G3 8YW", "region": "Glasgow City"}, "name": "Clydebuilt Bar & Kitchen", "related_places": {}, "timezone": "Europe/London"}, {"fsq_id": "4bebee7362c0c928e5a5e2d4", "categories": [{"id": 13031, "name": "Burger Joint", "short_name": "Burgers", "plural_name": "Burger Joints", "icon": {"prefix": "https://ss3.4sqi.net/img/categories_v2/food/burger_", "suffix": ".png"}}, {"id": 13145, "name": "Fast Food Restaurant", "short_name": "Fast Food", "plural_name": "Fast Food Restaurants", "icon": {"prefix": "https://ss3.4sqi.net/img/categories_v2/food/fastfood_", "suffix": ".png"}}], "chains": [{"id": "ab4a3530-d68a-012e-5619-003048cad9da", "name": "McDonald's"}], "closed_bucket": "VeryLikelyOpen", "distance": 919, "geocodes": {"main": {"latitude": 55.862645, "longitude": -4.280161}, "roof": {"latitude": 55.862645, "longitude": -4.280161}}, "link": "/v3/places/4bebee7362c0c928e5a5e2d4", "location": {"address": "The Clydeway Centre Skypark", "admin_region": "Scotland", "country": "GB", "cross_street": "at Finnieston St.", "formatted_address": "The Clydeway Centre Skypark (at Finnieston St.), Glasgow, Glasgow City, G3 8JU", "locality": "Glasgow", "post_town": "Glasgow", "postcode": "G3 8JU", "region": "Glasgow City"}, "name": "McDonald's", "related_places": {}, "timezone": "Europe/London"}, {"fsq_id": "4b0fc30bf964a520a56423e3", "categories": [{"id": 10024, "name": "Movie Theater", "short_name": "Movie Theater", "plural_name": "Movie Theaters", "icon": {"prefix": "https://ss3.4sqi.net/img/categories_v2/arts_entertainment/movietheater_", "suffix": ".png"}}, {"id": 13065, "name": "Restaurant", "short_name": "Restaurant", "plural_name": "Restaurants", "icon": {"prefix": "https://ss3.4sqi.net/img/categories_v2/food/default_", "suffix": ".png"}}], "chains": [], "closed_bucket": "LikelyOpen", "distance": 314, "geocodes": {"main": {"latitude": 55.856082, "longitude": -4.295413}, "roof": {"latitude": 55.856082, "longitude": -4.295413}}, "link": "/v3/places/4b0fc30bf964a520a56423e3", "location": {"address": "70 Pacific Quay", "admin_region": "Scotland", "country": "GB", "formatted_address": "70 Pacific Quay, Glasgow, Glasgow City, G51 1EA", "locality": "Glasgow", "post_town": "Glasgow", "postcode": "G51 1EA", "region": "Glasgow City"}, "name": "The Hub", "related_places": {"children": [{"fsq_id": "5908bd70a2a6ce785dc70416", "categories": [{"id": 11140, "name": "Photography Studio", "short_name": "Photo Studio", "plural_name": "Photography Studios", "icon": {"prefix": "https://ss3.4sqi.net/img/categories_v2/shops/camerastore_", "suffix": ".png"}}, {"id": 17096, "name": "Miscellaneous Store", "short_name": "Store", "plural_name": "Miscellaneous Stores", "icon": {"prefix": "https://ss3.4sqi.net/img/categories_v2/shops/default_", "suffix": ".png"}}], "name": "CineStore"}]}, "timezone": "Europe/London"}, {"fsq_id": "52d99e9b498e5140a1fae25e", "categories": [{"id": 13003, "name": "Bar", "short_name": "Bar", "plural_name": "Bars", "icon": {"prefix": "https://ss3.4sqi.net/img/categories_v2/nightlife/pub_", "suffix": ".png"}}], "chains": [], "closed_bucket": "VeryLikelyOpen", "distance": 463, "geocodes": {"main": {"latitude": 55.859748, "longitude": -4.285679}, "roof": {"latitude": 55.859748, "longitude": -4.285679}}, "link": "/v3/places/52d99e9b498e5140a1fae25e", "location": {"country": "GB", "cross_street": "", "formatted_address": ""}, "name": "The Hydro Club", "related_places": {"parent": {"fsq_id": "4ecfe4e68b81b47395e67c15", "categories": [{"id": 10037, "name": "Concert Hall", "short_name": "Concert Hall", "plural_name": "Concert Halls", "icon": {"prefix": "https://ss3.4sqi.net/img/categories_v2/arts_entertainment/musicvenue_", "suffix": ".png"}}, {"id": 10039, "name": "Music Venue", "short_name": "Music Venue", "plural_name": "Music Venues", "icon": {"prefix": "https://ss3.4sqi.net/img/categories_v2/arts_entertainment/musicvenue_", "suffix": ".png"}}, {"id": 11039, "name": "Event Space", "short_name": "Event Space", "plural_name": "Event Spaces", "icon": {"prefix": "https://ss3.4sqi.net/img/categories_v2/building/eventspace_", "suffix": ".png"}}], "name": "The SSE Hydro"}}, "timezone": "Europe/London"}, {"fsq_id": "4beae92eb3352d7f29c655d2", "categories": [{"id": 13018, "name": "Pub", "short_name": "Pub", "plural_name": "Pubs", "icon": {"prefix": "https://ss3.4sqi.net/img/categories_v2/nightlife/pub_", "suffix": ".png"}}], "chains": [], "closed_bucket": "VeryLikelyOpen", "distance": 471, "geocodes": {"main": {"latitude": 55.862135, "longitude": -4.289082}}, "link": "/v3/places/4beae92eb3352d7f29c655d2", "location": {"country": "GB", "formatted_address": ""}, "name": "Culcreuch Castle Bar and Dungeon", "related_places": {"children": [{"fsq_id": "5b5387c66adbf5002ce6f2fc", "categories": [{"id": 11039, "name": "Event Space", "short_name": "Event Space", "plural_name": "Event Spaces", "icon": {"prefix": "https://ss3.4sqi.net/img/categories_v2/building/eventspace_", "suffix": ".png"}}], "name": "Galbraith Hall"}]}, "timezone": "Europe/London"}, {"fsq_id": "0d8150d9e19b42ee0ee54b26", "categories": [{"id": 13177, "name": "Greek Restaurant", "short_name": "Greek", "plural_name": "Greek Restaurants", "icon": {"prefix": "https://ss3.4sqi.net/img/categories_v2/food/greek_", "suffix": ".png"}}, {"id": 13338, "name": "Seafood Restaurant", "short_name": "Seafood", "plural_name": "Seafood Restaurants", "icon": {"prefix": "https://ss3.4sqi.net/img/categories_v2/food/seafood_", "suffix": ".png"}}], "chains": [], "closed_bucket": "VeryLikelyOpen", "distance": 610, "geocodes": {"drop_off": {"latitude": 55.85846, "longitude": -4.28295}, "main": {"latitude": 55.858521, "longitude": -4.283187}, "roof": {"latitude": 55.858521, "longitude": -4.283187}}, "link": "/v3/places/0d8150d9e19b42ee0ee54b26", "location": {"address": "28 Tunnel St", "address_extended": "Top Floor", "admin_region": "Scotland", "country": "GB", "formatted_address": "28 Tunnel St, Glasgow, Glasgow City, G3 8HL", "locality": "Glasgow", "post_town": "Glasgow", "postcode": "G3 8HL", "region": "Glasgow City"}, "name": "Mezze", "related_places": {}, "timezone": "Europe/London"}, {"fsq_id": "5b099a55b399f7002cd7bb21", "categories": [{"id": 13003, "name": "Bar", "short_name": "Bar", "plural_name": "Bars", "icon": {"prefix": "https://ss3.4sqi.net/img/categories_v2/nightlife/pub_", "suffix": ".png"}}, {"id": 13065, "name": "Restaurant", "short_name": "Restaurant", "plural_name": "Restaurants", "icon": {"prefix": "https://ss3.4sqi.net/img/categories_v2/food/default_", "suffix": ".png"}}], "chains": [], "closed_bucket": "VeryLikelyOpen", "distance": 644, "geocodes": {"drop_off": {"latitude": 55.858101, "longitude": -4.282673}, "main": {"latitude": 55.85829, "longitude": -4.28262}, "roof": {"latitude": 55.85829, "longitude": -4.28262}}, "link": "/v3/places/5b099a55b399f7002cd7bb21", "location": {"address": "Finnieston Quay", "admin_region": "Scotland", "country": "GB", "cross_street": "", "formatted_address": "Finnieston Quay, Glasgow, Glasgow City, G3 8HN", "locality": "Glasgow", "post_town": "Glasgow", "postcode": "G3 8HN", "region": "Glasgow City"}, "name": "OUIBar + KTCHN", "related_places": {"parent": {"fsq_id": "5af167bc6adbf5002c4339d2", "categories": [{"id": 19014, "name": "Hotel", "short_name": "Hotel", "plural_name": "Hotels", "icon": {"prefix": "https://ss3.4sqi.net/img/categories_v2/travel/hotel_", "suffix": ".png"}}], "name": "Radisson RED Glasgow"}}, "timezone": "Europe/London"}, {"fsq_id": "5979cf38747ecd2ae6a2fdac", "categories": [{"id": 13065, "name": "Restaurant", "short_name": "Restaurant", "plural_name": "Restaurants", "icon": {"prefix": "https://ss3.4sqi.net/img/categories_v2/food/default_", "suffix": ".png"}}], "chains": [], "closed_bucket": "LikelyOpen", "distance": 646, "geocodes": {"main": {"latitude": 55.857931, "longitude": -4.282433}, "roof": {"latitude": 55.857931, "longitude": -4.282433}}, "link": "/v3/places/5979cf38747ecd2ae6a2fdac", "location": {"address": "Finnieston Quay", "admin_region": "Scotland", "country": "GB", "cross_street": "", "formatted_address": "Finnieston Quay, Glasgow, Glasgow City, G3 8HN", "locality": "Glasgow", "post_town": "Glasgow", "postcode": "G3 8HN", "region": "Glasgow City"}, "name": "Recess", "related_places": {"parent": {"fsq_id": "4f3fcd07e4b06010fc18ad01", "categories": [{"id": 19014, "name": "Hotel", "short_name": "Hotel", "plural_name": "Hotels", "icon": {"prefix": "https://ss3.4sqi.net/img/categories_v2/travel/hotel_", "suffix": ".png"}}], "name": "Hilton Garden Inn Glasgow City Centre"}}, "timezone": "Europe/London"}, {"fsq_id": "4dc3d3c218387d1bd512867f", "categories": [{"id": 13034, "name": "Caf\u00e9", "short_name": "Caf\u00e9", "plural_name": "Caf\u00e9s", "icon": {"prefix": "https://ss3.4sqi.net/img/categories_v2/food/cafe_", "suffix": ".png"}}, {"id": 13035, "name": "Coffee Shop", "short_name": "Coffee Shop", "plural_name": "Coffee Shops", "icon": {"prefix": "https://ss3.4sqi.net/img/categories_v2/food/coffeeshop_", "suffix": ".png"}}, {"id": 13065, "name": "Restaurant", "short_name": "Restaurant", "plural_name": "Restaurants", "icon": {"prefix": "https://ss3.4sqi.net/img/categories_v2/food/default_", "suffix": ".png"}}], "chains": [], "closed_bucket": "VeryLikelyOpen", "distance": 652, "geocodes": {"main": {"latitude": 55.85242, "longitude": -4.289446}, "roof": {"latitude": 55.85242, "longitude": -4.289446}}, "link": "/v3/places/4dc3d3c218387d1bd512867f", "location": {"address": "4-8 Harvie St", "admin_region": "Scotland", "country": "GB", "formatted_address": "4-8 Harvie St, Glasgow, Glasgow City, G51 1BW", "locality": "Glasgow", "post_town": "Glasgow", "postcode": "G51 1BW", "region": "Glasgow City"}, "name": "Kinning Perk", "related_places": {}, "timezone": "Europe/London"}, {"fsq_id": "4eff394ac2ee2cc870ce8727", "categories": [{"id": 13099, "name": "Chinese Restaurant", "short_name": "Chinese", "plural_name": "Chinese Restaurants", "icon": {"prefix": "https://ss3.4sqi.net/img/categories_v2/food/asian_", "suffix": ".png"}}, {"id": 13145, "name": "Fast Food Restaurant", "short_name": "Fast Food", "plural_name": "Fast Food Restaurants", "icon": {"prefix": "https://ss3.4sqi.net/img/categories_v2/food/fastfood_", "suffix": ".png"}}], "chains": [], "closed_bucket": "Unsure", "distance": 684, "geocodes": {"main": {"latitude": 55.852801, "longitude": -4.288302}, "roof": {"latitude": 55.852801, "longitude": -4.288302}}, "link": "/v3/places/4eff394ac2ee2cc870ce8727", "location": {"address": "12 Lorne St", "admin_region": "Scotland", "country": "GB", "formatted_address": "12 Lorne St, Glasgow, Glasgow City, G51 1DP", "locality": "Glasgow", "post_town": "Glasgow", "postcode": "G51 1DP", "region": "Glasgow City"}, "name": "Golden City", "related_places": {}, "timezone": "Europe/London"}, {"fsq_id": "522e6ffa61fc96df51d2d674", "categories": [{"id": 13065, "name": "Restaurant", "short_name": "Restaurant", "plural_name": "Restaurants", "icon": {"prefix": "https://ss3.4sqi.net/img/categories_v2/food/default_", "suffix": ".png"}}], "chains": [], "closed_bucket": "LikelyOpen", "distance": 688, "geocodes": {"drop_off": {"latitude": 55.858807, "longitude": -4.28199}, "main": {"latitude": 55.859011, "longitude": -4.281976}, "roof": {"latitude": 55.859011, "longitude": -4.281976}}, "link": "/v3/places/522e6ffa61fc96df51d2d674", "location": {"address": "28 Tunnel St", "admin_region": "Scotland", "country": "GB", "formatted_address": "28 Tunnel St, Glasgow, G3 8HL", "locality": "Glasgow", "post_town": "Glasgow", "postcode": "G3 8HL"}, "name": "Rotunda Bar and Diner", "related_places": {}, "timezone": "Europe/London"}, {"fsq_id": "58cc2a421174200c2f08a5f4", "categories": [{"id": 13046, "name": "Ice Cream Parlor", "short_name": "Ice Cream", "plural_name": "Ice Cream Parlors", "icon": {"prefix": "https://ss3.4sqi.net/img/categories_v2/food/icecream_", "suffix": ".png"}}, {"id": 13065, "name": "Restaurant", "short_name": "Restaurant", "plural_name": "Restaurants", "icon": {"prefix": "https://ss3.4sqi.net/img/categories_v2/food/default_", "suffix": ".png"}}], "chains": [], "closed_bucket": "VeryLikelyOpen", "distance": 695, "geocodes": {"drop_off": {"latitude": 55.860351, "longitude": -4.30359}, "main": {"latitude": 55.860195, "longitude": -4.303637}, "roof": {"latitude": 55.860195, "longitude": -4.303637}}, "link": "/v3/places/58cc2a421174200c2f08a5f4", "location": {"address": "585 Govan Rd", "admin_region": "Scotland", "country": "GB", "cross_street": "", "formatted_address": "585 Govan Rd, Glasgow, G51 2AS", "locality": "Glasgow", "post_town": "Glasgow", "postcode": "G51 2AS"}, "name": "Harleys Ice Cream Parlour", "related_places": {}, "timezone": "Europe/London"}, {"fsq_id": "4be1ccf04283c9b6808954f8", "categories": [{"id": 13010, "name": "Dive Bar", "short_name": "Dive Bar", "plural_name": "Dive Bars", "icon": {"prefix": "https://ss3.4sqi.net/img/categories_v2/nightlife/divebar_", "suffix": ".png"}}], "chains": [], "closed_bucket": "LikelyOpen", "distance": 710, "geocodes": {"main": {"latitude": 55.85242, "longitude": -4.289446}, "roof": {"latitude": 55.85242, "longitude": -4.289446}}, "link": "/v3/places/4be1ccf04283c9b6808954f8", "location": {"address": "252 Paisley Rd West", "admin_region": "Scotland", "country": "GB", "cross_street": "", "formatted_address": "252 Paisley Rd West, Glasgow, Glasgow City, G51 1BS", "locality": "Glasgow", "post_town": "Glasgow", "postcode": "G51 1BS", "region": "Glasgow City"}, "name": "District Bar", "related_places": {}, "timezone": "Europe/London"}, {"fsq_id": "4b7ecbf0f964a5202e0030e3", "categories": [{"id": 13065, "name": "Restaurant", "short_name": "Restaurant", "plural_name": "Restaurants", "icon": {"prefix": "https://ss3.4sqi.net/img/categories_v2/food/default_", "suffix": ".png"}}], "chains": [], "closed_bucket": "VeryLikelyOpen", "distance": 711, "geocodes": {"main": {"latitude": 55.852083, "longitude": -4.294412}, "roof": {"latitude": 55.852083, "longitude": -4.294412}}, "link": "/v3/places/4b7ecbf0f964a5202e0030e3", "location": {"address": "1 Cessnock St", "admin_region": "Scotland", "country": "GB", "formatted_address": "1 Cessnock St, Glasgow, Glasgow City, G51 1AS", "locality": "Glasgow", "post_town": "Glasgow", "postcode": "G51 1AS", "region": "Glasgow City"}, "name": "Cessnock Subway", "related_places": {}, "timezone": "Europe/London"}, {"fsq_id": "5c1ce80c1c9e2e00250606e4", "categories": [{"id": 13309, "name": "Middle Eastern Restaurant", "short_name": "Middle Eastern", "plural_name": "Middle Eastern Restaurants", "icon": {"prefix": "https://ss3.4sqi.net/img/categories_v2/food/middleeastern_", "suffix": ".png"}}], "chains": [], "closed_bucket": "VeryLikelyOpen", "distance": 733, "geocodes": {"drop_off": {"latitude": 55.851991, "longitude": -4.292666}, "main": {"latitude": 55.851815, "longitude": -4.292651}, "roof": {"latitude": 55.851815, "longitude": -4.292651}}, "link": "/v3/places/5c1ce80c1c9e2e00250606e4", "location": {"admin_region": "Scotland", "country": "GB", "cross_street": "", "formatted_address": "Glasgow, Glasgow City, G51 1LX", "locality": "Glasgow", "post_town": "Glasgow", "postcode": "G51 1LX", "region": "Glasgow City"}, "name": "Shawarma Grill", "related_places": {}, "timezone": "Europe/London"}, {"fsq_id": "4f846259e4b0422a017948aa", "categories": [{"id": 13145, "name": "Fast Food Restaurant", "short_name": "Fast Food", "plural_name": "Fast Food Restaurants", "icon": {"prefix": "https://ss3.4sqi.net/img/categories_v2/food/fastfood_", "suffix": ".png"}}], "chains": [], "closed_bucket": "LikelyOpen", "distance": 734, "geocodes": {"main": {"latitude": 55.852486, "longitude": -4.288292}, "roof": {"latitude": 55.852486, "longitude": -4.288292}}, "link": "/v3/places/4f846259e4b0422a017948aa", "location": {"address": "240-242 Paisley Rd West", "admin_region": "Scotland", "country": "GB", "cross_street": "", "formatted_address": "240-242 Paisley Rd West, Glasgow, G51 1BU", "locality": "Glasgow", "post_town": "Glasgow", "postcode": "G51 1BU"}, "name": "Chicken Choice", "related_places": {}, "timezone": "Europe/London"}, {"fsq_id": "5bbcfcef811045002c628760", "categories": [{"id": 13099, "name": "Chinese Restaurant", "short_name": "Chinese", "plural_name": "Chinese Restaurants", "icon": {"prefix": "https://ss3.4sqi.net/img/categories_v2/food/asian_", "suffix": ".png"}}], "chains": [], "closed_bucket": "VeryLikelyOpen", "distance": 751, "geocodes": {"main": {"latitude": 55.851731, "longitude": -4.294121}, "roof": {"latitude": 55.851731, "longitude": -4.294121}}, "link": "/v3/places/5bbcfcef811045002c628760", "location": {"address": "387 Paisley Rd West", "admin_region": "Scotland", "country": "GB", "cross_street": "", "formatted_address": "387 Paisley Rd West, Glasgow, Glasgow City, G51 1LB", "locality": "Glasgow", "post_town": "Glasgow", "postcode": "G51 1LB", "region": "Glasgow City"}, "name": "New Star", "related_places": {}, "timezone": "Europe/London"}, {"fsq_id": "4c1be0bab306c928abf062b7", "categories": [{"id": 13025, "name": "Wine Bar", "short_name": "Wine Bar", "plural_name": "Wine Bars", "icon": {"prefix": "https://ss3.4sqi.net/img/categories_v2/food/winery_", "suffix": ".png"}}], "chains": [], "closed_bucket": "LikelyOpen", "distance": 795, "geocodes": {"main": {"latitude": 55.851769, "longitude": -4.297136}, "roof": {"latitude": 55.851769, "longitude": -4.297136}}, "link": "/v3/places/4c1be0bab306c928abf062b7", "location": {"address": "408 Paisley Rd West", "admin_region": "Scotland", "country": "GB", "cross_street": "", "formatted_address": "408 Paisley Rd West, Glasgow, Glasgow City, G51 1BE", "locality": "Glasgow", "post_town": "Glasgow", "postcode": "G51 1BE", "region": "Glasgow City"}, "name": "Kensington Bar", "related_places": {}, "timezone": "Europe/London"}, {"fsq_id": "4c822652d34ca1435b062980", "categories": [{"id": 13034, "name": "Caf\u00e9", "short_name": "Caf\u00e9", "plural_name": "Caf\u00e9s", "icon": {"prefix": "https://ss3.4sqi.net/img/categories_v2/food/cafe_", "suffix": ".png"}}, {"id": 13065, "name": "Restaurant", "short_name": "Restaurant", "plural_name": "Restaurants", "icon": {"prefix": "https://ss3.4sqi.net/img/categories_v2/food/default_", "suffix": ".png"}}], "chains": [], "closed_bucket": "VeryLikelyOpen", "distance": 833, "geocodes": {"main": {"latitude": 55.851696, "longitude": -4.297484}, "roof": {"latitude": 55.851696, "longitude": -4.297484}}, "link": "/v3/places/4c822652d34ca1435b062980", "location": {"address": "424 Paisley Rd West", "admin_region": "Scotland", "country": "GB", "cross_street": "", "formatted_address": "424 Paisley Rd West, Glasgow, G51 1BE", "locality": "Glasgow", "post_town": "Glasgow", "postcode": "G51 1BE"}, "name": "Copper Pot", "related_places": {}, "timezone": "Europe/London"}, {"fsq_id": "4be47330d4f7c9b6922b2420", "categories": [{"id": 13177, "name": "Greek Restaurant", "short_name": "Greek", "plural_name": "Greek Restaurants", "icon": {"prefix": "https://ss3.4sqi.net/img/categories_v2/food/greek_", "suffix": ".png"}}], "chains": [], "closed_bucket": "VeryLikelyOpen", "distance": 868, "geocodes": {"main": {"latitude": 55.865063, "longitude": -4.284862}, "roof": {"latitude": 55.865063, "longitude": -4.284862}}, "link": "/v3/places/4be47330d4f7c9b6922b2420", "location": {"address": "1116 Argyle St", "admin_region": "Scotland", "country": "GB", "cross_street": "", "formatted_address": "1116 Argyle St, Glasgow, Glasgow City, G3 8TD", "locality": "Glasgow", "post_town": "Glasgow", "postcode": "G3 8TD", "region": "Glasgow City"}, "name": "Athena Greek Taverna", "related_places": {}, "timezone": "Europe/London"}, {"fsq_id": "5beb126ebed483002d01f35e", "categories": [{"id": 13077, "name": "Belgian Restaurant", "short_name": "Belgian", "plural_name": "Belgian Restaurants", "icon": {"prefix": "https://ss3.4sqi.net/img/categories_v2/food/default_", "suffix": ".png"}}], "chains": [], "closed_bucket": "Unsure", "distance": 873, "geocodes": {"drop_off": {"latitude": 55.865198, "longitude": -4.285753}, "main": {"latitude": 55.86533, "longitude": -4.285711}, "roof": {"latitude": 55.86533, "longitude": -4.285711}}, "link": "/v3/places/5beb126ebed483002d01f35e", "location": {"address": "1146 Argyle St", "admin_region": "Scotland", "country": "GB", "cross_street": "", "formatted_address": "1146 Argyle St, Glasgow, Glasgow City, G3 8TE", "locality": "Glasgow", "post_town": "Glasgow", "postcode": "G3 8TE", "region": "Glasgow City"}, "name": "Jacques", "related_places": {}, "timezone": "Europe/London"}, {"fsq_id": "536eaa86498e3f089fde0f3e", "categories": [{"id": 13009, "name": "Cocktail Bar", "short_name": "Cocktail", "plural_name": "Cocktail Bars", "icon": {"prefix": "https://ss3.4sqi.net/img/categories_v2/nightlife/cocktails_", "suffix": ".png"}}], "chains": [], "closed_bucket": "VeryLikelyOpen", "distance": 878, "geocodes": {"main": {"latitude": 55.865063, "longitude": -4.284862}, "roof": {"latitude": 55.865063, "longitude": -4.284862}}, "link": "/v3/places/536eaa86498e3f089fde0f3e", "location": {"country": "GB", "cross_street": "", "formatted_address": ""}, "name": "Tapas Modernas", "related_places": {}, "timezone": "Europe/London"}, {"fsq_id": "5ca34bd7603d2a002c4f98e6", "categories": [{"id": 13377, "name": "Vegan and Vegetarian Restaurant", "short_name": "Vegan and Vegetarian Restaurant", "plural_name": "Vegan and Vegetarian Restaurants", "icon": {"prefix": "https://ss3.4sqi.net/img/categories_v2/food/vegetarian_", "suffix": ".png"}}], "chains": [], "closed_bucket": "LikelyOpen", "distance": 887, "geocodes": {"main": {"latitude": 55.865968, "longitude": -4.286537}, "roof": {"latitude": 55.865968, "longitude": -4.286537}}, "link": "/v3/places/5ca34bd7603d2a002c4f98e6", "location": {"address": "973 Sauchiehall St", "admin_region": "Scotland", "country": "GB", "cross_street": "", "formatted_address": "973 Sauchiehall St, Glasgow, Glasgow City, G3 7TQ", "locality": "Glasgow", "post_town": "Glasgow", "postcode": "G3 7TQ", "region": "Glasgow City"}, "name": "Soul Food Kitchen", "related_places": {"parent": {"fsq_id": "4bd109f220cd99603ba92e9e", "categories": [{"id": 19014, "name": "Hotel", "short_name": "Hotel", "plural_name": "Hotels", "icon": {"prefix": "https://ss3.4sqi.net/img/categories_v2/travel/hotel_", "suffix": ".png"}}], "name": "Argyll Hotel"}}, "timezone": "Europe/London"}, {"fsq_id": "5d07ac6522d490002c021c5e", "categories": [{"id": 13006, "name": "Beer Bar", "short_name": "Beer Bar", "plural_name": "Beer Bars", "icon": {"prefix": "https://ss3.4sqi.net/img/categories_v2/nightlife/pub_", "suffix": ".png"}}, {"id": 13068, "name": "American Restaurant", "short_name": "American", "plural_name": "American Restaurants", "icon": {"prefix": "https://ss3.4sqi.net/img/categories_v2/food/default_", "suffix": ".png"}}], "chains": [], "closed_bucket": "LikelyOpen", "distance": 897, "geocodes": {"main": {"latitude": 55.864303, "longitude": -4.28249}, "roof": {"latitude": 55.864303, "longitude": -4.28249}}, "link": "/v3/places/5d07ac6522d490002c021c5e", "location": {"address": "1038 Argyle St", "admin_region": "Scotland", "country": "GB", "cross_street": "", "formatted_address": "1038 Argyle St, Glasgow, Glasgow City, G3 8LX", "locality": "Glasgow", "post_town": "Glasgow", "postcode": "G3 8LX", "region": "Glasgow City"}, "name": "The Dirty Duchess", "related_places": {}, "timezone": "Europe/London"}, {"fsq_id": "5e4e8b462b631a00083161d8", "categories": [{"id": 13309, "name": "Middle Eastern Restaurant", "short_name": "Middle Eastern", "plural_name": "Middle Eastern Restaurants", "icon": {"prefix": "https://ss3.4sqi.net/img/categories_v2/food/middleeastern_", "suffix": ".png"}}, {"id": 13356, "name": "Turkish Restaurant", "short_name": "Turkish", "plural_name": "Turkish Restaurants", "icon": {"prefix": "https://ss3.4sqi.net/img/categories_v2/food/turkish_", "suffix": ".png"}}], "chains": [], "closed_bucket": "LikelyOpen", "distance": 912, "geocodes": {"drop_off": {"latitude": 55.864113, "longitude": -4.282273}, "main": {"latitude": 55.864211, "longitude": -4.282242}, "roof": {"latitude": 55.864211, "longitude": -4.282242}}, "link": "/v3/places/5e4e8b462b631a00083161d8", "location": {"address": "1032 Argyle St", "admin_region": "Scotland", "country": "GB", "cross_street": "", "formatted_address": "1032 Argyle St, Glasgow, Glasgow City, G3 8LX", "locality": "Glasgow", "post_town": "Glasgow", "postcode": "G3 8LX", "region": "Glasgow City"}, "name": "Meze Meze", "related_places": {}, "timezone": "Europe/London"}, {"fsq_id": "5a9802ad012358795390774a", "categories": [{"id": 13031, "name": "Burger Joint", "short_name": "Burgers", "plural_name": "Burger Joints", "icon": {"prefix": "https://ss3.4sqi.net/img/categories_v2/food/burger_", "suffix": ".png"}}], "chains": [], "closed_bucket": "VeryLikelyOpen", "distance": 924, "geocodes": {"main": {"latitude": 55.86654, "longitude": -4.289429}, "roof": {"latitude": 55.86654, "longitude": -4.289429}}, "link": "/v3/places/5a9802ad012358795390774a", "location": {"admin_region": "Scotland", "country": "GB", "cross_street": "", "formatted_address": "Glasgow, Glasgow City, G3 7UA", "locality": "Glasgow", "post_town": "Glasgow", "postcode": "G3 7UA", "region": "Glasgow City"}, "name": "10 10 Brunch", "related_places": {}, "timezone": "Europe/London"}, {"fsq_id": "4b64a3c2f964a52093c42ae3", "categories": [{"id": 13199, "name": "Indian Restaurant", "short_name": "Indian", "plural_name": "Indian Restaurants", "icon": {"prefix": "https://ss3.4sqi.net/img/categories_v2/food/indian_", "suffix": ".png"}}], "chains": [], "closed_bucket": "VeryLikelyOpen", "distance": 930, "geocodes": {"main": {"latitude": 55.866825, "longitude": -4.289964}, "roof": {"latitude": 55.866825, "longitude": -4.289964}}, "link": "/v3/places/4b64a3c2f964a52093c42ae3", "location": {"address": "1284 Argyle St", "admin_region": "Scotland", "country": "GB", "formatted_address": "1284 Argyle St, Glasgow, Glasgow City, G3 8AB", "locality": "Glasgow", "post_town": "Glasgow", "postcode": "G3 8AB", "region": "Glasgow City"}, "name": "Ashoka West End", "related_places": {}, "timezone": "Europe/London"}, {"fsq_id": "4bbe2e501416a59330c6f33c", "categories": [{"id": 13018, "name": "Pub", "short_name": "Pub", "plural_name": "Pubs", "icon": {"prefix": "https://ss3.4sqi.net/img/categories_v2/nightlife/pub_", "suffix": ".png"}}], "chains": [], "closed_bucket": "LikelyOpen", "distance": 945, "geocodes": {"main": {"latitude": 55.866162, "longitude": -4.286823}, "roof": {"latitude": 55.866162, "longitude": -4.286823}}, "link": "/v3/places/4bbe2e501416a59330c6f33c", "location": {"address": "979 Sauchiehall St", "admin_region": "Scotland", "country": "GB", "cross_street": "", "formatted_address": "979 Sauchiehall St, Glasgow, Glasgow City, G3 7TQ", "locality": "Glasgow", "post_town": "Glasgow", "postcode": "G3 7TQ", "region": "Glasgow City"}, "name": "Snaffle Bit Glasgow", "related_places": {}, "timezone": "Europe/London"}, {"fsq_id": "5b8002af234724002c324dec", "categories": [{"id": 13003, "name": "Bar", "short_name": "Bar", "plural_name": "Bars", "icon": {"prefix": "https://ss3.4sqi.net/img/categories_v2/nightlife/pub_", "suffix": ".png"}}, {"id": 13065, "name": "Restaurant", "short_name": "Restaurant", "plural_name": "Restaurants", "icon": {"prefix": "https://ss3.4sqi.net/img/categories_v2/food/default_", "suffix": ".png"}}], "chains": [], "closed_bucket": "LikelyOpen", "distance": 958, "geocodes": {"drop_off": {"latitude": 55.867273, "longitude": -4.292991}, "main": {"latitude": 55.867125, "longitude": -4.293022}, "roof": {"latitude": 55.867125, "longitude": -4.293022}}, "link": "/v3/places/5b8002af234724002c324dec", "location": {"address": "67 Old Dumbarton Rd", "admin_region": "Scotland", "country": "GB", "cross_street": "", "formatted_address": "67 Old Dumbarton Rd, Glasgow, G3 8RF", "locality": "Glasgow", "post_town": "Glasgow", "postcode": "G3 8RF"}, "name": "The Brunch Club", "related_places": {}, "timezone": "Europe/London"}, {"fsq_id": "4c84fa0ed92ea093705b6172", "categories": [{"id": 13065, "name": "Restaurant", "short_name": "Restaurant", "plural_name": "Restaurants", "icon": {"prefix": "https://ss3.4sqi.net/img/categories_v2/food/default_", "suffix": ".png"}}], "chains": [], "closed_bucket": "LikelyOpen", "distance": 979, "geocodes": {"main": {"latitude": 55.8635, "longitude": -4.279942}, "roof": {"latitude": 55.8635, "longitude": -4.279942}}, "link": "/v3/places/4c84fa0ed92ea093705b6172", "location": {"address": "956 Argyle St", "admin_region": "Scotland", "country": "GB", "cross_street": "", "formatted_address": "956 Argyle St, Glasgow, G3 8LU", "locality": "Glasgow", "post_town": "Glasgow", "postcode": "G3 8LU"}, "name": "Bannisters", "related_places": {}, "timezone": "Europe/London"}], "context": {"geo_bounds": {"circle": {"center": {"latitude": 55.8585, "longitude": -4.292972}, "radius": 1000}}}}