{"results": [{"fsq_id": "59ca1ffe48b04e6426cef19e", "categories": [{"id": 13035, "name": "Coffee Shop", "short_name": "Coffee Shop", "plural_name": "Coffee Shops", "icon": {"prefix": "https://ss3.4sqi.net/img/categories_v2/food/coffeeshop_", "suffix": ".png"}}, {"id": 13065, "name": "Restaurant", "short_name": "Restaurant", "plural_name": "Restaurants", "icon": {"prefix": "https://ss3.4sqi.net/img/categories_v2/food/default_", "suffix": ".png"}}], "chains": [], "closed_bucket": "Unsure", "distance": 157, "geocodes": {"drop_off": {"latitude": 55.875652, "longitude": -4.282567}, "main": {"latitude": 55.87589, "longitude": -4.282498}, "roof": {"latitude": 55.87589, "longitude": -4.282498}}, "link": "/v3/places/59ca1ffe48b04e6426cef19e", "location": {"address": "518 Great Western Rd", "admin_region": "Scotland", "country": "GB", "cross_street": "", "formatted_address": "518 Great Western Rd, Glasgow, Glasgow City, G12 8EL", "locality": "Glasgow", "post_town": "Glasgow", "postcode": "G12 8EL", "region": "Glasgow City"}, "name": "Black Pine Coffee Co", "related_places": {}, "timezone": "Europe/London"}, {"fsq_id": "50489002e4b02a1c178f2de7", "categories": [{"id": 13006, "name": "Beer Bar", "short_name": "Beer Bar", "plural_name": "Beer Bars", "icon": {"prefix": "https://ss3.4sqi.net/img/categories_v2/nightlife/pub_", "suffix": ".png"}}, {"id": 13065, "name": "Restaurant", "short_name": "Restaurant", "plural_name": "Restaurants", "icon": {"prefix": "https://ss3.4sqi.net/img/categories_v2/food/default_", "suffix": ".png"}}], "chains": [], "closed_bucket": "VeryLikelyOpen", "distance": 41, "geocodes": {"main": {"latitude": 55.874937, "longitude": -4.28075}, "roof": {"latitude": 55.874937, "longitude": -4.28075}}, "link": "/v3/places/50489002e4b02a1c178f2de7", "location": {"address": "445 Great Western Rd", "admin_region": "Scotland", "country": "GB", "cross_street": "", "formatted_address": "445 Great Western Rd, Glasgow, Glasgow City, G12 8HH", "locality": "Glasgow", "post_town": "Glasgow", "postcode": "G12 8HH", "region": "Glasgow City"}, "name": "Inn Deep", "related_places": {}, "timezone": "Europe/London"}, {"fsq_id": "58f67d601213846655187750", "categories": [{"id": 13064, "name": "Pizzeria", "short_name": "Pizza", "plural_name": "Pizzerias", "icon": {"prefix": "https://ss3.4sqi.net/img/categories_v2/food/pizza_", "suffix": ".png"}}, {"id": 13236, "name": "Italian Restaurant", "short_name": "Italian", "plural_name": "Italian Restaurants", "icon": {"prefix": "https://ss3.4sqi.net/img/categories_v2/food/italian_", "suffix": ".png"}}], "chains": [], "closed_bucket": "Unsure", "distance": 80, "geocodes": {"main": {"latitude": 55.87515, "longitude": -4.281633}, "roof": {"latitude": 55.87515, "longitude": -4.281633}}, "link": "/v3/places/58f67d601213846655187750", "location": {"address": "471 Great Western Rd", "admin_region": "Scotland", "country": "GB", "cross_street": "", "formatted_address": "471 Great Western Rd, Glasgow, Glasgow City, G12 8HL", "locality": "Glasgow", "post_town": "Glasgow", "postcode": "G12 8HL", "region": "Glasgow City"}, "name": "Paesano Pizza", "related_places": {}, "timezone": "Europe/London"}, {"fsq_id": "4b58d626f964a520d56d28e3", "categories": [{"id": 13003, "name": "Bar", "short_name": "Bar", "plural_name": "Bars", "icon": {"prefix": "https://ss3.4sqi.net/img/categories_v2/nightlife/pub_", "suffix": ".png"}}, {"id": 13337, "name": "Scottish Restaurant", "short_name": "Scottish", "plural_name": "Scottish Restaurants", "icon": {"prefix": "https://ss3.4sqi.net/img/categories_v2/food/default_", "suffix": ".png"}}], "chains": [], "closed_bucket": "Unsure", "distance": 791, "geocodes": {"main": {"latitude": 55.874909, "longitude": -4.29323}, "roof": {"latitude": 55.874909, "longitude": -4.29323}}, "link": "/v3/places/4b58d626f964a520d56d28e3", "location": {"address": "12 Ashton Lane", "admin_region": "Scotland", "country": "GB", "cross_street": "", "formatted_address": "12 Ashton Lane, Glasgow, Glasgow City, G12 8SJ", "locality": "Glasgow", "post_town": "Glasgow", "postcode": "G12 8SJ", "region": "Glasgow City"}, "name": "Ubiquitous Chip", "related_places": {}, "timezone": "Europe/London"}, {"fsq_id": "4b742075f964a52017c92de3", "categories": [{"id": 13035, "name": "Coffee Shop", "short_name": "Coffee Shop", "plural_name": "Coffee Shops", "icon": {"prefix": "https://ss3.4sqi.net/img/categories_v2/food/coffeeshop_", "suffix": ".png"}}, {"id": 13039, "name": "Deli", "short_name": "Deli", "plural_name": "Delis", "icon": {"prefix": "https://ss3.4sqi.net/img/categories_v2/food/deli_", "suffix": ".png"}}], "chains": [], "closed_bucket": "Unsure", "distance": 941, "geocodes": {"main": {"latitude": 55.87369, "longitude": -4.29519}, "roof": {"latitude": 55.87369, "longitude": -4.29519}}, "link": "/v3/places/4b742075f964a52017c92de3", "location": {"address": "134 Byres Rd", "admin_region": "Scotland", "country": "GB", "cross_street": "", "formatted_address": "134 Byres Rd, Glasgow, Glasgow City, G12 8TD", "locality": "Glasgow", "post_town": "Glasgow", "postcode": "G12 8TD", "region": "Glasgow City"}, "name": "Kember & Jones", "related_places": {}, "timezone": "Europe/London"}, {"fsq_id": "5606f8f0498ecb20434d8a44", "categories": [{"id": 13236, "name": "Italian Restaurant", "short_name": "Italian", "plural_name": "Italian Restaurants", "icon": {"prefix": "https://ss3.4sqi.net/img/categories_v2/food/italian_", "suffix": ".png"}}], "chains": [], "closed_bucket": "LikelyOpen", "distance": 321, "geocodes": {"drop_off": {"latitude": 55.872408, "longitude": -4.280217}, "main": {"latitude": 55.87254, "longitude": -4.280291}, "roof": {"latitude": 55.87254, "longitude": -4.280291}}, "link": "/v3/places/5606f8f0498ecb20434d8a44", "location": {"address": "152 Park Rd", "admin_region": "Scotland", "country": "GB", "cross_street": "Gibson St", "formatted_address": "152 Park Rd (Gibson St), Glasgow, G4 9HB", "locality": "Glasgow", "post_town": "Glasgow", "postcode": "G4 9HB"}, "name": "Eusebi Deli", "related_places": {}, "timezone": "Europe/London"}, {"fsq_id": "4b2544e3f964a520096f24e3", "categories": [{"id": 13057, "name": "Gastropub", "short_name": "Gastropub", "plural_name": "Gastropubs", "icon": {"prefix": "https://ss3.4sqi.net/img/categories_v2/food/gastropub_", "suffix": ".png"}}], "chains": [], "closed_bucket": "LikelyOpen", "distance": 307, "geocodes": {"main": {"latitude": 55.872578, "longitude": -4.282395}, "roof": {"latitude": 55.872578, "longitude": -4.282395}}, "link": "/v3/places/4b2544e3f964a520096f24e3", "location": {"address": "28 Gibson St", "admin_region": "Scotland", "country": "GB", "formatted_address": "28 Gibson St, Glasgow City, G12 8NX", "locality": "Glasgow City", "post_town": "Glasgow", "postcode": "G12 8NX", "region": "Glasgow City"}, "name": "Stravaigin", "related_places": {}, "timezone": "Europe/London"}, {"fsq_id": "4be5f1282468c9281fce0043", "categories": [{"id": 13018, "name": "Pub", "short_name": "Pub", "plural_name": "Pubs", "icon": {"prefix": "https://ss3.4sqi.net/img/categories_v2/nightlife/pub_", "suffix": ".png"}}], "chains": [], "closed_bucket": "Unsure", "distance": 380, "geocodes": {"main": {"latitude": 55.876487, "longitude": -4.285881}, "roof": {"latitude": 55.876487, "longitude": -4.285881}}, "link": "/v3/places/4be5f1282468c9281fce0043", "location": {"address": "617 Great Western Rd", "admin_region": "Scotland", "country": "GB", "cross_street": "Hillhead Street", "formatted_address": "617 Great Western Rd (Hillhead Street), Glasgow, Glasgow City, G12 8HX", "locality": "Glasgow", "post_town": "Glasgow", "postcode": "G12 8HX", "region": "Glasgow City"}, "name": "The Belle", "related_places": {}, "timezone": "Europe/London"}, {"fsq_id": "57f68e91cd108f2c10b87bbf", "categories": [{"id": 13031, "name": "Burger Joint", "short_name": "Burgers", "plural_name": "Burger Joints", "icon": {"prefix": "https://ss3.4sqi.net/img/categories_v2/food/burger_", "suffix": ".png"}}, {"id": 13068, "name": "American Restaurant", "short_name": "American", "plural_name": "American Restaurants", "icon": {"prefix": "https://ss3.4sqi.net/img/categories_v2/food/default_", "suffix": ".png"}}, {"id": 13334, "name": "Sandwich Spot", "short_name": "Sandwich Spot", "plural_name": "Sandwich Spots", "icon": {"prefix": "https://ss3.4sqi.net/img/categories_v2/food/deli_", "suffix": ".png"}}], "chains": [], "closed_bucket": "LikelyOpen", "distance": 560, "geocodes": {"drop_off": {"latitude": 55.877343, "longitude": -4.288241}, "main": {"latitude": 55.877193, "longitude": -4.288287}, "roof": {"latitude": 55.877193, "longitude": -4.288287}}, "link": "/v3/places/57f68e91cd108f2c10b87bbf", "location": {"address": "701 Great Western Rd", "admin_region": "Scotland", "country": "GB", "cross_street": "", "formatted_address": "701 Great Western Rd, Glasgow, Glasgow City, G12 8RA", "locality": "Glasgow", "post_town": "Glasgow", "postcode": "G12 8RA", "region": "Glasgow City"}, "name": "Bread Meats Bread", "related_places": {}, "timezone": "Europe/London"}, {"fsq_id": "4bf8121a4a67c9282cad24cf", "categories": [{"id": 13034, "name": "Caf\u00e9", "short_name": "Caf\u00e9", "plural_name": "Caf\u00e9s", "icon": {"prefix": "https://ss3.4sqi.net/img/categories_v2/food/cafe_", "suffix": ".png"}}, {"id": 13065, "name": "Restaurant", "short_name": "Restaurant", "plural_name": "Restaurants", "icon": {"prefix": "https://ss3.4sqi.net/img/categories_v2/food/default_", "suffix": ".png"}}], "chains": [], "closed_bucket": "VeryLikelyOpen", "distance": 760, "geocodes": {"drop_off": {"latitude": 55.880339, "longitude": -4.272737}, "main": {"latitude": 55.880451, "longitude": -4.272717}, "roof": {"latitude": 55.880451, "longitude": -4.272717}}, "link": "/v3/places/4bf8121a4a67c9282cad24cf", "location": {"address": "570 Maryhill Rd", "admin_region": "Scotland", "country": "GB", "cross_street": "at Northpark St", "formatted_address": "570 Maryhill Rd (at Northpark St), Glasgow, Glasgow City", "locality": "Glasgow", "post_town": "Glasgow", "region": "Glasgow City"}, "name": "Cafe D\u2019Jaconelli", "related_places": {}, "timezone": "Europe/London"}, {"fsq_id": "5e3b37ed1c6a1c0008af933c", "categories": [{"id": 13072, "name": "Asian Restaurant", "short_name": "Asian", "plural_name": "Asian Restaurants", "icon": {"prefix": "https://ss3.4sqi.net/img/categories_v2/food/asian_", "suffix": ".png"}}], "chains": [], "closed_bucket": "VeryLikelyOpen", "distance": 667, "geocodes": {"drop_off": {"latitude": 55.877296, "longitude": -4.290347}, "main": {"latitude": 55.877133, "longitude": -4.290249}, "roof": {"latitude": 55.877133, "longitude": -4.290249}}, "link": "/v3/places/5e3b37ed1c6a1c0008af933c", "location": {"address": "Botanic Gardens Garage", "admin_region": "Scotland", "country": "GB", "cross_street": "", "formatted_address": "Botanic Gardens Garage, Glasgow, Glasgow City, G12 8BE", "locality": "Glasgow", "post_town": "Glasgow", "postcode": "G12 8BE", "region": "Glasgow City"}, "name": "Ka Pao", "related_places": {}, "timezone": "Europe/London"}, {"fsq_id": "4bae7badf964a520feb73be3", "categories": [{"id": 13065, "name": "Restaurant", "short_name": "Restaurant", "plural_name": "Restaurants", "icon": {"prefix": "https://ss3.4sqi.net/img/categories_v2/food/default_", "suffix": ".png"}}], "chains": [], "closed_bucket": "Unsure", "distance": 875, "geocodes": {"main": {"latitude": 55.875279, "longitude": -4.294118}, "roof": {"latitude": 55.875279, "longitude": -4.294118}}, "link": "/v3/places/4bae7badf964a520feb73be3", "location": {"address": "11 Ruthven Lane", "admin_region": "Scotland", "country": "GB", "cross_street": "Hillhead", "formatted_address": "11 Ruthven Lane (Hillhead), Glasgow, Glasgow City, G12 9BG", "locality": "Glasgow", "post_town": "Glasgow", "postcode": "G12 9BG", "region": "Glasgow City"}, "name": "The Bothy", "related_places": {}, "timezone": "Europe/London"}, {"fsq_id": "4b53315cf964a520c39127e3", "categories": [{"id": 13099, "name": "Chinese Restaurant", "short_name": "Chinese", "plural_name": "Chinese Restaurants", "icon": {"prefix": "https://ss3.4sqi.net/img/categories_v2/food/asian_", "suffix": ".png"}}, {"id": 13263, "name": "Japanese Restaurant", "short_name": "Japanese", "plural_name": "Japanese Restaurants", "icon": {"prefix": "https://ss3.4sqi.net/img/categories_v2/food/japanese_", "suffix": ".png"}}], "chains": [], "closed_bucket": "LikelyOpen", "distance": 197, "geocodes": {"main": {"latitude": 55.875733, "longitude": -4.283404}, "roof": {"latitude": 55.875733, "longitude": -4.283404}}, "link": "/v3/places/4b53315cf964a520c39127e3", "location": {"address": "535 Great Western Rd", "admin_region": "Scotland", "country": "GB", "formatted_address": "535 Great Western Rd, Glasgow, Glasgow City, G12 8HN", "locality": "Glasgow", "post_town": "Glasgow", "postcode": "G12 8HN", "region": "Glasgow City"}, "name": "Wudon", "related_places": {}, "timezone": "Europe/London"}, {"fsq_id": "5595668c498e02153643a82f", "categories": [{"id": 13018, "name": "Pub", "short_name": "Pub", "plural_name": "Pubs", "icon": {"prefix": "https://ss3.4sqi.net/img/categories_v2/nightlife/pub_", "suffix": ".png"}}, {"id": 13065, "name": "Restaurant", "short_name": "Restaurant", "plural_name": "Restaurants", "icon": {"prefix": "https://ss3.4sqi.net/img/categories_v2/food/default_", "suffix": ".png"}}], "chains": [], "closed_bucket": "LikelyOpen", "distance": 584, "geocodes": {"main": {"latitude": 55.8722, "longitude": -4.272393}, "roof": {"latitude": 55.8722, "longitude": -4.272393}}, "link": "/v3/places/5595668c498e02153643a82f", "location": {"address": "Great Western Rd 171", "admin_region": "Scotland", "country": "GB", "cross_street": "", "formatted_address": "Great Western Rd 171, Glasgow, Glasgow City, G4 9AW", "locality": "Glasgow", "post_town": "Glasgow", "postcode": "G4 9AW", "region": "Glasgow City"}, "name": "The Hug and Pint", "related_places": {}, "timezone": "Europe/London"}, {"fsq_id": "4c582eed7613b713957b91ea", "categories": [{"id": 13034, "name": "Caf\u00e9", "short_name": "Caf\u00e9", "plural_name": "Caf\u00e9s", "icon": {"prefix": "https://ss3.4sqi.net/img/categories_v2/food/cafe_", "suffix": ".png"}}, {"id": 13035, "name": "Coffee Shop", "short_name": "Coffee Shop", "plural_name": "Coffee Shops", "icon": {"prefix": "https://ss3.4sqi.net/img/categories_v2/food/coffeeshop_", "suffix": ".png"}}, {"id": 13065, "name": "Restaurant", "short_name": "Restaurant", "plural_name": "Restaurants", "icon": {"prefix": "https://ss3.4sqi.net/img/categories_v2/food/default_", "suffix": ".png"}}], "chains": [], "closed_bucket": "VeryLikelyOpen", "distance": 890, "geocodes": {"main": {"latitude": 55.866964, "longitude": -4.280154}, "roof": {"latitude": 55.866964, "longitude": -4.280154}}, "link": "/v3/places/4c582eed7613b713957b91ea", "location": {"address": "Kelvingrove Park", "admin_region": "Scotland", "country": "GB", "cross_street": "at North Claremont Street", "formatted_address": "Kelvingrove Park (at North Claremont Street), Glasgow, Glasgow City, G3 7LH", "locality": "Glasgow", "post_town": "Glasgow", "postcode": "G3 7LH", "region": "Glasgow City"}, "name": "An Clachan Cafe", "related_places": {}, "timezone": "Europe/London"}, {"fsq_id": "4d28d36debacb1f71b01f54f", "categories": [{"id": 13024, "name": "Whisky Bar", "short_name": "Whisky Bar", "plural_name": "Whisky Bars", "icon": {"prefix": "https://ss3.4sqi.net/img/categories_v2/nightlife/whiskey_", "suffix": ".png"}}], "chains": [], "closed_bucket": "LikelyOpen", "distance": 473, "geocodes": {"main": {"latitude": 55.871154, "longitude": -4.276883}, "roof": {"latitude": 55.871154, "longitude": -4.276883}}, "link": "/v3/places/4d28d36debacb1f71b01f54f", "location": {"address": "232-246 Woodlands Rd", "admin_region": "Scotland", "country": "GB", "formatted_address": "232-246 Woodlands Rd, Glasgow, Glasgow City, G3 6ND", "locality": "Glasgow", "post_town": "Glasgow", "postcode": "G3 6ND", "region": "Glasgow City"}, "name": "Dram", "related_places": {}, "timezone": "Europe/London"}, {"fsq_id": "540c340d498e77fa8257b91e", "categories": [{"id": 13051, "name": "Fish and Chips Shop", "short_name": "Fish and Chips Shop", "plural_name": "Fish and Chips Shops", "icon": {"prefix": "https://ss3.4sqi.net/img/categories_v2/food/fishandchips_", "suffix": ".png"}}], "chains": [], "closed_bucket": "Unsure", "distance": 751, "geocodes": {"main": {"latitude": 55.876801, "longitude": -4.292377}, "roof": {"latitude": 55.876801, "longitude": -4.292377}}, "link": "/v3/places/540c340d498e77fa8257b91e", "location": {"address": "337 Byres Rd", "admin_region": "Scotland", "country": "GB", "cross_street": "", "formatted_address": "337 Byres Rd, Glasgow, Glasgow City, G12 8UQ", "locality": "Glasgow", "post_town": "Glasgow", "postcode": "G12 8UQ", "region": "Glasgow City"}, "name": "Old Salty's", "related_places": {}, "timezone": "Europe/London"}, {"fsq_id": "4b44d799f964a520d7fd25e3", "categories": [{"id": 13034, "name": "Caf\u00e9", "short_name": "Caf\u00e9", "plural_name": "Caf\u00e9s", "icon": {"prefix": "https://ss3.4sqi.net/img/categories_v2/food/cafe_", "suffix": ".png"}}, {"id": 13035, "name": "Coffee Shop", "short_name": "Coffee Shop", "plural_name": "Coffee Shops", "icon": {"prefix": "https://ss3.4sqi.net/img/categories_v2/food/coffeeshop_", "suffix": ".png"}}, {"id": 13065, "name": "Restaurant", "short_name": "Restaurant", "plural_name": "Restaurants", "icon": {"prefix": "https://ss3.4sqi.net/img/categories_v2/food/default_", "suffix": ".png"}}], "chains": [], "closed_bucket": "LikelyOpen", "distance": 315, "geocodes": {"main": {"latitude": 55.872238, "longitude": -4.281894}, "roof": {"latitude": 55.872238, "longitude": -4.281894}}, "link": "/v3/places/4b44d799f964a520d7fd25e3", "location": {"address": "3-5 Gibson St", "admin_region": "Scotland", "country": "GB", "cross_street": "at Park Rd", "formatted_address": "3-5 Gibson St (at Park Rd), Glasgow, Glasgow City, G12 8NU", "locality": "Glasgow", "post_town": "Glasgow", "postcode": "G12 8NU", "region": "Glasgow City"}, "name": "Offshore", "related_places": {}, "timezone": "Europe/London"}, {"fsq_id": "4b609ccdf964a52037f029e3", "categories": [{"id": 13003, "name": "Bar", "short_name": "Bar", "plural_name": "Bars", "icon": {"prefix": "https://ss3.4sqi.net/img/categories_v2/nightlife/pub_", "suffix": ".png"}}, {"id": 13027, "name": "Bistro", "short_name": "Bistro", "plural_name": "Bistros", "icon": {"prefix": "https://ss3.4sqi.net/img/categories_v2/food/default_", "suffix": ".png"}}], "chains": [], "closed_bucket": "Unsure", "distance": 310, "geocodes": {"drop_off": {"latitude": 55.87252, "longitude": -4.282678}, "main": {"latitude": 55.872402, "longitude": -4.282705}, "roof": {"latitude": 55.872402, "longitude": -4.282705}}, "link": "/v3/places/4b609ccdf964a52037f029e3", "location": {"address": "33-35 Gibson St", "admin_region": "Scotland", "country": "GB", "formatted_address": "33-35 Gibson St, Glasgow, Glasgow City, G12 8NU", "locality": "Glasgow", "post_town": "Glasgow", "postcode": "G12 8NU", "region": "Glasgow City"}, "name": "The Left Bank", "related_places": {}, "timezone": "Europe/London"}, {"fsq_id": "4bb4be3486a8d13a67c8de7f", "categories": [{"id": 13010, "name": "Dive Bar", "short_name": "Dive Bar", "plural_name": "Dive Bars", "icon": {"prefix": "https://ss3.4sqi.net/img/categories_v2/nightlife/divebar_", "suffix": ".png"}}, {"id": 13018, "name": "Pub", "short_name": "Pub", "plural_name": "Pubs", "icon": {"prefix": "https://ss3.4sqi.net/img/categories_v2/nightlife/pub_", "suffix": ".png"}}, {"id": 13065, "name": "Restaurant", "short_name": "Restaurant", "plural_name": "Restaurants", "icon": {"prefix": "https://ss3.4sqi.net/img/categories_v2/food/default_", "suffix": ".png"}}], "chains": [], "closed_bucket": "Unsure", "distance": 234, "geocodes": {"main": {"latitude": 55.873122, "longitude": -4.279327}, "roof": {"latitude": 55.873122, "longitude": -4.279327}}, "link": "/v3/places/4bb4be3486a8d13a67c8de7f", "location": {"address": "74 Park Rd", "admin_region": "Scotland", "country": "GB", "cross_street": "Woodlands Road", "formatted_address": "74 Park Rd (Woodlands Road), Glasgow, Glasgow City, G4 9JF", "locality": "Glasgow", "post_town": "Glasgow", "postcode": "G4 9JF", "region": "Glasgow City"}, "name": "The Doublet", "related_places": {}, "timezone": "Europe/London"}, {"fsq_id": "4c2deb7476a7ef3bf5e1deb8", "categories": [{"id": 13018, "name": "Pub", "short_name": "Pub", "plural_name": "Pubs", "icon": {"prefix": "https://ss3.4sqi.net/img/categories_v2/nightlife/pub_", "suffix": ".png"}}, {"id": 13065, "name": "Restaurant", "short_name": "Restaurant", "plural_name": "Restaurants", "icon": {"prefix": "https://ss3.4sqi.net/img/categories_v2/food/default_", "suffix": ".png"}}], "chains": [], "closed_bucket": "Unsure", "distance": 907, "geocodes": {"main": {"latitude": 55.874273, "longitude": -4.295138}, "roof": {"latitude": 55.874273, "longitude": -4.295138}}, "link": "/v3/places/4c2deb7476a7ef3bf5e1deb8", "location": {"address": "191 Byres Rd", "admin_region": "Scotland", "country": "GB", "cross_street": "at University Ave", "formatted_address": "191 Byres Rd (at University Ave), Glasgow, G12 8TN", "locality": "Glasgow", "post_town": "Glasgow", "postcode": "G12 8TN"}, "name": "Tennents Bar", "related_places": {}, "timezone": "Europe/London"}, {"fsq_id": "4dcc081dd4c0dfa030ddf225", "categories": [{"id": 13303, "name": "Mexican Restaurant", "short_name": "Mexican", "plural_name": "Mexican Restaurants", "icon": {"prefix": "https://ss3.4sqi.net/img/categories_v2/food/mexican_", "suffix": ".png"}}], "chains": [], "closed_bucket": "LikelyOpen", "distance": 795, "geocodes": {"main": {"latitude": 55.875685, "longitude": -4.293464}, "roof": {"latitude": 55.875685, "longitude": -4.293464}}, "link": "/v3/places/4dcc081dd4c0dfa030ddf225", "location": {"address": "263 Byres Rd", "admin_region": "Scotland", "country": "GB", "cross_street": "", "formatted_address": "263 Byres Rd, Glasgow, Glasgow City, G12 8TL", "locality": "Glasgow", "post_town": "Glasgow", "postcode": "G12 8TL", "region": "Glasgow City"}, "name": "Taco Mazama", "related_places": {}, "timezone": "Europe/London"}, {"fsq_id": "4c0164bef7ab0f471d0816b6", "categories": [{"id": 13018, "name": "Pub", "short_name": "Pub", "plural_name": "Pubs", "icon": {"prefix": "https://ss3.4sqi.net/img/categories_v2/nightlife/pub_", "suffix": ".png"}}, {"id": 13065, "name": "Restaurant", "short_name": "Restaurant", "plural_name": "Restaurants", "icon": {"prefix": "https://ss3.4sqi.net/img/categories_v2/food/default_", "suffix": ".png"}}], "chains": [], "closed_bucket": "Unsure", "distance": 352, "geocodes": {"main": {"latitude": 55.872066, "longitude": -4.278453}, "roof": {"latitude": 55.872066, "longitude": -4.278453}}, "link": "/v3/places/4c0164bef7ab0f471d0816b6", "location": {"address": "287 Woodlands Rd", "admin_region": "Scotland", "country": "GB", "cross_street": "", "formatted_address": "287 Woodlands Rd, Glasgow, Glasgow City, G3 6NF", "locality": "Glasgow", "post_town": "Glasgow", "postcode": "G3 6NF", "region": "Glasgow City"}, "name": "Old Schoolhouse Glasgow", "related_places": {}, "timezone": "Europe/London"}, {"fsq_id": "4c2f3cf866e40f47117fc18b", "categories": [{"id": 13003, "name": "Bar", "short_name": "Bar", "plural_name": "Bars", "icon": {"prefix": "https://ss3.4sqi.net/img/categories_v2/nightlife/pub_", "suffix": ".png"}}, {"id": 13065, "name": "Restaurant", "short_name": "Restaurant", "plural_name": "Restaurants", "icon": {"prefix": "https://ss3.4sqi.net/img/categories_v2/food/default_", "suffix": ".png"}}], "chains": [], "closed_bucket": "VeryLikelyOpen", "distance": 858, "geocodes": {"main": {"latitude": 55.868415, "longitude": -4.273189}, "roof": {"latitude": 55.868415, "longitude": -4.273189}}, "link": "/v3/places/4c2f3cf866e40f47117fc18b", "location": {"address": "1 Lynedoch St", "admin_region": "Scotland", "country": "GB", "formatted_address": "1 Lynedoch St, Glasgow, Glasgow City, G3 6EF", "locality": "Glasgow", "post_town": "Glasgow", "postcode": "G3 6EF", "region": "Glasgow City"}, "name": "The Drake", "related_places": {}, "timezone": "Europe/London"}, {"fsq_id": "4b633169f964a5208b692ae3", "categories": [{"id": 13006, "name": "Beer Bar", "short_name": "Beer Bar", "plural_name": "Beer Bars", "icon": {"prefix": "https://ss3.4sqi.net/img/categories_v2/nightlife/pub_", "suffix": ".png"}}, {"id": 13025, "name": "Wine Bar", "short_name": "Wine Bar", "plural_name": "Wine Bars", "icon": {"prefix": "https://ss3.4sqi.net/img/categories_v2/food/winery_", "suffix": ".png"}}, {"id": 13077, "name": "Belgian Restaurant", "short_name": "Belgian", "plural_name": "Belgian Restaurants", "icon": {"prefix": "https://ss3.4sqi.net/img/categories_v2/food/default_", "suffix": ".png"}}], "chains": [], "closed_bucket": "Unsure", "distance": 791, "geocodes": {"main": {"latitude": 55.874545, "longitude": -4.293148}, "roof": {"latitude": 55.874545, "longitude": -4.293148}}, "link": "/v3/places/4b633169f964a5208b692ae3", "location": {"address": "Ashton Lane", "admin_region": "Scotland", "country": "GB", "formatted_address": "Ashton Lane, Glasgow, Glasgow City, G12 8SJ", "locality": "Glasgow", "post_town": "Glasgow", "postcode": "G12 8SJ", "region": "Glasgow City"}, "name": "Brel", "related_places": {}, "timezone": "Europe/London"}, {"fsq_id": "572774db498eb236fd4d4279", "categories": [{"id": 13034, "name": "Caf\u00e9", "short_name": "Caf\u00e9", "plural_name": "Caf\u00e9s", "icon": {"prefix": "https://ss3.4sqi.net/img/categories_v2/food/cafe_", "suffix": ".png"}}, {"id": 13035, "name": "Coffee Shop", "short_name": "Coffee Shop", "plural_name": "Coffee Shops", "icon": {"prefix": "https://ss3.4sqi.net/img/categories_v2/food/coffeeshop_", "suffix": ".png"}}, {"id": 13065, "name": "Restaurant", "short_name": "Restaurant", "plural_name": "Restaurants", "icon": {"prefix": "https://ss3.4sqi.net/img/categories_v2/food/default_", "suffix": ".png"}}], "chains": [], "closed_bucket": "VeryLikelyOpen", "distance": 110, "geocodes": {"drop_off": {"latitude": 55.874231, "longitude": -4.279504}, "main": {"latitude": 55.874123, "longitude": -4.279323}, "roof": {"latitude": 55.874123, "longitude": -4.279323}}, "link": "/v3/places/572774db498eb236fd4d4279", "location": {"address": "72 South Woodside Rd", "admin_region": "Scotland", "country": "GB", "cross_street": "", "formatted_address": "72 South Woodside Rd, Glasgow, G4 9HG", "locality": "Glasgow", "post_town": "Glasgow", "postcode": "G4 9HG"}, "name": "Kelvin Pocket", "related_places": {}, "timezone": "Europe/London"}, {"fsq_id": "4b0ab14bf964a520762623e3", "categories": [{"id": 13027, "name": "Bistro", "short_name": "Bistro", "plural_name": "Bistros", "icon": {"prefix": "https://ss3.4sqi.net/img/categories_v2/food/default_", "suffix": ".png"}}, {"id": 13034, "name": "Caf\u00e9", "short_name": "Caf\u00e9", "plural_name": "Caf\u00e9s", "icon": {"prefix": "https://ss3.4sqi.net/img/categories_v2/food/cafe_", "suffix": ".png"}}, {"id": 13035, "name": "Coffee Shop", "short_name": "Coffee Shop", "plural_name": "Coffee Shops", "icon": {"prefix": "https://ss3.4sqi.net/img/categories_v2/food/coffeeshop_", "suffix": ".png"}}], "chains": [], "closed_bucket": "LikelyOpen", "distance": 931, "geocodes": {"main": {"latitude": 55.873994, "longitude": -4.29541}, "roof": {"latitude": 55.873994, "longitude": -4.29541}}, "link": "/v3/places/4b0ab14bf964a520762623e3", "location": {"address": "189 Byres Rd", "admin_region": "Scotland", "country": "GB", "cross_street": "", "formatted_address": "189 Byres Rd, Glasgow, G12 8TS", "locality": "Glasgow", "post_town": "Glasgow", "postcode": "G12 8TS"}, "name": "Tinderbox", "related_places": {}, "timezone": "Europe/London"}, {"fsq_id": "58dd2a17d772f933eaaa3755", "categories": [{"id": 13018, "name": "Pub", "short_name": "Pub", "plural_name": "Pubs", "icon": {"prefix": "https://ss3.4sqi.net/img/categories_v2/nightlife/pub_", "suffix": ".png"}}, {"id": 13029, "name": "Brewery", "short_name": "Brewery", "plural_name": "Breweries", "icon": {"prefix": "https://ss3.4sqi.net/img/categories_v2/food/brewery_", "suffix": ".png"}}, {"id": 13065, "name": "Restaurant", "short_name": "Restaurant", "plural_name": "Restaurants", "icon": {"prefix": "https://ss3.4sqi.net/img/categories_v2/food/default_", "suffix": ".png"}}], "chains": [], "closed_bucket": "Unsure", "distance": 799, "geocodes": {"drop_off": {"latitude": 55.874505, "longitude": -4.293217}, "main": {"latitude": 55.874539, "longitude": -4.293253}, "roof": {"latitude": 55.874539, "longitude": -4.293253}}, "link": "/v3/places/58dd2a17d772f933eaaa3755", "location": {"address": "44-46 Ashton Ln", "admin_region": "Scotland", "country": "GB", "cross_street": "", "formatted_address": "44-46 Ashton Ln, Glasgow, Glasgow City, G12 8SJ", "locality": "Glasgow", "post_town": "Glasgow", "postcode": "G12 8SJ", "region": "Glasgow City"}, "name": "Innis & Gunn Beer Kitchen", "related_places": {}, "timezone": "Europe/London"}, {"fsq_id": "524ec20911d2e6a1074094b5", "categories": [{"id": 13099, "name": "Chinese Restaurant", "short_name": "Chinese", "plural_name": "Chinese Restaurants", "icon": {"prefix": "https://ss3.4sqi.net/img/categories_v2/food/asian_", "suffix": ".png"}}], "chains": [], "closed_bucket": "LikelyOpen", "distance": 908, "geocodes": {"main": {"latitude": 55.869686, "longitude": -4.269372}, "roof": {"latitude": 55.869686, "longitude": -4.269372}}, "link": "/v3/places/524ec20911d2e6a1074094b5", "location": {"address": "175 St Georges Rd", "admin_region": "Scotland", "country": "GB", "cross_street": "", "formatted_address": "175 St Georges Rd, Glasgow, G3 6JD", "locality": "Glasgow", "post_town": "Glasgow", "postcode": "G3 6JD"}, "name": "Ka Ka Lok", "related_places": {}, "timezone": "Europe/London"}, {"fsq_id": "4c7954da2d3ba1437cd68dd0", "categories": [{"id": 13057, "name": "Gastropub", "short_name": "Gastropub", "plural_name": "Gastropubs", "icon": {"prefix": "https://ss3.4sqi.net/img/categories_v2/food/gastropub_", "suffix": ".png"}}, {"id": 13018, "name": "Pub", "short_name": "Pub", "plural_name": "Pubs", "icon": {"prefix": "https://ss3.4sqi.net/img/categories_v2/nightlife/pub_", "suffix": ".png"}}], "chains": [], "closed_bucket": "VeryLikelyOpen", "distance": 817, "geocodes": {"drop_off": {"latitude": 55.875553, "longitude": -4.293406}, "main": {"latitude": 55.875382, "longitude": -4.293244}, "roof": {"latitude": 55.875382, "longitude": -4.293244}}, "link": "/v3/places/4c7954da2d3ba1437cd68dd0", "location": {"address": "256-260 Byres Rd", "admin_region": "Scotland", "country": "GB", "formatted_address": "256-260 Byres Rd, Glasgow, Glasgow City, G12 8SH", "locality": "Glasgow", "post_town": "Glasgow", "postcode": "G12 8SH", "region": "Glasgow City"}, "name": "The Curler's Rest", "related_places": {}, "timezone": "Europe/London"}, {"fsq_id": "52409f4d11d224590bfca521", "categories": [{"id": 13003, "name": "Bar", "short_name": "Bar", "plural_name": "Bars", "icon": {"prefix": "https://ss3.4sqi.net/img/categories_v2/nightlife/pub_", "suffix": ".png"}}, {"id": 13034, "name": "Caf\u00e9", "short_name": "Caf\u00e9", "plural_name": "Caf\u00e9s", "icon": {"prefix": "https://ss3.4sqi.net/img/categories_v2/food/cafe_", "suffix": ".png"}}, {"id": 13065, "name": "Restaurant", "short_name": "Restaurant", "plural_name": "Restaurants", "icon": {"prefix": "https://ss3.4sqi.net/img/categories_v2/food/default_", "suffix": ".png"}}], "chains": [], "closed_bucket": "VeryLikelyOpen", "distance": 323, "geocodes": {"main": {"latitude": 55.87321, "longitude": -4.284238}, "roof": {"latitude": 55.87321, "longitude": -4.284238}}, "link": "/v3/places/52409f4d11d224590bfca521", "location": {"address": "52-54 Bank St", "admin_region": "Scotland", "country": "GB", "cross_street": "", "formatted_address": "52-54 Bank St, Glasgow, G12 8LZ", "locality": "Glasgow", "post_town": "Glasgow", "postcode": "G12 8LZ"}, "name": "Bank Street Bar Kitchen", "related_places": {}, "timezone": "Europe/London"}, {"fsq_id": "4caf61c2b4b0a35d708e40ce", "categories": [{"id": 13018, "name": "Pub", "short_name": "Pub", "plural_name": "Pubs", "icon": {"prefix": "https://ss3.4sqi.net/img/categories_v2/nightlife/pub_", "suffix": ".png"}}], "chains": [], "closed_bucket": "LikelyOpen", "distance": 540, "geocodes": {"main": {"latitude": 55.87265, "longitude": -4.272828}, "roof": {"latitude": 55.87265, "longitude": -4.272828}}, "link": "/v3/places/4caf61c2b4b0a35d708e40ce", "location": {"address": "226 Great Western Rd", "admin_region": "Scotland", "country": "GB", "cross_street": "", "formatted_address": "226 Great Western Rd, Glasgow, Glasgow City, G4 9EJ", "locality": "Glasgow", "post_town": "Glasgow", "postcode": "G4 9EJ", "region": "Glasgow City"}, "name": "Wintersgills Bar", "related_places": {}, "timezone": "Europe/London"}, {"fsq_id": "4b4a3ca9f964a520238026e3", "categories": [{"id": 13018, "name": "Pub", "short_name": "Pub", "plural_name": "Pubs", "icon": {"prefix": "https://ss3.4sqi.net/img/categories_v2/nightlife/pub_", "suffix": ".png"}}, {"id": 13065, "name": "Restaurant", "short_name": "Restaurant", "plural_name": "Restaurants", "icon": {"prefix": "https://ss3.4sqi.net/img/categories_v2/food/default_", "suffix": ".png"}}], "chains": [], "closed_bucket": "VeryLikelyOpen", "distance": 782, "geocodes": {"main": {"latitude": 55.874714, "longitude": -4.292943}, "roof": {"latitude": 55.874714, "longitude": -4.292943}}, "link": "/v3/places/4b4a3ca9f964a520238026e3", "location": {"address": "21/29 Ashton Lane", "admin_region": "Scotland", "country": "GB", "cross_street": "", "formatted_address": "21/29 Ashton Lane, Glasgow, Glasgow City, G12 8SJ", "locality": "Glasgow", "post_town": "Glasgow", "postcode": "G12 8SJ", "region": "Glasgow City"}, "name": "Jinty McGuinty's", "related_places": {}, "timezone": "Europe/London"}, {"fsq_id": "62a63961596a3f54a806d0c0", "categories": [{"id": 13003, "name": "Bar", "short_name": "Bar", "plural_name": "Bars", "icon": {"prefix": "https://ss3.4sqi.net/img/categories_v2/nightlife/pub_", "suffix": ".png"}}], "chains": [], "closed_bucket": "VeryLikelyOpen", "distance": 147, "geocodes": {"main": {"latitude": 55.875739, "longitude": -4.282388}, "roof": {"latitude": 55.875739, "longitude": -4.282388}}, "link": "/v3/places/62a63961596a3f54a806d0c0", "location": {"admin_region": "Scotland", "country": "GB", "cross_street": "", "formatted_address": "Glasgow, Glasgow City, G12 8EN", "locality": "Glasgow", "post_town": "Glasgow", "postcode": "G12 8EN", "region": "Glasgow City"}, "name": "The Bakehouse", "related_places": {}, "timezone": "Europe/London"}, {"fsq_id": "4b85775ff964a520cb5f31e3", "categories": [{"id": 13035, "name": "Coffee Shop", "short_name": "Coffee Shop", "plural_name": "Coffee Shops", "icon": {"prefix": "https://ss3.4sqi.net/img/categories_v2/food/coffeeshop_", "suffix": ".png"}}, {"id": 13065, "name": "Restaurant", "short_name": "Restaurant", "plural_name": "Restaurants", "icon": {"prefix": "https://ss3.4sqi.net/img/categories_v2/food/default_", "suffix": ".png"}}], "chains": [], "closed_bucket": "Unsure", "distance": 441, "geocodes": {"main": {"latitude": 55.871452, "longitude": -4.277208}, "roof": {"latitude": 55.871452, "longitude": -4.277208}}, "link": "/v3/places/4b85775ff964a520cb5f31e3", "location": {"address": "250-254 Woodlands Rd", "admin_region": "Scotland", "country": "GB", "cross_street": "", "formatted_address": "250-254 Woodlands Rd, Glasgow City, G3 6ND", "locality": "Glasgow City", "post_town": "Glasgow", "postcode": "G3 6ND", "region": "Glasgow City"}, "name": "iCafe", "related_places": {}, "timezone": "Europe/London"}, {"fsq_id": "4b83da0ff964a5208f1331e3", "categories": [{"id": 13035, "name": "Coffee Shop", "short_name": "Coffee Shop", "plural_name": "Coffee Shops", "icon": {"prefix": "https://ss3.4sqi.net/img/categories_v2/food/coffeeshop_", "suffix": ".png"}}, {"id": 13065, "name": "Restaurant", "short_name": "Restaurant", "plural_name": "Restaurants", "icon": {"prefix": "https://ss3.4sqi.net/img/categories_v2/food/default_", "suffix": ".png"}}], "chains": [], "closed_bucket": "Unsure", "distance": 728, "geocodes": {"main": {"latitude": 55.876473, "longitude": -4.291666}, "roof": {"latitude": 55.876473, "longitude": -4.291666}}, "link": "/v3/places/4b83da0ff964a5208f1331e3", "location": {"address": "58 Cresswell St", "admin_region": "Scotland", "country": "GB", "cross_street": "Cresswell Lane", "formatted_address": "58 Cresswell St (Cresswell Lane), Glasgow, Glasgow City, G12 8BY", "locality": "Glasgow", "post_town": "Glasgow", "postcode": "G12 8BY", "region": "Glasgow City"}, "name": "Atrium Coffee House", "related_places": {}, "timezone": "Europe/London"}, {"fsq_id": "4b8421a8f964a520b72231e3", "categories": [{"id": 13035, "name": "Coffee Shop", "short_name": "Coffee Shop", "plural_name": "Coffee Shops", "icon": {"prefix": "https://ss3.4sqi.net/img/categories_v2/food/coffeeshop_", "suffix": ".png"}}, {"id": 13036, "name": "Tea Room", "short_name": "Tea Room", "plural_name": "Tea Rooms", "icon": {"prefix": "https://ss3.4sqi.net/img/categories_v2/food/tearoom_", "suffix": ".png"}}, {"id": 13065, "name": "Restaurant", "short_name": "Restaurant", "plural_name": "Restaurants", "icon": {"prefix": "https://ss3.4sqi.net/img/categories_v2/food/default_", "suffix": ".png"}}], "chains": [], "closed_bucket": "LikelyOpen", "distance": 915, "geocodes": {"main": {"latitude": 55.868208, "longitude": -4.272201}, "roof": {"latitude": 55.868208, "longitude": -4.272201}}, "link": "/v3/places/4b8421a8f964a520b72231e3", "location": {"address": "40-42 Woodlands Rd", "admin_region": "Scotland", "country": "GB", "cross_street": "at Baliol Ln", "formatted_address": "40-42 Woodlands Rd (at Baliol Ln), Glasgow, Glasgow City, G3 6UR", "locality": "Glasgow", "post_town": "Glasgow", "postcode": "G3 6UR", "region": "Glasgow City"}, "name": "The Coffee Pod", "related_places": {}, "timezone": "Europe/London"}, {"fsq_id": "4b5a3ffff964a52078b728e3", "categories": [{"id": 13018, "name": "Pub", "short_name": "Pub", "plural_name": "Pubs", "icon": {"prefix": "https://ss3.4sqi.net/img/categories_v2/nightlife/pub_", "suffix": ".png"}}, {"id": 13022, "name": "Sports Bar", "short_name": "Sports Bar", "plural_name": "Sports Bars", "icon": {"prefix": "https://ss3.4sqi.net/img/categories_v2/nightlife/sportsbar_", "suffix": ".png"}}, {"id": 13027, "name": "Bistro", "short_name": "Bistro", "plural_name": "Bistros", "icon": {"prefix": "https://ss3.4sqi.net/img/categories_v2/food/default_", "suffix": ".png"}}], "chains": [], "closed_bucket": "Unsure", "distance": 137, "geocodes": {"main": {"latitude": 55.875514, "longitude": -4.282626}, "roof": {"latitude": 55.875514, "longitude": -4.282626}}, "link": "/v3/places/4b5a3ffff964a52078b728e3", "location": {"address": "499 Great Western Rd", "admin_region": "Scotland", "country": "GB", "cross_street": "", "formatted_address": "499 Great Western Rd, Glasgow, Glasgow City, G12 8HN", "locality": "Glasgow", "post_town": "Glasgow", "postcode": "G12 8HN", "region": "Glasgow City"}, "name": "Coopers", "related_places": {}, "timezone": "Europe/London"}, {"fsq_id": "6127bc023181a85974e45697", "categories": [{"id": 13065, "name": "Restaurant", "short_name": "Restaurant", "plural_name": "Restaurants", "icon": {"prefix": "https://ss3.4sqi.net/img/categories_v2/food/default_", "suffix": ".png"}}], "chains": [], "closed_bucket": "VeryLikelyOpen", "distance": 154, "geocodes": {"main": {"latitude": 55.874122, "longitude": -4.278412}, "roof": {"latitude": 55.874122, "longitude": -4.278412}}, "link": "/v3/places/6127bc023181a85974e45697", "location": {"admin_region": "Scotland", "country": "GB", "cross_street": "", "formatted_address": "G4 9JA", "post_town": "Glasgow", "postcode": "G4 9JA"}, "name": "Saffron", "related_places": {}, "timezone": "Europe/London"}, {"fsq_id": "59a54f608134884bd0648431", "categories": [{"id": 13035, "name": "Coffee Shop", "short_name": "Coffee Shop", "plural_name": "Coffee Shops", "icon": {"prefix": "https://ss3.4sqi.net/img/categories_v2/food/coffeeshop_", "suffix": ".png"}}, {"id": 13065, "name": "Restaurant", "short_name": "Restaurant", "plural_name": "Restaurants", "icon": {"prefix": "https://ss3.4sqi.net/img/categories_v2/food/default_", "suffix": ".png"}}], "chains": [], "closed_bucket": "VeryLikelyOpen", "distance": 172, "geocodes": {"main": {"latitude": 55.875884, "longitude": -4.282603}, "roof": {"latitude": 55.875884, "longitude": -4.282603}}, "link": "/v3/places/59a54f608134884bd0648431", "location": {"admin_region": "Scotland", "country": "GB", "cross_street": "", "formatted_address": "Glasgow, Glasgow City, G12 8EN", "locality": "Glasgow", "post_town": "Glasgow", "postcode": "G12 8EN", "region": "Glasgow City"}, "name": "Papercup Roastery", "related_places": {}, "timezone": "Europe/London"}, {"fsq_id": "5d84de07f516bc000834ca9c", "categories": [{"id": 13002, "name": "Bakery", "short_name": "Bakery", "plural_name": "Bakeries", "icon": {"prefix": "https://ss3.4sqi.net/img/categories_v2/food/bakery_", "suffix": ".png"}}, {"id": 13032, "name": "Cafe, Coffee, and Tea House", "short_name": "Cafe, Coffee, and Tea House", "plural_name": "Cafes, Coffee, and Tea Houses", "icon": {"prefix": "https://ss3.4sqi.net/img/categories_v2/food/coffeeshop_", "suffix": ".png"}}, {"id": 13065, "name": "Restaurant", "short_name": "Restaurant", "plural_name": "Restaurants", "icon": {"prefix": "https://ss3.4sqi.net/img/categories_v2/food/default_", "suffix": ".png"}}], "chains": [], "closed_bucket": "VeryLikelyOpen", "distance": 181, "geocodes": {"drop_off": {"latitude": 55.873813, "longitude": -4.278368}, "main": {"latitude": 55.873958, "longitude": -4.278512}, "roof": {"latitude": 55.873958, "longitude": -4.278512}}, "link": "/v3/places/5d84de07f516bc000834ca9c", "location": {"address": "10 Park Rd", "admin_region": "Scotland", "country": "GB", "cross_street": "", "formatted_address": "10 Park Rd, Glasgow, G4 9JG", "locality": "Glasgow", "post_town": "Glasgow", "postcode": "G4 9JG"}, "name": "Broken Clock Cafe & Patisserie", "related_places": {}, "timezone": "Europe/London"}, {"fsq_id": "f11537f55aaf4adccb9a4243", "categories": [{"id": 13003, "name": "Bar", "short_name": "Bar", "plural_name": "Bars", "icon": {"prefix": "https://ss3.4sqi.net/img/categories_v2/nightlife/pub_", "suffix": ".png"}}], "chains": [], "closed_bucket": "LikelyOpen", "distance": 289, "geocodes": {"drop_off": {"latitude": 55.87364, "longitude": -4.27634}, "main": {"latitude": 55.873769, "longitude": -4.276297}, "roof": {"latitude": 55.873769, "longitude": -4.276297}}, "link": "/v3/places/f11537f55aaf4adccb9a4243", "location": {"address": "372 Great Western Rd", "admin_region": "Scotland", "country": "GB", "formatted_address": "372 Great Western Rd, Glasgow, G4 9HT", "locality": "Glasgow", "post_town": "Glasgow", "postcode": "G4 9HT"}, "name": "Republic Bier Halle", "related_places": {}, "timezone": "Europe/London"}, {"fsq_id": "608c598e6a36c31fc10942f1", "categories": [{"id": 13003, "name": "Bar", "short_name": "Bar", "plural_name": "Bars", "icon": {"prefix": "https://ss3.4sqi.net/img/categories_v2/nightlife/pub_", "suffix": ".png"}}, {"id": 13337, "name": "Scottish Restaurant", "short_name": "Scottish", "plural_name": "Scottish Restaurants", "icon": {"prefix": "https://ss3.4sqi.net/img/categories_v2/food/default_", "suffix": ".png"}}], "chains": [], "closed_bucket": "LikelyOpen", "distance": 306, "geocodes": {"drop_off": {"latitude": 55.873637, "longitude": -4.276331}, "main": {"latitude": 55.873447, "longitude": -4.276393}, "roof": {"latitude": 55.873447, "longitude": -4.276393}}, "link": "/v3/places/608c598e6a36c31fc10942f1", "location": {"address": "333 Great Western Rd", "admin_region": "Scotland", "country": "GB", "cross_street": "", "formatted_address": "333 Great Western Rd, Glasgow, Glasgow City, G4 9HS", "locality": "Glasgow", "post_town": "Glasgow", "postcode": "G4 9HS", "region": "Glasgow City"}, "name": "The Loveable Rogue", "related_places": {}, "timezone": "Europe/London"}, {"fsq_id": "5172d05be4b04648d9e70ccb", "categories": [{"id": 13305, "name": "Burrito Restaurant", "short_name": "Burritos", "plural_name": "Burrito Restaurants", "icon": {"prefix": "https://ss3.4sqi.net/img/categories_v2/food/burrito_", "suffix": ".png"}}], "chains": [], "closed_bucket": "VeryLikelyOpen", "distance": 308, "geocodes": {"drop_off": {"latitude": 55.873606, "longitude": -4.276238}, "main": {"latitude": 55.873453, "longitude": -4.276288}, "roof": {"latitude": 55.873453, "longitude": -4.276288}}, "link": "/v3/places/5172d05be4b04648d9e70ccb", "location": {"address": "372-374 Great Western Rd", "country": "GB", "cross_street": "", "formatted_address": "372-374 Great Western Rd, Glasgow, Glasgow City", "locality": "Glasgow", "post_town": "Glasgow", "region": "Glasgow City"}, "name": "Nacho Average Pop-Up", "related_places": {}, "timezone": "Europe/London"}, {"fsq_id": "5a5a94f9da5e56453179eaff", "categories": [{"id": 13003, "name": "Bar", "short_name": "Bar", "plural_name": "Bars", "icon": {"prefix": "https://ss3.4sqi.net/img/categories_v2/nightlife/pub_", "suffix": ".png"}}, {"id": 13065, "name": "Restaurant", "short_name": "Restaurant", "plural_name": "Restaurants", "icon": {"prefix": "https://ss3.4sqi.net/img/categories_v2/food/default_", "suffix": ".png"}}], "chains": [], "closed_bucket": "VeryLikelyOpen", "distance": 318, "geocodes": {"drop_off": {"latitude": 55.873527, "longitude": -4.275995}, "main": {"latitude": 55.873683, "longitude": -4.275944}, "roof": {"latitude": 55.873683, "longitude": -4.275944}}, "link": "/v3/places/5a5a94f9da5e56453179eaff", "location": {"address": "360 Great Western Rd", "admin_region": "Scotland", "country": "GB", "cross_street": "", "formatted_address": "360 Great Western Rd, Glasgow", "locality": "Glasgow", "post_town": "Glasgow"}, "name": "Banana Moon", "related_places": {}, "timezone": "Europe/London"}, {"fsq_id": "5751c720cd10abbe87162bf5", "categories": [{"id": 13065, "name": "Restaurant", "short_name": "Restaurant", "plural_name": "Restaurants", "icon": {"prefix": "https://ss3.4sqi.net/img/categories_v2/food/default_", "suffix": ".png"}}, {"id": 17067, "name": "Fruit and Vegetable Store", "short_name": "Fruit and Vegetable Store", "plural_name": "Fruit and Vegetable Stores", "icon": {"prefix": "https://ss3.4sqi.net/img/categories_v2/shops/food_grocery_", "suffix": ".png"}}], "chains": [], "closed_bucket": "LikelyOpen", "distance": 392, "geocodes": {"drop_off": {"latitude": 55.873218, "longitude": -4.275047}, "main": {"latitude": 55.8731, "longitude": -4.275085}, "roof": {"latitude": 55.8731, "longitude": -4.275085}}, "link": "/v3/places/5751c720cd10abbe87162bf5", "location": {"address": "Great Western Rd", "admin_region": "Scotland", "country": "GB", "cross_street": "", "formatted_address": "Great Western Rd, Glasgow, Glasgow City", "locality": "Glasgow", "post_town": "Glasgow", "region": "Glasgow City"}, "name": "Stalks & Stems", "related_places": {}, "timezone": "Europe/London"}, {"fsq_id": "4d3b85366b3d236a5b955864", "categories": [{"id": 13145, "name": "Fast Food Restaurant", "short_name": "Fast Food", "plural_name": "Fast Food Restaurants", "icon": {"prefix": "https://ss3.4sqi.net/img/categories_v2/food/fastfood_", "suffix": ".png"}}, {"id": 13199, "name": "Indian Restaurant", "short_name": "Indian", "plural_name": "Indian Restaurants", "icon": {"prefix": "https://ss3.4sqi.net/img/categories_v2/food/indian_", "suffix": ".png"}}], "chains": [], "closed_bucket": "LikelyOpen", "distance": 439, "geocodes": {"drop_off": {"latitude": 55.876875, "longitude": -4.286696}, "main": {"latitude": 55.876755, "longitude": -4.286731}, "roof": {"latitude": 55.876755, "longitude": -4.286731}}, "link": "/v3/places/4d3b85366b3d236a5b955864", "location": {"address": "645 Great Western Rd", "admin_region": "Scotland", "country": "GB", "formatted_address": "645 Great Western Rd, Glasgow, Glasgow City, G12 8RE", "locality": "Glasgow", "post_town": "Glasgow", "postcode": "G12 8RE", "region": "Glasgow City"}, "name": "Cafe India", "related_places": {}, "timezone": "Europe/London"}, {"fsq_id": "551fe22b498e84e70727f5fa", "categories": [{"id": 13145, "name": "Fast Food Restaurant", "short_name": "Fast Food", "plural_name": "Fast Food Restaurants", "icon": {"prefix": "https://ss3.4sqi.net/img/categories_v2/food/fastfood_", "suffix": ".png"}}, {"id": 13334, "name": "Sandwich Spot", "short_name": "Sandwich Spot", "plural_name": "Sandwich Spots", "icon": {"prefix": "https://ss3.4sqi.net/img/categories_v2/food/deli_", "suffix": ".png"}}], "chains": [], "closed_bucket": "LikelyOpen", "distance": 466, "geocodes": {"main": {"latitude": 55.87684, "longitude": -4.287084}, "roof": {"latitude": 55.87684, "longitude": -4.287084}}, "link": "/v3/places/551fe22b498e84e70727f5fa", "location": {"address": "657 Great Western Rd", "admin_region": "Scotland", "country": "GB", "cross_street": "", "formatted_address": "657 Great Western Rd, Glasgow, Glasgow City, G12 8RE", "locality": "Glasgow", "post_town": "Glasgow", "postcode": "G12 8RE", "region": "Glasgow City"}, "name": "The Great Western Sandwich Co", "related_places": {}, "timezone": "Europe/London"}, {"fsq_id": "52ed2996498ea5581915641f", "categories": [{"id": 13018, "name": "Pub", "short_name": "Pub", "plural_name": "Pubs", "icon": {"prefix": "https://ss3.4sqi.net/img/categories_v2/nightlife/pub_", "suffix": ".png"}}], "chains": [], "closed_bucket": "VeryLikelyOpen", "distance": 579, "geocodes": {"main": {"latitude": 55.87533, "longitude": -4.271087}, "roof": {"latitude": 55.87533, "longitude": -4.271087}}, "link": "/v3/places/52ed2996498ea5581915641f", "location": {"address": "239 Maryhill Rd", "admin_region": "Scotland", "country": "GB", "cross_street": "", "formatted_address": "239 Maryhill Rd, Glasgow, G20 7YB", "locality": "Glasgow", "post_town": "Glasgow", "postcode": "G20 7YB"}, "name": "The Woodside Inn", "related_places": {}, "timezone": "Europe/London"}, {"fsq_id": "4c90d73a490376b0b26ada36", "categories": [{"id": 13145, "name": "Fast Food Restaurant", "short_name": "Fast Food", "plural_name": "Fast Food Restaurants", "icon": {"prefix": "https://ss3.4sqi.net/img/categories_v2/food/fastfood_", "suffix": ".png"}}, {"id": 13334, "name": "Sandwich Spot", "short_name": "Sandwich Spot", "plural_name": "Sandwich Spots", "icon": {"prefix": "https://ss3.4sqi.net/img/categories_v2/food/deli_", "suffix": ".png"}}], "chains": [], "closed_bucket": "VeryLikelyOpen", "distance": 672, "geocodes": {"main": {"latitude": 55.880603, "longitude": -4.272827}, "roof": {"latitude": 55.880603, "longitude": -4.272827}}, "link": "/v3/places/4c90d73a490376b0b26ada36", "location": {"address": "14 Northpark St", "admin_region": "Scotland", "country": "GB", "cross_street": "Off Maryhill Road", "formatted_address": "14 Northpark St (Off Maryhill Road), Glasgow, Glasgow City, G20 7AB", "locality": "Glasgow", "post_town": "Glasgow", "postcode": "G20 7AB", "region": "Glasgow City"}, "name": "Roll in", "related_places": {}, "timezone": "Europe/London"}], "context": {"geo_bounds": {"circle": {"center": {"latitude": 55.87501, "longitude": -4.280371}, "radius": 1000}}}}