{"results": [{"fsq_id": "4d876a90651041bd6d329b30", "categories": [{"id": 13039, "name": "Deli", "short_name": "Deli", "plural_name": "Delis", "icon": {"prefix": "https://ss3.4sqi.net/img/categories_v2/food/deli_", "suffix": ".png"}}, {"id": 13145, "name": "Fast Food Restaurant", "short_name": "Fast Food", "plural_name": "Fast Food Restaurants", "icon": {"prefix": "https://ss3.4sqi.net/img/categories_v2/food/fastfood_", "suffix": ".png"}}, {"id": 13334, "name": "Sandwich Spot", "short_name": "Sandwich Spot", "plural_name": "Sandwich Spots", "icon": {"prefix": "https://ss3.4sqi.net/img/categories_v2/food/deli_", "suffix": ".png"}}], "chains": [{"id": "ab4bee40-d68a-012e-5619-003048cad9da", "name": "Subway"}], "closed_bucket": "VeryLikelyOpen", "distance": 110, "geocodes": {"main": {"latitude": 55.890266, "longitude": -4.28992}, "roof": {"latitude": 55.890266, "longitude": -4.28992}}, "link": "/v3/places/4d876a90651041bd6d329b30", "location": {"address": "1417 Maryhill Rd", "admin_region": "Scotland", "country": "GB", "formatted_address": "1417 Maryhill Rd, Glasgow, Glasgow City, G20 9AA", "locality": "Glasgow", "post_town": "Glasgow", "postcode": "G20 9AA", "region": "Glasgow City"}, "name": "Subway", "related_places": {}, "timezone": "Europe/London"}, {"fsq_id": "4bf6c67b508c0f4776d73c31", "categories": [{"id": 13031, "name": "Burger Joint", "short_name": "Burgers", "plural_name": "Burger Joints", "icon": {"prefix": "https://ss3.4sqi.net/img/categories_v2/food/burger_", "suffix": ".png"}}, {"id": 13145, "name": "Fast Food Restaurant", "short_name": "Fast Food", "plural_name": "Fast Food Restaurants", "icon": {"prefix": "https://ss3.4sqi.net/img/categories_v2/food/fastfood_", "suffix": ".png"}}], "chains": [{"id": "ab4a3530-d68a-012e-5619-003048cad9da", "name": "McDonald's"}], "closed_bucket": "VeryLikelyOpen", "distance": 582, "geocodes": {"drop_off": {"latitude": 55.886918, "longitude": -4.284886}, "main": {"latitude": 55.887302, "longitude": -4.284639}, "roof": {"latitude": 55.887302, "longitude": -4.284639}}, "link": "/v3/places/4bf6c67b508c0f4776d73c31", "location": {"address": "1200 Maryhill Rd", "admin_region": "Scotland", "country": "GB", "formatted_address": "1200 Maryhill Rd, Glasgow, Glasgow City, G20 9BA", "locality": "Glasgow", "post_town": "Glasgow", "postcode": "G20 9BA", "region": "Glasgow City"}, "name": "McDonald's", "related_places": {}, "timezone": "Europe/London"}, {"fsq_id": "9161e5d91dbe41f50a13aca9", "categories": [{"id": 13003, "name": "Bar", "short_name": "Bar", "plural_name": "Bars", "icon": {"prefix": "https://ss3.4sqi.net/img/categories_v2/nightlife/pub_", "suffix": ".png"}}], "chains": [], "closed_bucket": "LikelyOpen", "distance": 17, "geocodes": {"main": {"latitude": 55.891304, "longitude": -4.29111}, "roof": {"latitude": 55.891304, "longitude": -4.29111}}, "link": "/v3/places/9161e5d91dbe41f50a13aca9", "location": {"address": "1512 Maryhill Rd", "admin_region": "Scotland", "country": "GB", "formatted_address": "1512 Maryhill Rd, Glasgow, G20 9AD", "locality": "Glasgow", "post_town": "Glasgow", "postcode": "G20 9AD"}, "name": "The Botany", "related_places": {}, "timezone": "Europe/London"}, {"fsq_id": "51f3f0f5498e6dc7626c8e49", "categories": [{"id": 13018, "name": "Pub", "short_name": "Pub", "plural_name": "Pubs", "icon": {"prefix": "https://ss3.4sqi.net/img/categories_v2/nightlife/pub_", "suffix": ".png"}}], "chains": [], "closed_bucket": "VeryLikelyOpen", "distance": 52, "geocodes": {"main": {"latitude": 55.891025, "longitude": -4.29047}, "roof": {"latitude": 55.891025, "longitude": -4.29047}}, "link": "/v3/places/51f3f0f5498e6dc7626c8e49", "location": {"address": "1482 Maryhill Rd", "admin_region": "Scotland", "country": "GB", "cross_street": "", "formatted_address": "1482 Maryhill Rd, Glasgow, G20 9AD", "locality": "Glasgow", "post_town": "Glasgow", "postcode": "G20 9AD"}, "name": "Harvey's", "related_places": {}, "timezone": "Europe/London"}, {"fsq_id": "4c5161e19d642d7ff4926fdd", "categories": [{"id": 13065, "name": "Restaurant", "short_name": "Restaurant", "plural_name": "Restaurants", "icon": {"prefix": "https://ss3.4sqi.net/img/categories_v2/food/default_", "suffix": ".png"}}], "chains": [], "closed_bucket": "VeryLikelyOpen", "distance": 54, "geocodes": {"main": {"latitude": 55.890649, "longitude": -4.29151}, "roof": {"latitude": 55.890649, "longitude": -4.29151}}, "link": "/v3/places/4c5161e19d642d7ff4926fdd", "location": {"address": "24 Gairbraid Ave", "admin_region": "Scotland", "country": "GB", "cross_street": "Maryhill Road", "formatted_address": "24 Gairbraid Ave (Maryhill Road), Glasgow, Glasgow City, G20 8YE", "locality": "Glasgow", "post_town": "Glasgow", "postcode": "G20 8YE", "region": "Glasgow City"}, "name": "Maryhill Burgh Halls", "related_places": {"children": []}, "timezone": "Europe/London"}, {"fsq_id": "90602314786648bf9b127888", "categories": [{"id": 13145, "name": "Fast Food Restaurant", "short_name": "Fast Food", "plural_name": "Fast Food Restaurants", "icon": {"prefix": "https://ss3.4sqi.net/img/categories_v2/food/fastfood_", "suffix": ".png"}}], "chains": [], "closed_bucket": "LikelyOpen", "distance": 73, "geocodes": {"drop_off": {"latitude": 55.890735, "longitude": -4.290136}, "main": {"latitude": 55.890564, "longitude": -4.290245}, "roof": {"latitude": 55.890564, "longitude": -4.290245}}, "link": "/v3/places/90602314786648bf9b127888", "location": {"address": "1397 Maryhill Rd", "admin_region": "Scotland", "country": "GB", "formatted_address": "1397 Maryhill Rd, Glasgow, G20 9AA", "locality": "Glasgow", "post_town": "Glasgow", "postcode": "G20 9AA"}, "name": "Grays Prep Kitchen", "related_places": {}, "timezone": "Europe/London"}, {"fsq_id": "4e5a8d94a8098920b3cd51fc", "categories": [{"id": 13051, "name": "Fish and Chips Shop", "short_name": "Fish and Chips Shop", "plural_name": "Fish and Chips Shops", "icon": {"prefix": "https://ss3.4sqi.net/img/categories_v2/food/fishandchips_", "suffix": ".png"}}, {"id": 13145, "name": "Fast Food Restaurant", "short_name": "Fast Food", "plural_name": "Fast Food Restaurants", "icon": {"prefix": "https://ss3.4sqi.net/img/categories_v2/food/fastfood_", "suffix": ".png"}}], "chains": [], "closed_bucket": "VeryLikelyOpen", "distance": 90, "geocodes": {"main": {"latitude": 55.890321, "longitude": -4.289887}, "roof": {"latitude": 55.890321, "longitude": -4.289887}}, "link": "/v3/places/4e5a8d94a8098920b3cd51fc", "location": {"address": "1419 Maryhill Rd", "admin_region": "Scotland", "country": "GB", "formatted_address": "1419 Maryhill Rd, Glasgow, Glasgow City, G20 9AA", "locality": "Glasgow", "post_town": "Glasgow", "postcode": "G20 9AA", "region": "Glasgow City"}, "name": "Jaconelli's", "related_places": {}, "timezone": "Europe/London"}, {"fsq_id": "5171ae76e4b0a77ffae1d9de", "categories": [{"id": 13003, "name": "Bar", "short_name": "Bar", "plural_name": "Bars", "icon": {"prefix": "https://ss3.4sqi.net/img/categories_v2/nightlife/pub_", "suffix": ".png"}}, {"id": 13065, "name": "Restaurant", "short_name": "Restaurant", "plural_name": "Restaurants", "icon": {"prefix": "https://ss3.4sqi.net/img/categories_v2/food/default_", "suffix": ".png"}}], "chains": [], "closed_bucket": "VeryLikelyOpen", "distance": 139, "geocodes": {"drop_off": {"latitude": 55.892413, "longitude": -4.291792}, "main": {"latitude": 55.892269, "longitude": -4.291736}, "roof": {"latitude": 55.892269, "longitude": -4.291736}}, "link": "/v3/places/5171ae76e4b0a77ffae1d9de", "location": {"address": "26 Sandbank St", "admin_region": "Scotland", "country": "GB", "cross_street": "", "formatted_address": "26 Sandbank St, Glasgow, G20 0JT", "locality": "Glasgow", "post_town": "Glasgow", "postcode": "G20 0JT"}, "name": "Hughes Memorial Orange Halls - Sandbank Street", "related_places": {}, "timezone": "Europe/London"}, {"fsq_id": "5638ffa560b2753ece75bb54", "categories": [{"id": 13026, "name": "BBQ Joint", "short_name": "BBQ", "plural_name": "BBQ Joints", "icon": {"prefix": "https://ss3.4sqi.net/img/categories_v2/food/bbqalt_", "suffix": ".png"}}, {"id": 13145, "name": "Fast Food Restaurant", "short_name": "Fast Food", "plural_name": "Fast Food Restaurants", "icon": {"prefix": "https://ss3.4sqi.net/img/categories_v2/food/fastfood_", "suffix": ".png"}}], "chains": [], "closed_bucket": "LikelyOpen", "distance": 150, "geocodes": {"main": {"latitude": 55.890029, "longitude": -4.289457}, "roof": {"latitude": 55.890029, "longitude": -4.289457}}, "link": "/v3/places/5638ffa560b2753ece75bb54", "location": {"address": "1425 Maryhill Rd", "admin_region": "Scotland", "country": "GB", "formatted_address": "1425 Maryhill Rd, Glasgow, G20 9AA", "locality": "Glasgow", "post_town": "Glasgow", "postcode": "G20 9AA"}, "name": "Woody's Bbq Grill Limited", "related_places": {}, "timezone": "Europe/London"}, {"fsq_id": "56044515498eb2f1f40957f7", "categories": [{"id": 13003, "name": "Bar", "short_name": "Bar", "plural_name": "Bars", "icon": {"prefix": "https://ss3.4sqi.net/img/categories_v2/nightlife/pub_", "suffix": ".png"}}, {"id": 13065, "name": "Restaurant", "short_name": "Restaurant", "plural_name": "Restaurants", "icon": {"prefix": "https://ss3.4sqi.net/img/categories_v2/food/default_", "suffix": ".png"}}], "chains": [], "closed_bucket": "Unsure", "distance": 150, "geocodes": {"main": {"latitude": 55.889981, "longitude": -4.289386}, "roof": {"latitude": 55.889981, "longitude": -4.289386}}, "link": "/v3/places/56044515498eb2f1f40957f7", "location": {"address": "1397 Maryhill Rd", "admin_region": "Scotland", "country": "GB", "cross_street": "", "formatted_address": "1397 Maryhill Rd, Glasgow, G20 9AA", "locality": "Glasgow", "post_town": "Glasgow", "postcode": "G20 9AA"}, "name": "The Lockhouse", "related_places": {}, "timezone": "Europe/London"}, {"fsq_id": "4ece7d1bb8f7971d68690ae4", "categories": [{"id": 13099, "name": "Chinese Restaurant", "short_name": "Chinese", "plural_name": "Chinese Restaurants", "icon": {"prefix": "https://ss3.4sqi.net/img/categories_v2/food/asian_", "suffix": ".png"}}, {"id": 13145, "name": "Fast Food Restaurant", "short_name": "Fast Food", "plural_name": "Fast Food Restaurants", "icon": {"prefix": "https://ss3.4sqi.net/img/categories_v2/food/fastfood_", "suffix": ".png"}}], "chains": [], "closed_bucket": "LikelyOpen", "distance": 172, "geocodes": {"main": {"latitude": 55.889033, "longitude": -4.287533}, "roof": {"latitude": 55.889033, "longitude": -4.287533}}, "link": "/v3/places/4ece7d1bb8f7971d68690ae4", "location": {"address": "1342 Maryhill Rd", "admin_region": "Scotland", "country": "GB", "cross_street": "", "formatted_address": "1342 Maryhill Rd, Glasgow, G20 9DG", "locality": "Glasgow", "post_town": "Glasgow", "postcode": "G20 9DG"}, "name": "Dragon Palace", "related_places": {}, "timezone": "Europe/London"}, {"fsq_id": "59666f022e26801ba33719d4", "categories": [{"id": 13199, "name": "Indian Restaurant", "short_name": "Indian", "plural_name": "Indian Restaurants", "icon": {"prefix": "https://ss3.4sqi.net/img/categories_v2/food/indian_", "suffix": ".png"}}], "chains": [], "closed_bucket": "VeryLikelyOpen", "distance": 309, "geocodes": {"drop_off": {"latitude": 55.888868, "longitude": -4.287666}, "main": {"latitude": 55.889088, "longitude": -4.287499}, "roof": {"latitude": 55.889088, "longitude": -4.287499}}, "link": "/v3/places/59666f022e26801ba33719d4", "location": {"address": "1348 Maryhill Rd", "admin_region": "Scotland", "country": "GB", "cross_street": "", "formatted_address": "1348 Maryhill Rd, Glasgow, Glasgow City, G20 9DG", "locality": "Glasgow", "post_town": "Glasgow", "postcode": "G20 9DG", "region": "Glasgow City"}, "name": "Indian Grill", "related_places": {}, "timezone": "Europe/London"}, {"fsq_id": "26aadea6dcf948c276b530ec", "categories": [{"id": 13003, "name": "Bar", "short_name": "Bar", "plural_name": "Bars", "icon": {"prefix": "https://ss3.4sqi.net/img/categories_v2/nightlife/pub_", "suffix": ".png"}}], "chains": [], "closed_bucket": "VeryLikelyOpen", "distance": 315, "geocodes": {"main": {"latitude": 55.888979, "longitude": -4.287566}, "roof": {"latitude": 55.888979, "longitude": -4.287566}}, "link": "/v3/places/26aadea6dcf948c276b530ec", "location": {"address": "1350 Maryhill Rd", "admin_region": "Scotland", "country": "GB", "formatted_address": "1350 Maryhill Rd, Glasgow, G20 9DG", "locality": "Glasgow", "post_town": "Glasgow", "postcode": "G20 9DG"}, "name": "The Politician", "related_places": {}, "timezone": "Europe/London"}, {"fsq_id": "5ce038dda0215b002cd698ba", "categories": [{"id": 13276, "name": "Sushi Restaurant", "short_name": "Sushi", "plural_name": "Sushi Restaurants", "icon": {"prefix": "https://ss3.4sqi.net/img/categories_v2/food/sushi_", "suffix": ".png"}}], "chains": [], "closed_bucket": "VeryLikelyOpen", "distance": 334, "geocodes": {"main": {"latitude": 55.888784, "longitude": -4.287279}, "roof": {"latitude": 55.888784, "longitude": -4.287279}}, "link": "/v3/places/5ce038dda0215b002cd698ba", "location": {"admin_region": "Scotland", "country": "GB", "cross_street": "", "formatted_address": "Glasgow, Glasgow City, G20 9DG", "locality": "Glasgow", "post_town": "Glasgow", "postcode": "G20 9DG", "region": "Glasgow City"}, "name": "sakura Sushi and Bento", "related_places": {}, "timezone": "Europe/London"}, {"fsq_id": "6af4a5de8e0d45ccf002aafe", "categories": [{"id": 13065, "name": "Restaurant", "short_name": "Restaurant", "plural_name": "Restaurants", "icon": {"prefix": "https://ss3.4sqi.net/img/categories_v2/food/default_", "suffix": ".png"}}], "chains": [], "closed_bucket": "LikelyOpen", "distance": 494, "geocodes": {"main": {"latitude": 55.895232, "longitude": -4.287795}, "roof": {"latitude": 55.895232, "longitude": -4.287795}}, "link": "/v3/places/6af4a5de8e0d45ccf002aafe", "location": {"address": "34 Cottar St", "admin_region": "Scotland", "country": "GB", "formatted_address": "34 Cottar St, Glasgow, G20 0NL", "locality": "Glasgow", "post_town": "Glasgow", "postcode": "G20 0NL"}, "name": "The Lucky Star", "related_places": {}, "timezone": "Europe/London"}, {"fsq_id": "617f19c11f40452acf88f847", "categories": [{"id": 10032, "name": "Night Club", "short_name": "Night Club", "plural_name": "Night Clubs", "icon": {"prefix": "https://ss3.4sqi.net/img/categories_v2/nightlife/nightclub_", "suffix": ".png"}}, {"id": 13003, "name": "Bar", "short_name": "Bar", "plural_name": "Bars", "icon": {"prefix": "https://ss3.4sqi.net/img/categories_v2/nightlife/pub_", "suffix": ".png"}}], "chains": [], "closed_bucket": "VeryLikelyOpen", "distance": 543, "geocodes": {"main": {"latitude": 55.88737, "longitude": -4.285307}, "roof": {"latitude": 55.88737, "longitude": -4.285307}}, "link": "/v3/places/617f19c11f40452acf88f847", "location": {"address": "1236 Maryhill Rd", "admin_region": "Scotland", "country": "GB", "formatted_address": "1236 Maryhill Rd, Glasgow, G20 9BJ", "locality": "Glasgow", "post_town": "Glasgow", "postcode": "G20 9BJ"}, "name": "Frampton's Nightclub", "related_places": {}, "timezone": "Europe/London"}, {"fsq_id": "4e5fcbedb61c67886dcba3c9", "categories": [{"id": 13199, "name": "Indian Restaurant", "short_name": "Indian", "plural_name": "Indian Restaurants", "icon": {"prefix": "https://ss3.4sqi.net/img/categories_v2/food/indian_", "suffix": ".png"}}], "chains": [], "closed_bucket": "VeryLikelyOpen", "distance": 568, "geocodes": {"main": {"latitude": 55.894293, "longitude": -4.297796}}, "link": "/v3/places/4e5fcbedb61c67886dcba3c9", "location": {"country": "GB", "cross_street": "", "formatted_address": ""}, "name": "Hammad Tandoori", "related_places": {}, "timezone": "Europe/London"}, {"fsq_id": "4e47ca7dd164155c0df6fa41", "categories": [{"id": 13003, "name": "Bar", "short_name": "Bar", "plural_name": "Bars", "icon": {"prefix": "https://ss3.4sqi.net/img/categories_v2/nightlife/pub_", "suffix": ".png"}}], "chains": [], "closed_bucket": "LikelyOpen", "distance": 610, "geocodes": {"main": {"latitude": 55.886835, "longitude": -4.284519}, "roof": {"latitude": 55.886835, "longitude": -4.284519}}, "link": "/v3/places/4e47ca7dd164155c0df6fa41", "location": {"address": "1190 Maryhill Rd", "admin_region": "Scotland", "country": "GB", "formatted_address": "1190 Maryhill Rd, Glasgow, Glasgow City, G20 9BA", "locality": "Glasgow", "post_town": "Glasgow", "postcode": "G20 9BA", "region": "Glasgow City"}, "name": "The Viking Bar", "related_places": {}, "timezone": "Europe/London"}, {"fsq_id": "3604249ccf7344f1523468fd", "categories": [{"id": 13065, "name": "Restaurant", "short_name": "Restaurant", "plural_name": "Restaurants", "icon": {"prefix": "https://ss3.4sqi.net/img/categories_v2/food/default_", "suffix": ".png"}}], "chains": [], "closed_bucket": "LikelyOpen", "distance": 626, "geocodes": {"main": {"latitude": 55.896763, "longitude": -4.290508}, "roof": {"latitude": 55.896763, "longitude": -4.290508}}, "link": "/v3/places/3604249ccf7344f1523468fd", "location": {"address": "125 Glenavon Rd", "admin_region": "Scotland", "country": "GB", "formatted_address": "125 Glenavon Rd, Glasgow, G20 0HN", "locality": "Glasgow", "post_town": "Glasgow", "postcode": "G20 0HN"}, "name": "Lomond House", "related_places": {}, "timezone": "Europe/London"}, {"fsq_id": "570f883e498e045323d9b741", "categories": [{"id": 13051, "name": "Fish and Chips Shop", "short_name": "Fish and Chips Shop", "plural_name": "Fish and Chips Shops", "icon": {"prefix": "https://ss3.4sqi.net/img/categories_v2/food/fishandchips_", "suffix": ".png"}}, {"id": 13064, "name": "Pizzeria", "short_name": "Pizza", "plural_name": "Pizzerias", "icon": {"prefix": "https://ss3.4sqi.net/img/categories_v2/food/pizza_", "suffix": ".png"}}], "chains": [], "closed_bucket": "VeryLikelyOpen", "distance": 656, "geocodes": {"main": {"latitude": 55.886641, "longitude": -4.284232}, "roof": {"latitude": 55.886641, "longitude": -4.284232}}, "link": "/v3/places/570f883e498e045323d9b741", "location": {"address": "1178 Maryhill Rd", "admin_region": "Scotland", "country": "GB", "cross_street": "", "formatted_address": "1178 Maryhill Rd, Glasgow, G20 9TA", "locality": "Glasgow", "post_town": "Glasgow", "postcode": "G20 9TA"}, "name": "Tony's Pizzeria", "related_places": {}, "timezone": "Europe/London"}, {"fsq_id": "50730339e4b0f7be6ee1e17f", "categories": [{"id": 13051, "name": "Fish and Chips Shop", "short_name": "Fish and Chips Shop", "plural_name": "Fish and Chips Shops", "icon": {"prefix": "https://ss3.4sqi.net/img/categories_v2/food/fishandchips_", "suffix": ".png"}}], "chains": [], "closed_bucket": "VeryLikelyOpen", "distance": 659, "geocodes": {"main": {"latitude": 55.886641, "longitude": -4.284232}, "roof": {"latitude": 55.886641, "longitude": -4.284232}}, "link": "/v3/places/50730339e4b0f7be6ee1e17f", "location": {"address": "1178 Maryhill Rd", "admin_region": "Scotland", "country": "GB", "cross_street": "", "formatted_address": "1178 Maryhill Rd, Glasgow, G20 9TA", "locality": "Glasgow", "post_town": "Glasgow", "postcode": "G20 9TA"}, "name": "Gio's", "related_places": {}, "timezone": "Europe/London"}, {"fsq_id": "52f53804498e3e71d89d3da8", "categories": [{"id": 13102, "name": "Cantonese Restaurant", "short_name": "Cantonese", "plural_name": "Cantonese Restaurants", "icon": {"prefix": "https://ss3.4sqi.net/img/categories_v2/food/asian_", "suffix": ".png"}}], "chains": [], "closed_bucket": "VeryLikelyOpen", "distance": 728, "geocodes": {"main": {"latitude": 55.885792, "longitude": -4.284346}, "roof": {"latitude": 55.885792, "longitude": -4.284346}}, "link": "/v3/places/52f53804498e3e71d89d3da8", "location": {"country": "GB", "cross_street": "", "formatted_address": ""}, "name": "Lucky Cottage", "related_places": {}, "timezone": "Europe/London"}, {"fsq_id": "4f984b42e4b062d811408e8f", "categories": [{"id": 13145, "name": "Fast Food Restaurant", "short_name": "Fast Food", "plural_name": "Fast Food Restaurants", "icon": {"prefix": "https://ss3.4sqi.net/img/categories_v2/food/fastfood_", "suffix": ".png"}}, {"id": 13199, "name": "Indian Restaurant", "short_name": "Indian", "plural_name": "Indian Restaurants", "icon": {"prefix": "https://ss3.4sqi.net/img/categories_v2/food/indian_", "suffix": ".png"}}], "chains": [], "closed_bucket": "LikelyOpen", "distance": 733, "geocodes": {"main": {"latitude": 55.896162, "longitude": -4.299188}, "roof": {"latitude": 55.896162, "longitude": -4.299188}}, "link": "/v3/places/4f984b42e4b062d811408e8f", "location": {"address": "1911 Maryhill Rd", "admin_region": "Scotland", "country": "GB", "cross_street": "", "formatted_address": "1911 Maryhill Rd, Glasgow, G20 0BY", "locality": "Glasgow", "post_town": "Glasgow", "postcode": "G20 0BY"}, "name": "Bombay Mix Takeaway", "related_places": {}, "timezone": "Europe/London"}, {"fsq_id": "bfd3a0dc4c9247a75fb2c94b", "categories": [{"id": 10032, "name": "Night Club", "short_name": "Night Club", "plural_name": "Night Clubs", "icon": {"prefix": "https://ss3.4sqi.net/img/categories_v2/nightlife/nightclub_", "suffix": ".png"}}, {"id": 13015, "name": "Karaoke Bar", "short_name": "Karaoke", "plural_name": "Karaoke Bars", "icon": {"prefix": "https://ss3.4sqi.net/img/categories_v2/nightlife/karaoke_", "suffix": ".png"}}], "chains": [], "closed_bucket": "LikelyOpen", "distance": 771, "geocodes": {"main": {"latitude": 55.885626, "longitude": -4.299244}, "roof": {"latitude": 55.885626, "longitude": -4.299244}}, "link": "/v3/places/bfd3a0dc4c9247a75fb2c94b", "location": {"address": "2 Winton Lane", "admin_region": "Scotland", "country": "GB", "formatted_address": "2 Winton Lane, Glasgow, G12 0QD", "locality": "Glasgow", "post_town": "Glasgow", "postcode": "G12 0QD"}, "name": "Cheezee Choonz", "related_places": {}, "timezone": "Europe/London"}, {"fsq_id": "4fa2792ae4b0a07988f07d61", "categories": [{"id": 13049, "name": "Diner", "short_name": "Diner", "plural_name": "Diners", "icon": {"prefix": "https://ss3.4sqi.net/img/categories_v2/food/diner_", "suffix": ".png"}}], "chains": [], "closed_bucket": "VeryLikelyOpen", "distance": 793, "geocodes": {"main": {"latitude": 55.88514, "longitude": -4.297616}, "roof": {"latitude": 55.88514, "longitude": -4.297616}}, "link": "/v3/places/4fa2792ae4b0a07988f07d61", "location": {"country": "GB", "cross_street": "", "formatted_address": ""}, "name": "Lunch Hall", "related_places": {}, "timezone": "Europe/London"}, {"fsq_id": "4e39a2e5fa763bfcc3708e65", "categories": [{"id": 13145, "name": "Fast Food Restaurant", "short_name": "Fast Food", "plural_name": "Fast Food Restaurants", "icon": {"prefix": "https://ss3.4sqi.net/img/categories_v2/food/fastfood_", "suffix": ".png"}}, {"id": 13199, "name": "Indian Restaurant", "short_name": "Indian", "plural_name": "Indian Restaurants", "icon": {"prefix": "https://ss3.4sqi.net/img/categories_v2/food/indian_", "suffix": ".png"}}], "chains": [], "closed_bucket": "LikelyOpen", "distance": 889, "geocodes": {"main": {"latitude": 55.886884, "longitude": -4.284591}, "roof": {"latitude": 55.886884, "longitude": -4.284591}}, "link": "/v3/places/4e39a2e5fa763bfcc3708e65", "location": {"address": "1196 Maryhill Rd", "admin_region": "Scotland", "country": "GB", "cross_street": "", "formatted_address": "1196 Maryhill Rd, Glasgow, G20 9BA", "locality": "Glasgow", "post_town": "Glasgow", "postcode": "G20 9BA"}, "name": "Chilli Express", "related_places": {}, "timezone": "Europe/London"}, {"fsq_id": "4ec6c4bd9adf9c7bf22d055d", "categories": [{"id": 13099, "name": "Chinese Restaurant", "short_name": "Chinese", "plural_name": "Chinese Restaurants", "icon": {"prefix": "https://ss3.4sqi.net/img/categories_v2/food/asian_", "suffix": ".png"}}, {"id": 13145, "name": "Fast Food Restaurant", "short_name": "Fast Food", "plural_name": "Fast Food Restaurants", "icon": {"prefix": "https://ss3.4sqi.net/img/categories_v2/food/fastfood_", "suffix": ".png"}}], "chains": [], "closed_bucket": "VeryLikelyOpen", "distance": 1676, "geocodes": {"main": {"latitude": 55.894936, "longitude": -4.297606}, "roof": {"latitude": 55.894936, "longitude": -4.297606}}, "link": "/v3/places/4ec6c4bd9adf9c7bf22d055d", "location": {"address": "1830 Maryhill Rd", "admin_region": "Scotland", "country": "GB", "cross_street": "", "formatted_address": "1830 Maryhill Rd, Glasgow, G20 0HD", "locality": "Glasgow", "post_town": "Glasgow", "postcode": "G20 0HD"}, "name": "Feng Huang", "related_places": {}, "timezone": "Europe/London"}, {"fsq_id": "73c4f565b1d34356f3d553f0", "categories": [{"id": 13003, "name": "Bar", "short_name": "Bar", "plural_name": "Bars", "icon": {"prefix": "https://ss3.4sqi.net/img/categories_v2/nightlife/pub_", "suffix": ".png"}}], "chains": [], "closed_bucket": "Unsure", "distance": 112, "geocodes": {"main": {"latitude": 55.890266, "longitude": -4.28992}, "roof": {"latitude": 55.890266, "longitude": -4.28992}}, "link": "/v3/places/73c4f565b1d34356f3d553f0", "location": {"address": "1397 Maryhill Rd", "admin_region": "Scotland", "country": "GB", "formatted_address": "1397 Maryhill Rd, Glasgow, G20 9AA", "locality": "Glasgow", "post_town": "Glasgow", "postcode": "G20 9AA"}, "name": "Elephant & Bugle", "related_places": {}}, {"fsq_id": "1ded454175d14600ae4b8f5f", "categories": [{"id": 13199, "name": "Indian Restaurant", "short_name": "Indian", "plural_name": "Indian Restaurants", "icon": {"prefix": "https://ss3.4sqi.net/img/categories_v2/food/indian_", "suffix": ".png"}}], "chains": [], "closed_bucket": "Unsure", "distance": 305, "geocodes": {"main": {"latitude": 55.889082, "longitude": -4.287604}, "roof": {"latitude": 55.889082, "longitude": -4.287604}}, "link": "/v3/places/1ded454175d14600ae4b8f5f", "location": {"address": "1348 Maryhill Rd", "admin_region": "Scotland", "country": "GB", "formatted_address": "1348 Maryhill Rd, Glasgow, G20 9DG", "locality": "Glasgow", "post_town": "Glasgow", "postcode": "G20 9DG"}, "name": "Shish Mahal", "related_places": {}}, {"fsq_id": "3ebb265ef5bd470075ce98e7", "categories": [{"id": 13065, "name": "Restaurant", "short_name": "Restaurant", "plural_name": "Restaurants", "icon": {"prefix": "https://ss3.4sqi.net/img/categories_v2/food/default_", "suffix": ".png"}}], "chains": [], "closed_bucket": "LikelyOpen", "distance": 611, "geocodes": {"main": {"latitude": 55.885837, "longitude": -4.28817}, "roof": {"latitude": 55.885837, "longitude": -4.28817}}, "link": "/v3/places/3ebb265ef5bd470075ce98e7", "location": {"address": "145 Garrioch Rd", "admin_region": "Scotland", "country": "GB", "formatted_address": "145 Garrioch Rd, Glasgow, G20 8RH", "locality": "Glasgow", "post_town": "Glasgow", "postcode": "G20 8RH"}, "name": "Golden Dragon", "related_places": {}}], "context": {"geo_bounds": {"circle": {"center": {"latitude": 55.891127, "longitude": -4.290879}, "radius": 1000}}}}