{"results": [{"fsq_id": "4e1c4c481fc714dc5c3143ed", "categories": [{"id": 13006, "name": "Beer Bar", "short_name": "Beer Bar", "plural_name": "Beer Bars", "icon": {"prefix": "https://ss3.4sqi.net/img/categories_v2/nightlife/pub_", "suffix": ".png"}}, {"id": 13031, "name": "Burger Joint", "short_name": "Burgers", "plural_name": "Burger Joints", "icon": {"prefix": "https://ss3.4sqi.net/img/categories_v2/food/burger_", "suffix": ".png"}}], "chains": [], "closed_bucket": "Unsure", "distance": 826, "geocodes": {"main": {"latitude": 55.868325, "longitude": -4.292289}, "roof": {"latitude": 55.868325, "longitude": -4.292289}}, "link": "/v3/places/4e1c4c481fc714dc5c3143ed", "location": {"address": "1397 Argyle St", "admin_region": "Scotland", "country": "GB", "formatted_address": "1397 Argyle St, Glasgow, Glasgow City, G3 8AN", "locality": "Glasgow", "post_town": "Glasgow", "postcode": "G3 8AN", "region": "Glasgow City"}, "name": "BrewDog Glasgow", "related_places": {}, "timezone": "Europe/London"}, {"fsq_id": "50489002e4b02a1c178f2de7", "categories": [{"id": 13006, "name": "Beer Bar", "short_name": "Beer Bar", "plural_name": "Beer Bars", "icon": {"prefix": "https://ss3.4sqi.net/img/categories_v2/nightlife/pub_", "suffix": ".png"}}, {"id": 13065, "name": "Restaurant", "short_name": "Restaurant", "plural_name": "Restaurants", "icon": {"prefix": "https://ss3.4sqi.net/img/categories_v2/food/default_", "suffix": ".png"}}], "chains": [], "closed_bucket": "VeryLikelyOpen", "distance": 859, "geocodes": {"main": {"latitude": 55.874937, "longitude": -4.28075}, "roof": {"latitude": 55.874937, "longitude": -4.28075}}, "link": "/v3/places/50489002e4b02a1c178f2de7", "location": {"address": "445 Great Western Rd", "admin_region": "Scotland", "country": "GB", "cross_street": "", "formatted_address": "445 Great Western Rd, Glasgow, Glasgow City, G12 8HH", "locality": "Glasgow", "post_town": "Glasgow", "postcode": "G12 8HH", "region": "Glasgow City"}, "name": "Inn Deep", "related_places": {}, "timezone": "Europe/London"}, {"fsq_id": "4b7b007cf964a5205b4b2fe3", "categories": [{"id": 13199, "name": "Indian Restaurant", "short_name": "Indian", "plural_name": "Indian Restaurants", "icon": {"prefix": "https://ss3.4sqi.net/img/categories_v2/food/indian_", "suffix": ".png"}}], "chains": [], "closed_bucket": "Unsure", "distance": 743, "geocodes": {"main": {"latitude": 55.867287, "longitude": -4.2911}, "roof": {"latitude": 55.867287, "longitude": -4.2911}}, "link": "/v3/places/4b7b007cf964a5205b4b2fe3", "location": {"address": "1355 Argyle St", "admin_region": "Scotland", "country": "GB", "formatted_address": "1355 Argyle St, Glasgow, Glasgow City, G3 8AD", "locality": "Glasgow", "post_town": "Glasgow", "postcode": "G3 8AD", "region": "Glasgow City"}, "name": "Mother India's Cafe", "related_places": {}, "timezone": "Europe/London"}, {"fsq_id": "4b852d7bf964a5207d4f31e3", "categories": [{"id": 13024, "name": "Whisky Bar", "short_name": "Whisky Bar", "plural_name": "Whisky Bars", "icon": {"prefix": "https://ss3.4sqi.net/img/categories_v2/nightlife/whiskey_", "suffix": ".png"}}], "chains": [], "closed_bucket": "Unsure", "distance": 581, "geocodes": {"main": {"latitude": 55.864143, "longitude": -4.271445}, "roof": {"latitude": 55.864143, "longitude": -4.271445}}, "link": "/v3/places/4b852d7bf964a5207d4f31e3", "location": {"address": "153 North St", "admin_region": "Scotland", "country": "GB", "formatted_address": "153 North St, Glasgow, Glasgow City, G3 7DA", "locality": "Glasgow", "post_town": "Glasgow", "postcode": "G3 7DA", "region": "Glasgow City"}, "name": "Bon Accord", "related_places": {}, "timezone": "Europe/London"}, {"fsq_id": "536e0497498effee047e1ab2", "categories": [{"id": 13065, "name": "Restaurant", "short_name": "Restaurant", "plural_name": "Restaurants", "icon": {"prefix": "https://ss3.4sqi.net/img/categories_v2/food/default_", "suffix": ".png"}}], "chains": [], "closed_bucket": "Unsure", "distance": 399, "geocodes": {"main": {"latitude": 55.865754, "longitude": -4.284743}, "roof": {"latitude": 55.865754, "longitude": -4.284743}}, "link": "/v3/places/536e0497498effee047e1ab2", "location": {"address": "920 Sauchiehall St", "admin_region": "Scotland", "country": "GB", "cross_street": "", "formatted_address": "920 Sauchiehall St, Glasgow, G3 7TF", "locality": "Glasgow", "post_town": "Glasgow", "postcode": "G3 7TF"}, "name": "Ox and Finch", "related_places": {}, "timezone": "Europe/London"}, {"fsq_id": "4b687ef1f964a520237c2be3", "categories": [{"id": 13024, "name": "Whisky Bar", "short_name": "Whisky Bar", "plural_name": "Whisky Bars", "icon": {"prefix": "https://ss3.4sqi.net/img/categories_v2/nightlife/whiskey_", "suffix": ".png"}}], "chains": [], "closed_bucket": "Unsure", "distance": 441, "geocodes": {"main": {"latitude": 55.864838, "longitude": -4.2851}, "roof": {"latitude": 55.864838, "longitude": -4.2851}}, "link": "/v3/places/4b687ef1f964a520237c2be3", "location": {"address": "1147 Argyle St", "admin_region": "Scotland", "country": "GB", "cross_street": "Corunna St", "formatted_address": "1147 Argyle St (Corunna St), Glasgow, Glasgow City, G3 8TB", "locality": "Glasgow", "post_town": "Glasgow", "postcode": "G3 8TB", "region": "Glasgow City"}, "name": "The Ben Nevis", "related_places": {}, "timezone": "Europe/London"}, {"fsq_id": "58f67d601213846655187750", "categories": [{"id": 13064, "name": "Pizzeria", "short_name": "Pizza", "plural_name": "Pizzerias", "icon": {"prefix": "https://ss3.4sqi.net/img/categories_v2/food/pizza_", "suffix": ".png"}}, {"id": 13236, "name": "Italian Restaurant", "short_name": "Italian", "plural_name": "Italian Restaurants", "icon": {"prefix": "https://ss3.4sqi.net/img/categories_v2/food/italian_", "suffix": ".png"}}], "chains": [], "closed_bucket": "Unsure", "distance": 924, "geocodes": {"main": {"latitude": 55.87515, "longitude": -4.281633}, "roof": {"latitude": 55.87515, "longitude": -4.281633}}, "link": "/v3/places/58f67d601213846655187750", "location": {"address": "471 Great Western Rd", "admin_region": "Scotland", "country": "GB", "cross_street": "", "formatted_address": "471 Great Western Rd, Glasgow, Glasgow City, G12 8HL", "locality": "Glasgow", "post_town": "Glasgow", "postcode": "G12 8HL", "region": "Glasgow City"}, "name": "Paesano Pizza", "related_places": {}, "timezone": "Europe/London"}, {"fsq_id": "4bc2003eabf49521bdbfc193", "categories": [{"id": 13025, "name": "Wine Bar", "short_name": "Wine Bar", "plural_name": "Wine Bars", "icon": {"prefix": "https://ss3.4sqi.net/img/categories_v2/food/winery_", "suffix": ".png"}}, {"id": 13383, "name": "Steakhouse", "short_name": "Steakhouse", "plural_name": "Steakhouses", "icon": {"prefix": "https://ss3.4sqi.net/img/categories_v2/food/steakhouse_", "suffix": ".png"}}], "chains": [], "closed_bucket": "Unsure", "distance": 628, "geocodes": {"main": {"latitude": 55.866819, "longitude": -4.289157}, "roof": {"latitude": 55.866819, "longitude": -4.289157}}, "link": "/v3/places/4bc2003eabf49521bdbfc193", "location": {"address": "1055 Sauchiehall St", "admin_region": "Scotland", "country": "GB", "formatted_address": "1055 Sauchiehall St, Glasgow, Glasgow City, G3 7UD", "locality": "Glasgow", "post_town": "Glasgow", "postcode": "G3 7UD", "region": "Glasgow City"}, "name": "The Butchershop Bar & Grill", "related_places": {}, "timezone": "Europe/London"}, {"fsq_id": "5606f8f0498ecb20434d8a44", "categories": [{"id": 13236, "name": "Italian Restaurant", "short_name": "Italian", "plural_name": "Italian Restaurants", "icon": {"prefix": "https://ss3.4sqi.net/img/categories_v2/food/italian_", "suffix": ".png"}}], "chains": [], "closed_bucket": "LikelyOpen", "distance": 582, "geocodes": {"drop_off": {"latitude": 55.872408, "longitude": -4.280217}, "main": {"latitude": 55.87254, "longitude": -4.280291}, "roof": {"latitude": 55.87254, "longitude": -4.280291}}, "link": "/v3/places/5606f8f0498ecb20434d8a44", "location": {"address": "152 Park Rd", "admin_region": "Scotland", "country": "GB", "cross_street": "Gibson St", "formatted_address": "152 Park Rd (Gibson St), Glasgow, G4 9HB", "locality": "Glasgow", "post_town": "Glasgow", "postcode": "G4 9HB"}, "name": "Eusebi Deli", "related_places": {}, "timezone": "Europe/London"}, {"fsq_id": "4c8530ab74d7b60cac4999d8", "categories": [{"id": 13199, "name": "Indian Restaurant", "short_name": "Indian", "plural_name": "Indian Restaurants", "icon": {"prefix": "https://ss3.4sqi.net/img/categories_v2/food/indian_", "suffix": ".png"}}], "chains": [], "closed_bucket": "Unsure", "distance": 365, "geocodes": {"main": {"latitude": 55.865238, "longitude": -4.28364}, "roof": {"latitude": 55.865238, "longitude": -4.28364}}, "link": "/v3/places/4c8530ab74d7b60cac4999d8", "location": {"address": "28 Westminster Terrace", "admin_region": "Scotland", "country": "GB", "formatted_address": "28 Westminster Terrace, Glasgow, Glasgow City, G3 7RU", "locality": "Glasgow", "post_town": "Glasgow", "postcode": "G3 7RU", "region": "Glasgow City"}, "name": "Mother India", "related_places": {}, "timezone": "Europe/London"}, {"fsq_id": "56752941498ef438347e5c5e", "categories": [{"id": 13002, "name": "Bakery", "short_name": "Bakery", "plural_name": "Bakeries", "icon": {"prefix": "https://ss3.4sqi.net/img/categories_v2/food/bakery_", "suffix": ".png"}}, {"id": 13035, "name": "Coffee Shop", "short_name": "Coffee Shop", "plural_name": "Coffee Shops", "icon": {"prefix": "https://ss3.4sqi.net/img/categories_v2/food/coffeeshop_", "suffix": ".png"}}, {"id": 13145, "name": "Fast Food Restaurant", "short_name": "Fast Food", "plural_name": "Fast Food Restaurants", "icon": {"prefix": "https://ss3.4sqi.net/img/categories_v2/food/fastfood_", "suffix": ".png"}}], "chains": [], "closed_bucket": "LikelyOpen", "distance": 816, "geocodes": {"main": {"latitude": 55.86693, "longitude": -4.291825}, "roof": {"latitude": 55.86693, "longitude": -4.291825}}, "link": "/v3/places/56752941498ef438347e5c5e", "location": {"address": "27 Old Dumbarton Rd", "admin_region": "Scotland", "country": "GB", "cross_street": "", "formatted_address": "27 Old Dumbarton Rd, Glasgow, Glasgow City, G3 8RD", "locality": "Glasgow", "post_town": "Glasgow", "postcode": "G3 8RD", "region": "Glasgow City"}, "name": "Tantrum Doughnuts", "related_places": {}, "timezone": "Europe/London"}, {"fsq_id": "4b2544e3f964a520096f24e3", "categories": [{"id": 13057, "name": "Gastropub", "short_name": "Gastropub", "plural_name": "Gastropubs", "icon": {"prefix": "https://ss3.4sqi.net/img/categories_v2/food/gastropub_", "suffix": ".png"}}], "chains": [], "closed_bucket": "LikelyOpen", "distance": 648, "geocodes": {"main": {"latitude": 55.872578, "longitude": -4.282395}, "roof": {"latitude": 55.872578, "longitude": -4.282395}}, "link": "/v3/places/4b2544e3f964a520096f24e3", "location": {"address": "28 Gibson St", "admin_region": "Scotland", "country": "GB", "formatted_address": "28 Gibson St, Glasgow City, G12 8NX", "locality": "Glasgow City", "post_town": "Glasgow", "postcode": "G12 8NX", "region": "Glasgow City"}, "name": "Stravaigin", "related_places": {}, "timezone": "Europe/London"}, {"fsq_id": "4c263d74b012b7135fd90893", "categories": [{"id": 13002, "name": "Bakery", "short_name": "Bakery", "plural_name": "Bakeries", "icon": {"prefix": "https://ss3.4sqi.net/img/categories_v2/food/bakery_", "suffix": ".png"}}, {"id": 13036, "name": "Tea Room", "short_name": "Tea Room", "plural_name": "Tea Rooms", "icon": {"prefix": "https://ss3.4sqi.net/img/categories_v2/food/tearoom_", "suffix": ".png"}}, {"id": 13065, "name": "Restaurant", "short_name": "Restaurant", "plural_name": "Restaurants", "icon": {"prefix": "https://ss3.4sqi.net/img/categories_v2/food/default_", "suffix": ".png"}}], "chains": [], "closed_bucket": "LikelyOpen", "distance": 425, "geocodes": {"main": {"latitude": 55.864291, "longitude": -4.283611}, "roof": {"latitude": 55.864291, "longitude": -4.283611}}, "link": "/v3/places/4c263d74b012b7135fd90893", "location": {"address": "1103 Argyle St", "address_extended": "Unit 8", "admin_region": "Scotland", "country": "GB", "cross_street": "Argyle Court", "formatted_address": "1103 Argyle St (Argyle Court), Glasgow, G3 8ND", "locality": "Glasgow", "post_town": "Glasgow", "postcode": "G3 8ND"}, "name": "The Hidden Lane Tearoom", "related_places": {"children": [{"fsq_id": "6177c84b1b7e0864e20470d8", "categories": [{"id": 11124, "name": "Office", "short_name": "Office", "plural_name": "Offices", "icon": {"prefix": "https://ss3.4sqi.net/img/categories_v2/building/default_", "suffix": ".png"}}], "name": "Rakata Technology Limited"}]}, "timezone": "Europe/London"}, {"fsq_id": "4d1e398e6e8c3704d4cee49f", "categories": [{"id": 13009, "name": "Cocktail Bar", "short_name": "Cocktail", "plural_name": "Cocktail Bars", "icon": {"prefix": "https://ss3.4sqi.net/img/categories_v2/nightlife/cocktails_", "suffix": ".png"}}, {"id": 13352, "name": "Thai Restaurant", "short_name": "Thai", "plural_name": "Thai Restaurants", "icon": {"prefix": "https://ss3.4sqi.net/img/categories_v2/food/thai_", "suffix": ".png"}}], "chains": [], "closed_bucket": "LikelyOpen", "distance": 929, "geocodes": {"main": {"latitude": 55.864914, "longitude": -4.26439}, "roof": {"latitude": 55.864914, "longitude": -4.26439}}, "link": "/v3/places/4d1e398e6e8c3704d4cee49f", "location": {"address": "214 Bath St", "admin_region": "Scotland", "country": "GB", "formatted_address": "214 Bath St, Glasgow, Glasgow City, G2 4HW", "locality": "Glasgow", "post_town": "Glasgow", "postcode": "G2 4HW", "region": "Glasgow City"}, "name": "Tiki Bar & Kitsch Inn", "related_places": {}, "timezone": "Europe/London"}, {"fsq_id": "55913eaf498e348f695d01d5", "categories": [{"id": 13034, "name": "Caf\u00e9", "short_name": "Caf\u00e9", "plural_name": "Caf\u00e9s", "icon": {"prefix": "https://ss3.4sqi.net/img/categories_v2/food/cafe_", "suffix": ".png"}}, {"id": 13035, "name": "Coffee Shop", "short_name": "Coffee Shop", "plural_name": "Coffee Shops", "icon": {"prefix": "https://ss3.4sqi.net/img/categories_v2/food/coffeeshop_", "suffix": ".png"}}, {"id": 13065, "name": "Restaurant", "short_name": "Restaurant", "plural_name": "Restaurants", "icon": {"prefix": "https://ss3.4sqi.net/img/categories_v2/food/default_", "suffix": ".png"}}], "chains": [], "closed_bucket": "LikelyOpen", "distance": 989, "geocodes": {"main": {"latitude": 55.864853, "longitude": -4.263617}, "roof": {"latitude": 55.864853, "longitude": -4.263617}}, "link": "/v3/places/55913eaf498e348f695d01d5", "location": {"address": "121 Douglas St", "admin_region": "Scotland", "country": "GB", "cross_street": "", "formatted_address": "121 Douglas St, Glasgow, Glasgow City, G2 4HF", "locality": "Glasgow", "post_town": "Glasgow", "postcode": "G2 4HF", "region": "Glasgow City"}, "name": "Smile Cafe Central", "related_places": {}, "timezone": "Europe/London"}, {"fsq_id": "4b2bc508f964a52095ba24e3", "categories": [{"id": 10032, "name": "Night Club", "short_name": "Night Club", "plural_name": "Night Clubs", "icon": {"prefix": "https://ss3.4sqi.net/img/categories_v2/nightlife/nightclub_", "suffix": ".png"}}, {"id": 13003, "name": "Bar", "short_name": "Bar", "plural_name": "Bars", "icon": {"prefix": "https://ss3.4sqi.net/img/categories_v2/nightlife/pub_", "suffix": ".png"}}, {"id": 13065, "name": "Restaurant", "short_name": "Restaurant", "plural_name": "Restaurants", "icon": {"prefix": "https://ss3.4sqi.net/img/categories_v2/food/default_", "suffix": ".png"}}], "chains": [], "closed_bucket": "Unsure", "distance": 625, "geocodes": {"main": {"latitude": 55.865913, "longitude": -4.269046}, "roof": {"latitude": 55.865913, "longitude": -4.269046}}, "link": "/v3/places/4b2bc508f964a52095ba24e3", "location": {"address": "421 Sauchiehall St", "admin_region": "Scotland", "country": "GB", "formatted_address": "421 Sauchiehall St, Glasgow, G2 3LG", "locality": "Glasgow", "post_town": "Glasgow", "postcode": "G2 3LG"}, "name": "Nice N Sleazy", "related_places": {"children": []}, "timezone": "Europe/London"}, {"fsq_id": "523f5bd411d202b54c76c7c3", "categories": [{"id": 13337, "name": "Scottish Restaurant", "short_name": "Scottish", "plural_name": "Scottish Restaurants", "icon": {"prefix": "https://ss3.4sqi.net/img/categories_v2/food/default_", "suffix": ".png"}}], "chains": [], "closed_bucket": "VeryLikelyOpen", "distance": 449, "geocodes": {"drop_off": {"latitude": 55.865039, "longitude": -4.285229}, "main": {"latitude": 55.864881, "longitude": -4.285277}, "roof": {"latitude": 55.864881, "longitude": -4.285277}}, "link": "/v3/places/523f5bd411d202b54c76c7c3", "location": {"address": "1155 Argyle St", "admin_region": "Scotland", "country": "GB", "cross_street": "", "formatted_address": "1155 Argyle St, Glasgow, G3 8TB", "locality": "Glasgow", "post_town": "Glasgow", "postcode": "G3 8TB"}, "name": "The Gannet", "related_places": {}, "timezone": "Europe/London"}, {"fsq_id": "5595668c498e02153643a82f", "categories": [{"id": 13018, "name": "Pub", "short_name": "Pub", "plural_name": "Pubs", "icon": {"prefix": "https://ss3.4sqi.net/img/categories_v2/nightlife/pub_", "suffix": ".png"}}, {"id": 13065, "name": "Restaurant", "short_name": "Restaurant", "plural_name": "Restaurants", "icon": {"prefix": "https://ss3.4sqi.net/img/categories_v2/food/default_", "suffix": ".png"}}], "chains": [], "closed_bucket": "LikelyOpen", "distance": 710, "geocodes": {"main": {"latitude": 55.8722, "longitude": -4.272393}, "roof": {"latitude": 55.8722, "longitude": -4.272393}}, "link": "/v3/places/5595668c498e02153643a82f", "location": {"address": "Great Western Rd 171", "admin_region": "Scotland", "country": "GB", "cross_street": "", "formatted_address": "Great Western Rd 171, Glasgow, Glasgow City, G4 9AW", "locality": "Glasgow", "post_town": "Glasgow", "postcode": "G4 9AW", "region": "Glasgow City"}, "name": "The Hug and Pint", "related_places": {}, "timezone": "Europe/London"}, {"fsq_id": "4b65dd17f964a520ac042be3", "categories": [{"id": 13009, "name": "Cocktail Bar", "short_name": "Cocktail", "plural_name": "Cocktail Bars", "icon": {"prefix": "https://ss3.4sqi.net/img/categories_v2/nightlife/cocktails_", "suffix": ".png"}}, {"id": 13057, "name": "Gastropub", "short_name": "Gastropub", "plural_name": "Gastropubs", "icon": {"prefix": "https://ss3.4sqi.net/img/categories_v2/food/gastropub_", "suffix": ".png"}}], "chains": [], "closed_bucket": "Unsure", "distance": 378, "geocodes": {"main": {"latitude": 55.864078, "longitude": -4.281817}, "roof": {"latitude": 55.864078, "longitude": -4.281817}}, "link": "/v3/places/4b65dd17f964a520ac042be3", "location": {"address": "1008 Argyle St", "admin_region": "Scotland", "country": "GB", "cross_street": "", "formatted_address": "1008 Argyle St, Glasgow, Glasgow City, G3 8LX", "locality": "Glasgow", "post_town": "Glasgow", "postcode": "G3 8LX", "region": "Glasgow City"}, "name": "Lebowskis", "related_places": {}, "timezone": "Europe/London"}, {"fsq_id": "4c125afbb7b9c9284698a737", "categories": [{"id": 13018, "name": "Pub", "short_name": "Pub", "plural_name": "Pubs", "icon": {"prefix": "https://ss3.4sqi.net/img/categories_v2/nightlife/pub_", "suffix": ".png"}}, {"id": 13049, "name": "Diner", "short_name": "Diner", "plural_name": "Diners", "icon": {"prefix": "https://ss3.4sqi.net/img/categories_v2/food/diner_", "suffix": ".png"}}], "chains": [], "closed_bucket": "VeryLikelyOpen", "distance": 636, "geocodes": {"main": {"latitude": 55.866412, "longitude": -4.288899}, "roof": {"latitude": 55.866412, "longitude": -4.288899}}, "link": "/v3/places/4c125afbb7b9c9284698a737", "location": {"address": "1256 Argyle St", "admin_region": "Scotland", "country": "GB", "cross_street": "West End", "formatted_address": "1256 Argyle St (West End), Glasgow, Glasgow City, G3 8TJ", "locality": "Glasgow", "post_town": "Glasgow", "postcode": "G3 8TJ", "region": "Glasgow City"}, "name": "Islay Inn", "related_places": {}, "timezone": "Europe/London"}, {"fsq_id": "4c582eed7613b713957b91ea", "categories": [{"id": 13034, "name": "Caf\u00e9", "short_name": "Caf\u00e9", "plural_name": "Caf\u00e9s", "icon": {"prefix": "https://ss3.4sqi.net/img/categories_v2/food/cafe_", "suffix": ".png"}}, {"id": 13035, "name": "Coffee Shop", "short_name": "Coffee Shop", "plural_name": "Coffee Shops", "icon": {"prefix": "https://ss3.4sqi.net/img/categories_v2/food/coffeeshop_", "suffix": ".png"}}, {"id": 13065, "name": "Restaurant", "short_name": "Restaurant", "plural_name": "Restaurants", "icon": {"prefix": "https://ss3.4sqi.net/img/categories_v2/food/default_", "suffix": ".png"}}], "chains": [], "closed_bucket": "VeryLikelyOpen", "distance": 86, "geocodes": {"main": {"latitude": 55.866964, "longitude": -4.280154}, "roof": {"latitude": 55.866964, "longitude": -4.280154}}, "link": "/v3/places/4c582eed7613b713957b91ea", "location": {"address": "Kelvingrove Park", "admin_region": "Scotland", "country": "GB", "cross_street": "at North Claremont Street", "formatted_address": "Kelvingrove Park (at North Claremont Street), Glasgow, Glasgow City, G3 7LH", "locality": "Glasgow", "post_town": "Glasgow", "postcode": "G3 7LH", "region": "Glasgow City"}, "name": "An Clachan Cafe", "related_places": {}, "timezone": "Europe/London"}, {"fsq_id": "4d28d36debacb1f71b01f54f", "categories": [{"id": 13024, "name": "Whisky Bar", "short_name": "Whisky Bar", "plural_name": "Whisky Bars", "icon": {"prefix": "https://ss3.4sqi.net/img/categories_v2/nightlife/whiskey_", "suffix": ".png"}}], "chains": [], "closed_bucket": "LikelyOpen", "distance": 478, "geocodes": {"main": {"latitude": 55.871154, "longitude": -4.276883}, "roof": {"latitude": 55.871154, "longitude": -4.276883}}, "link": "/v3/places/4d28d36debacb1f71b01f54f", "location": {"address": "232-246 Woodlands Rd", "admin_region": "Scotland", "country": "GB", "formatted_address": "232-246 Woodlands Rd, Glasgow, Glasgow City, G3 6ND", "locality": "Glasgow", "post_town": "Glasgow", "postcode": "G3 6ND", "region": "Glasgow City"}, "name": "Dram", "related_places": {}, "timezone": "Europe/London"}, {"fsq_id": "4b44d799f964a520d7fd25e3", "categories": [{"id": 13034, "name": "Caf\u00e9", "short_name": "Caf\u00e9", "plural_name": "Caf\u00e9s", "icon": {"prefix": "https://ss3.4sqi.net/img/categories_v2/food/cafe_", "suffix": ".png"}}, {"id": 13035, "name": "Coffee Shop", "short_name": "Coffee Shop", "plural_name": "Coffee Shops", "icon": {"prefix": "https://ss3.4sqi.net/img/categories_v2/food/coffeeshop_", "suffix": ".png"}}, {"id": 13065, "name": "Restaurant", "short_name": "Restaurant", "plural_name": "Restaurants", "icon": {"prefix": "https://ss3.4sqi.net/img/categories_v2/food/default_", "suffix": ".png"}}], "chains": [], "closed_bucket": "LikelyOpen", "distance": 614, "geocodes": {"main": {"latitude": 55.872238, "longitude": -4.281894}, "roof": {"latitude": 55.872238, "longitude": -4.281894}}, "link": "/v3/places/4b44d799f964a520d7fd25e3", "location": {"address": "3-5 Gibson St", "admin_region": "Scotland", "country": "GB", "cross_street": "at Park Rd", "formatted_address": "3-5 Gibson St (at Park Rd), Glasgow, Glasgow City, G12 8NU", "locality": "Glasgow", "post_town": "Glasgow", "postcode": "G12 8NU", "region": "Glasgow City"}, "name": "Offshore", "related_places": {}, "timezone": "Europe/London"}, {"fsq_id": "4ca0e56546978cfabaa2b77f", "categories": [{"id": 13199, "name": "Indian Restaurant", "short_name": "Indian", "plural_name": "Indian Restaurants", "icon": {"prefix": "https://ss3.4sqi.net/img/categories_v2/food/indian_", "suffix": ".png"}}], "chains": [], "closed_bucket": "VeryLikelyOpen", "distance": 357, "geocodes": {"main": {"latitude": 55.865158, "longitude": -4.273965}, "roof": {"latitude": 55.865158, "longitude": -4.273965}}, "link": "/v3/places/4ca0e56546978cfabaa2b77f", "location": {"address": "17 Granville St", "admin_region": "Scotland", "country": "GB", "cross_street": "", "formatted_address": "17 Granville St, Glasgow, Glasgow City, G3 7EE", "locality": "Glasgow", "post_town": "Glasgow", "postcode": "G3 7EE", "region": "Glasgow City"}, "name": "Shenaz", "related_places": {}, "timezone": "Europe/London"}, {"fsq_id": "4b609ccdf964a52037f029e3", "categories": [{"id": 13003, "name": "Bar", "short_name": "Bar", "plural_name": "Bars", "icon": {"prefix": "https://ss3.4sqi.net/img/categories_v2/nightlife/pub_", "suffix": ".png"}}, {"id": 13027, "name": "Bistro", "short_name": "Bistro", "plural_name": "Bistros", "icon": {"prefix": "https://ss3.4sqi.net/img/categories_v2/food/default_", "suffix": ".png"}}], "chains": [], "closed_bucket": "Unsure", "distance": 662, "geocodes": {"drop_off": {"latitude": 55.87252, "longitude": -4.282678}, "main": {"latitude": 55.872402, "longitude": -4.282705}, "roof": {"latitude": 55.872402, "longitude": -4.282705}}, "link": "/v3/places/4b609ccdf964a52037f029e3", "location": {"address": "33-35 Gibson St", "admin_region": "Scotland", "country": "GB", "formatted_address": "33-35 Gibson St, Glasgow, Glasgow City, G12 8NU", "locality": "Glasgow", "post_town": "Glasgow", "postcode": "G12 8NU", "region": "Glasgow City"}, "name": "The Left Bank", "related_places": {}, "timezone": "Europe/London"}, {"fsq_id": "4bb4be3486a8d13a67c8de7f", "categories": [{"id": 13010, "name": "Dive Bar", "short_name": "Dive Bar", "plural_name": "Dive Bars", "icon": {"prefix": "https://ss3.4sqi.net/img/categories_v2/nightlife/divebar_", "suffix": ".png"}}, {"id": 13018, "name": "Pub", "short_name": "Pub", "plural_name": "Pubs", "icon": {"prefix": "https://ss3.4sqi.net/img/categories_v2/nightlife/pub_", "suffix": ".png"}}, {"id": 13065, "name": "Restaurant", "short_name": "Restaurant", "plural_name": "Restaurants", "icon": {"prefix": "https://ss3.4sqi.net/img/categories_v2/food/default_", "suffix": ".png"}}], "chains": [], "closed_bucket": "Unsure", "distance": 671, "geocodes": {"main": {"latitude": 55.873122, "longitude": -4.279327}, "roof": {"latitude": 55.873122, "longitude": -4.279327}}, "link": "/v3/places/4bb4be3486a8d13a67c8de7f", "location": {"address": "74 Park Rd", "admin_region": "Scotland", "country": "GB", "cross_street": "Woodlands Road", "formatted_address": "74 Park Rd (Woodlands Road), Glasgow, Glasgow City, G4 9JF", "locality": "Glasgow", "post_town": "Glasgow", "postcode": "G4 9JF", "region": "Glasgow City"}, "name": "The Doublet", "related_places": {}, "timezone": "Europe/London"}, {"fsq_id": "596e6d68d48ec155ebe2eba6", "categories": [{"id": 13065, "name": "Restaurant", "short_name": "Restaurant", "plural_name": "Restaurants", "icon": {"prefix": "https://ss3.4sqi.net/img/categories_v2/food/default_", "suffix": ".png"}}], "chains": [], "closed_bucket": "VeryLikelyOpen", "distance": 993, "geocodes": {"main": {"latitude": 55.860033, "longitude": -4.268691}, "roof": {"latitude": 55.860033, "longitude": -4.268691}}, "link": "/v3/places/596e6d68d48ec155ebe2eba6", "location": {"address": "500 Argyle St", "admin_region": "Scotland", "country": "GB", "cross_street": "", "formatted_address": "500 Argyle St, Glasgow, Glasgow City, G3 8RR", "locality": "Glasgow", "post_town": "Glasgow", "postcode": "G3 8RR", "region": "Glasgow City"}, "name": "Cast Iron Grill", "related_places": {"parent": {"fsq_id": "4b76346af964a5201a432ee3", "categories": [{"id": 19014, "name": "Hotel", "short_name": "Hotel", "plural_name": "Hotels", "icon": {"prefix": "https://ss3.4sqi.net/img/categories_v2/travel/hotel_", "suffix": ".png"}}], "name": "Marriott Hotels & Resorts"}}, "timezone": "Europe/London"}, {"fsq_id": "4c0164bef7ab0f471d0816b6", "categories": [{"id": 13018, "name": "Pub", "short_name": "Pub", "plural_name": "Pubs", "icon": {"prefix": "https://ss3.4sqi.net/img/categories_v2/nightlife/pub_", "suffix": ".png"}}, {"id": 13065, "name": "Restaurant", "short_name": "Restaurant", "plural_name": "Restaurants", "icon": {"prefix": "https://ss3.4sqi.net/img/categories_v2/food/default_", "suffix": ".png"}}], "chains": [], "closed_bucket": "Unsure", "distance": 564, "geocodes": {"main": {"latitude": 55.872066, "longitude": -4.278453}, "roof": {"latitude": 55.872066, "longitude": -4.278453}}, "link": "/v3/places/4c0164bef7ab0f471d0816b6", "location": {"address": "287 Woodlands Rd", "admin_region": "Scotland", "country": "GB", "cross_street": "", "formatted_address": "287 Woodlands Rd, Glasgow, Glasgow City, G3 6NF", "locality": "Glasgow", "post_town": "Glasgow", "postcode": "G3 6NF", "region": "Glasgow City"}, "name": "Old Schoolhouse Glasgow", "related_places": {}, "timezone": "Europe/London"}, {"fsq_id": "4c2f3cf866e40f47117fc18b", "categories": [{"id": 13003, "name": "Bar", "short_name": "Bar", "plural_name": "Bars", "icon": {"prefix": "https://ss3.4sqi.net/img/categories_v2/nightlife/pub_", "suffix": ".png"}}, {"id": 13065, "name": "Restaurant", "short_name": "Restaurant", "plural_name": "Restaurants", "icon": {"prefix": "https://ss3.4sqi.net/img/categories_v2/food/default_", "suffix": ".png"}}], "chains": [], "closed_bucket": "VeryLikelyOpen", "distance": 388, "geocodes": {"main": {"latitude": 55.868415, "longitude": -4.273189}, "roof": {"latitude": 55.868415, "longitude": -4.273189}}, "link": "/v3/places/4c2f3cf866e40f47117fc18b", "location": {"address": "1 Lynedoch St", "admin_region": "Scotland", "country": "GB", "formatted_address": "1 Lynedoch St, Glasgow, Glasgow City, G3 6EF", "locality": "Glasgow", "post_town": "Glasgow", "postcode": "G3 6EF", "region": "Glasgow City"}, "name": "The Drake", "related_places": {}, "timezone": "Europe/London"}, {"fsq_id": "572774db498eb236fd4d4279", "categories": [{"id": 13034, "name": "Caf\u00e9", "short_name": "Caf\u00e9", "plural_name": "Caf\u00e9s", "icon": {"prefix": "https://ss3.4sqi.net/img/categories_v2/food/cafe_", "suffix": ".png"}}, {"id": 13035, "name": "Coffee Shop", "short_name": "Coffee Shop", "plural_name": "Coffee Shops", "icon": {"prefix": "https://ss3.4sqi.net/img/categories_v2/food/coffeeshop_", "suffix": ".png"}}, {"id": 13065, "name": "Restaurant", "short_name": "Restaurant", "plural_name": "Restaurants", "icon": {"prefix": "https://ss3.4sqi.net/img/categories_v2/food/default_", "suffix": ".png"}}], "chains": [], "closed_bucket": "VeryLikelyOpen", "distance": 795, "geocodes": {"drop_off": {"latitude": 55.874231, "longitude": -4.279504}, "main": {"latitude": 55.874123, "longitude": -4.279323}, "roof": {"latitude": 55.874123, "longitude": -4.279323}}, "link": "/v3/places/572774db498eb236fd4d4279", "location": {"address": "72 South Woodside Rd", "admin_region": "Scotland", "country": "GB", "cross_street": "", "formatted_address": "72 South Woodside Rd, Glasgow, G4 9HG", "locality": "Glasgow", "post_town": "Glasgow", "postcode": "G4 9HG"}, "name": "Kelvin Pocket", "related_places": {}, "timezone": "Europe/London"}, {"fsq_id": "4b8e5f7df964a520851f33e3", "categories": [{"id": 13276, "name": "Sushi Restaurant", "short_name": "Sushi", "plural_name": "Sushi Restaurants", "icon": {"prefix": "https://ss3.4sqi.net/img/categories_v2/food/sushi_", "suffix": ".png"}}], "chains": [], "closed_bucket": "VeryLikelyOpen", "distance": 597, "geocodes": {"main": {"latitude": 55.865949, "longitude": -4.269328}, "roof": {"latitude": 55.865949, "longitude": -4.269328}}, "link": "/v3/places/4b8e5f7df964a520851f33e3", "location": {"address": "441 Sauchiehall St", "admin_region": "Scotland", "country": "GB", "formatted_address": "441 Sauchiehall St, Glasgow, Glasgow City, G2 3LG", "locality": "Glasgow", "post_town": "Glasgow", "postcode": "G2 3LG", "region": "Glasgow City"}, "name": "Nanakusa", "related_places": {}, "timezone": "Europe/London"}, {"fsq_id": "4b658635f964a52041f32ae3", "categories": [{"id": 13018, "name": "Pub", "short_name": "Pub", "plural_name": "Pubs", "icon": {"prefix": "https://ss3.4sqi.net/img/categories_v2/nightlife/pub_", "suffix": ".png"}}, {"id": 13025, "name": "Wine Bar", "short_name": "Wine Bar", "plural_name": "Wine Bars", "icon": {"prefix": "https://ss3.4sqi.net/img/categories_v2/food/winery_", "suffix": ".png"}}, {"id": 13057, "name": "Gastropub", "short_name": "Gastropub", "plural_name": "Gastropubs", "icon": {"prefix": "https://ss3.4sqi.net/img/categories_v2/food/gastropub_", "suffix": ".png"}}], "chains": [], "closed_bucket": "LikelyOpen", "distance": 353, "geocodes": {"main": {"latitude": 55.865596, "longitude": -4.283827}, "roof": {"latitude": 55.865596, "longitude": -4.283827}}, "link": "/v3/places/4b658635f964a52041f32ae3", "location": {"address": "36a Kelvingrove St", "admin_region": "Scotland", "country": "GB", "formatted_address": "36a Kelvingrove St, Glasgow, Glasgow City, G3 7SA", "locality": "Glasgow", "post_town": "Glasgow", "postcode": "G3 7SA", "region": "Glasgow City"}, "name": "Big Slope", "related_places": {}, "timezone": "Europe/London"}, {"fsq_id": "524ec20911d2e6a1074094b5", "categories": [{"id": 13099, "name": "Chinese Restaurant", "short_name": "Chinese", "plural_name": "Chinese Restaurants", "icon": {"prefix": "https://ss3.4sqi.net/img/categories_v2/food/asian_", "suffix": ".png"}}], "chains": [], "closed_bucket": "LikelyOpen", "distance": 662, "geocodes": {"main": {"latitude": 55.869686, "longitude": -4.269372}, "roof": {"latitude": 55.869686, "longitude": -4.269372}}, "link": "/v3/places/524ec20911d2e6a1074094b5", "location": {"address": "175 St Georges Rd", "admin_region": "Scotland", "country": "GB", "cross_street": "", "formatted_address": "175 St Georges Rd, Glasgow, G3 6JD", "locality": "Glasgow", "post_town": "Glasgow", "postcode": "G3 6JD"}, "name": "Ka Ka Lok", "related_places": {}, "timezone": "Europe/London"}, {"fsq_id": "5660ab33498eb6bd97dbc68a", "categories": [{"id": 13003, "name": "Bar", "short_name": "Bar", "plural_name": "Bars", "icon": {"prefix": "https://ss3.4sqi.net/img/categories_v2/nightlife/pub_", "suffix": ".png"}}, {"id": 13337, "name": "Scottish Restaurant", "short_name": "Scottish", "plural_name": "Scottish Restaurants", "icon": {"prefix": "https://ss3.4sqi.net/img/categories_v2/food/default_", "suffix": ".png"}}, {"id": 13383, "name": "Steakhouse", "short_name": "Steakhouse", "plural_name": "Steakhouses", "icon": {"prefix": "https://ss3.4sqi.net/img/categories_v2/food/steakhouse_", "suffix": ".png"}}], "chains": [], "closed_bucket": "VeryLikelyOpen", "distance": 853, "geocodes": {"main": {"latitude": 55.865054, "longitude": -4.265621}, "roof": {"latitude": 55.865054, "longitude": -4.265621}}, "link": "/v3/places/5660ab33498eb6bd97dbc68a", "location": {"address": "244A Bath St", "admin_region": "Scotland", "country": "GB", "cross_street": "", "formatted_address": "244A Bath St, Glasgow, G2 4JW", "locality": "Glasgow", "post_town": "Glasgow", "postcode": "G2 4JW"}, "name": "Mini Grill", "related_places": {}, "timezone": "Europe/London"}, {"fsq_id": "4bc9e70dfb84c9b6ded81b3e", "categories": [{"id": 13352, "name": "Thai Restaurant", "short_name": "Thai", "plural_name": "Thai Restaurants", "icon": {"prefix": "https://ss3.4sqi.net/img/categories_v2/food/thai_", "suffix": ".png"}}], "chains": [], "closed_bucket": "LikelyOpen", "distance": 509, "geocodes": {"main": {"latitude": 55.865373, "longitude": -4.286799}, "roof": {"latitude": 55.865373, "longitude": -4.286799}}, "link": "/v3/places/4bc9e70dfb84c9b6ded81b3e", "location": {"address": "1191 Argyle St", "admin_region": "Scotland", "country": "GB", "cross_street": "", "formatted_address": "1191 Argyle St, Glasgow, Glasgow City, G3 8TQ", "locality": "Glasgow", "post_town": "Glasgow", "postcode": "G3 8TQ", "region": "Glasgow City"}, "name": "Thai Siam", "related_places": {}, "timezone": "Europe/London"}, {"fsq_id": "52409f4d11d224590bfca521", "categories": [{"id": 13003, "name": "Bar", "short_name": "Bar", "plural_name": "Bars", "icon": {"prefix": "https://ss3.4sqi.net/img/categories_v2/nightlife/pub_", "suffix": ".png"}}, {"id": 13034, "name": "Caf\u00e9", "short_name": "Caf\u00e9", "plural_name": "Caf\u00e9s", "icon": {"prefix": "https://ss3.4sqi.net/img/categories_v2/food/cafe_", "suffix": ".png"}}, {"id": 13065, "name": "Restaurant", "short_name": "Restaurant", "plural_name": "Restaurants", "icon": {"prefix": "https://ss3.4sqi.net/img/categories_v2/food/default_", "suffix": ".png"}}], "chains": [], "closed_bucket": "VeryLikelyOpen", "distance": 748, "geocodes": {"main": {"latitude": 55.87321, "longitude": -4.284238}, "roof": {"latitude": 55.87321, "longitude": -4.284238}}, "link": "/v3/places/52409f4d11d224590bfca521", "location": {"address": "52-54 Bank St", "admin_region": "Scotland", "country": "GB", "cross_street": "", "formatted_address": "52-54 Bank St, Glasgow, G12 8LZ", "locality": "Glasgow", "post_town": "Glasgow", "postcode": "G12 8LZ"}, "name": "Bank Street Bar Kitchen", "related_places": {}, "timezone": "Europe/London"}, {"fsq_id": "4bba231b1261d13a1f46ea98", "categories": [{"id": 13018, "name": "Pub", "short_name": "Pub", "plural_name": "Pubs", "icon": {"prefix": "https://ss3.4sqi.net/img/categories_v2/nightlife/pub_", "suffix": ".png"}}, {"id": 13065, "name": "Restaurant", "short_name": "Restaurant", "plural_name": "Restaurants", "icon": {"prefix": "https://ss3.4sqi.net/img/categories_v2/food/default_", "suffix": ".png"}}], "chains": [{"id": "07841cd9-3716-4bd6-8ebd-ad13070b3125", "name": "J D Wetherspoon"}], "closed_bucket": "Unsure", "distance": 783, "geocodes": {"main": {"latitude": 55.865686, "longitude": -4.266551}, "roof": {"latitude": 55.865686, "longitude": -4.266551}}, "link": "/v3/places/4bba231b1261d13a1f46ea98", "location": {"address": "351-363 Sauchiehall St", "admin_region": "Scotland", "country": "GB", "formatted_address": "351-363 Sauchiehall St, Glasgow, Glasgow City, G2 3HU", "locality": "Glasgow", "post_town": "Glasgow", "postcode": "G2 3HU", "region": "Glasgow City"}, "name": "The Henglers Circus", "related_places": {}, "timezone": "Europe/London"}, {"fsq_id": "53949cd6498e932c3f1aabba", "categories": [{"id": 13199, "name": "Indian Restaurant", "short_name": "Indian", "plural_name": "Indian Restaurants", "icon": {"prefix": "https://ss3.4sqi.net/img/categories_v2/food/indian_", "suffix": ".png"}}], "chains": [], "closed_bucket": "VeryLikelyOpen", "distance": 337, "geocodes": {"main": {"latitude": 55.866025, "longitude": -4.273536}, "roof": {"latitude": 55.866025, "longitude": -4.273536}}, "link": "/v3/places/53949cd6498e932c3f1aabba", "location": {"address": "573-581 Sauchiehall St", "admin_region": "Scotland", "country": "GB", "cross_street": "", "formatted_address": "573-581 Sauchiehall St, Glasgow, G3 7PQ", "locality": "Glasgow", "post_town": "Glasgow", "postcode": "G3 7PQ"}, "name": "Akbar's", "related_places": {}, "timezone": "Europe/London"}, {"fsq_id": "4ee28df99a521fcbefc9cf9a", "categories": [{"id": 13003, "name": "Bar", "short_name": "Bar", "plural_name": "Bars", "icon": {"prefix": "https://ss3.4sqi.net/img/categories_v2/nightlife/pub_", "suffix": ".png"}}], "chains": [], "closed_bucket": "LikelyOpen", "distance": 835, "geocodes": {"main": {"latitude": 55.866966, "longitude": -4.292106}, "roof": {"latitude": 55.866966, "longitude": -4.292106}}, "link": "/v3/places/4ee28df99a521fcbefc9cf9a", "location": {"address": "41 Old Dumbarton Rd", "admin_region": "Scotland", "country": "GB", "cross_street": "Yorkhill St", "formatted_address": "41 Old Dumbarton Rd (Yorkhill St), Glasgow, G3 8RD", "locality": "Glasgow", "post_town": "Glasgow", "postcode": "G3 8RD"}, "name": "Dukes Bar", "related_places": {}, "timezone": "Europe/London"}, {"fsq_id": "4c894ce9da5da1cdec563be9", "categories": [{"id": 13018, "name": "Pub", "short_name": "Pub", "plural_name": "Pubs", "icon": {"prefix": "https://ss3.4sqi.net/img/categories_v2/nightlife/pub_", "suffix": ".png"}}], "chains": [], "closed_bucket": "Unsure", "distance": 377, "geocodes": {"main": {"latitude": 55.863859, "longitude": -4.281039}, "roof": {"latitude": 55.863859, "longitude": -4.281039}}, "link": "/v3/places/4c894ce9da5da1cdec563be9", "location": {"address": "1004 Argyle St", "admin_region": "Scotland", "country": "GB", "formatted_address": "1004 Argyle St, Glasgow, Glasgow City, G3 8LZ", "locality": "Glasgow", "post_town": "Glasgow", "postcode": "G3 8LZ", "region": "Glasgow City"}, "name": "The Brass Monkey", "related_places": {}, "timezone": "Europe/London"}, {"fsq_id": "62a63961596a3f54a806d0c0", "categories": [{"id": 13003, "name": "Bar", "short_name": "Bar", "plural_name": "Bars", "icon": {"prefix": "https://ss3.4sqi.net/img/categories_v2/nightlife/pub_", "suffix": ".png"}}], "chains": [], "closed_bucket": "VeryLikelyOpen", "distance": 993, "geocodes": {"main": {"latitude": 55.875739, "longitude": -4.282388}, "roof": {"latitude": 55.875739, "longitude": -4.282388}}, "link": "/v3/places/62a63961596a3f54a806d0c0", "location": {"admin_region": "Scotland", "country": "GB", "cross_street": "", "formatted_address": "Glasgow, Glasgow City, G12 8EN", "locality": "Glasgow", "post_town": "Glasgow", "postcode": "G12 8EN", "region": "Glasgow City"}, "name": "The Bakehouse", "related_places": {}, "timezone": "Europe/London"}, {"fsq_id": "4b85775ff964a520cb5f31e3", "categories": [{"id": 13035, "name": "Coffee Shop", "short_name": "Coffee Shop", "plural_name": "Coffee Shops", "icon": {"prefix": "https://ss3.4sqi.net/img/categories_v2/food/coffeeshop_", "suffix": ".png"}}, {"id": 13065, "name": "Restaurant", "short_name": "Restaurant", "plural_name": "Restaurants", "icon": {"prefix": "https://ss3.4sqi.net/img/categories_v2/food/default_", "suffix": ".png"}}], "chains": [], "closed_bucket": "Unsure", "distance": 500, "geocodes": {"main": {"latitude": 55.871452, "longitude": -4.277208}, "roof": {"latitude": 55.871452, "longitude": -4.277208}}, "link": "/v3/places/4b85775ff964a520cb5f31e3", "location": {"address": "250-254 Woodlands Rd", "admin_region": "Scotland", "country": "GB", "cross_street": "", "formatted_address": "250-254 Woodlands Rd, Glasgow City, G3 6ND", "locality": "Glasgow City", "post_town": "Glasgow", "postcode": "G3 6ND", "region": "Glasgow City"}, "name": "iCafe", "related_places": {}, "timezone": "Europe/London"}, {"fsq_id": "4c1e04b7b489b7134caca9c7", "categories": [{"id": 13102, "name": "Cantonese Restaurant", "short_name": "Cantonese", "plural_name": "Cantonese Restaurants", "icon": {"prefix": "https://ss3.4sqi.net/img/categories_v2/food/asian_", "suffix": ".png"}}, {"id": 13106, "name": "Dim Sum Restaurant", "short_name": "Dim Sum", "plural_name": "Dim Sum Restaurants", "icon": {"prefix": "https://ss3.4sqi.net/img/categories_v2/food/dimsum_", "suffix": ".png"}}], "chains": [], "closed_bucket": "Unsure", "distance": 637, "geocodes": {"main": {"latitude": 55.865961, "longitude": -4.269118}, "roof": {"latitude": 55.865961, "longitude": -4.269118}}, "link": "/v3/places/4c1e04b7b489b7134caca9c7", "location": {"address": "417-419 Sauchiehall St", "admin_region": "Scotland", "country": "GB", "cross_street": "", "formatted_address": "417-419 Sauchiehall St, Glasgow, Glasgow City, G2 3LG", "locality": "Glasgow", "post_town": "Glasgow", "postcode": "G2 3LG", "region": "Glasgow City"}, "name": "Loon Fung", "related_places": {}, "timezone": "Europe/London"}, {"fsq_id": "4e27e9bc091a1ba18da85029", "categories": [{"id": 13013, "name": "Hotel Bar", "short_name": "Hotel Bar", "plural_name": "Hotel Bars", "icon": {"prefix": "https://ss3.4sqi.net/img/categories_v2/travel/hotel_bar_", "suffix": ".png"}}], "chains": [], "closed_bucket": "VeryLikelyOpen", "distance": 886, "geocodes": {"main": {"latitude": 55.861526, "longitude": -4.268386}, "roof": {"latitude": 55.861526, "longitude": -4.268386}}, "link": "/v3/places/4e27e9bc091a1ba18da85029", "location": {"address": "1 William St", "admin_region": "Scotland", "country": "GB", "formatted_address": "1 William St, Glasgow, Glasgow City, G3 8HT", "locality": "Glasgow", "post_town": "Glasgow", "postcode": "G3 8HT", "region": "Glasgow City"}, "name": "Hilton Glasgow - Executive Lounge", "related_places": {}, "timezone": "Europe/London"}, {"fsq_id": "5681a1c6498efe894071f9a7", "categories": [{"id": 13046, "name": "Ice Cream Parlor", "short_name": "Ice Cream", "plural_name": "Ice Cream Parlors", "icon": {"prefix": "https://ss3.4sqi.net/img/categories_v2/food/icecream_", "suffix": ".png"}}, {"id": 13065, "name": "Restaurant", "short_name": "Restaurant", "plural_name": "Restaurants", "icon": {"prefix": "https://ss3.4sqi.net/img/categories_v2/food/default_", "suffix": ".png"}}], "chains": [], "closed_bucket": "LikelyOpen", "distance": 938, "geocodes": {"main": {"latitude": 55.865362, "longitude": -4.263913}, "roof": {"latitude": 55.865362, "longitude": -4.263913}}, "link": "/v3/places/5681a1c6498efe894071f9a7", "location": {"address": "287 Sauchiehall St", "admin_region": "Scotland", "country": "GB", "cross_street": "", "formatted_address": "287 Sauchiehall St, Glasgow, G2 3HQ", "locality": "Glasgow", "post_town": "Glasgow", "postcode": "G2 3HQ"}, "name": "Deesserts UK", "related_places": {}, "timezone": "Europe/London"}, {"fsq_id": "530b2e55498e560107d891b4", "categories": [{"id": 13031, "name": "Burger Joint", "short_name": "Burgers", "plural_name": "Burger Joints", "icon": {"prefix": "https://ss3.4sqi.net/img/categories_v2/food/burger_", "suffix": ".png"}}], "chains": [], "closed_bucket": "VeryLikelyOpen", "distance": 934, "geocodes": {"main": {"latitude": 55.860216, "longitude": -4.287621}, "roof": {"latitude": 55.860216, "longitude": -4.287621}}, "link": "/v3/places/530b2e55498e560107d891b4", "location": {"address": "Queens Dock", "admin_region": "Scotland", "country": "GB", "cross_street": "", "formatted_address": "Queens Dock, Glasgow, Glasgow City, G3 8YW", "locality": "Glasgow", "post_town": "Glasgow", "postcode": "G3 8YW", "region": "Glasgow City"}, "name": "Clydebuilt Bar & Kitchen", "related_places": {}, "timezone": "Europe/London"}, {"fsq_id": "4b8421a8f964a520b72231e3", "categories": [{"id": 13035, "name": "Coffee Shop", "short_name": "Coffee Shop", "plural_name": "Coffee Shops", "icon": {"prefix": "https://ss3.4sqi.net/img/categories_v2/food/coffeeshop_", "suffix": ".png"}}, {"id": 13036, "name": "Tea Room", "short_name": "Tea Room", "plural_name": "Tea Rooms", "icon": {"prefix": "https://ss3.4sqi.net/img/categories_v2/food/tearoom_", "suffix": ".png"}}, {"id": 13065, "name": "Restaurant", "short_name": "Restaurant", "plural_name": "Restaurants", "icon": {"prefix": "https://ss3.4sqi.net/img/categories_v2/food/default_", "suffix": ".png"}}], "chains": [], "closed_bucket": "LikelyOpen", "distance": 427, "geocodes": {"main": {"latitude": 55.868208, "longitude": -4.272201}, "roof": {"latitude": 55.868208, "longitude": -4.272201}}, "link": "/v3/places/4b8421a8f964a520b72231e3", "location": {"address": "40-42 Woodlands Rd", "admin_region": "Scotland", "country": "GB", "cross_street": "at Baliol Ln", "formatted_address": "40-42 Woodlands Rd (at Baliol Ln), Glasgow, Glasgow City, G3 6UR", "locality": "Glasgow", "post_town": "Glasgow", "postcode": "G3 6UR", "region": "Glasgow City"}, "name": "The Coffee Pod", "related_places": {}, "timezone": "Europe/London"}, {"fsq_id": "4b5a3ffff964a52078b728e3", "categories": [{"id": 13018, "name": "Pub", "short_name": "Pub", "plural_name": "Pubs", "icon": {"prefix": "https://ss3.4sqi.net/img/categories_v2/nightlife/pub_", "suffix": ".png"}}, {"id": 13022, "name": "Sports Bar", "short_name": "Sports Bar", "plural_name": "Sports Bars", "icon": {"prefix": "https://ss3.4sqi.net/img/categories_v2/nightlife/sportsbar_", "suffix": ".png"}}, {"id": 13027, "name": "Bistro", "short_name": "Bistro", "plural_name": "Bistros", "icon": {"prefix": "https://ss3.4sqi.net/img/categories_v2/food/default_", "suffix": ".png"}}], "chains": [], "closed_bucket": "Unsure", "distance": 972, "geocodes": {"main": {"latitude": 55.875514, "longitude": -4.282626}, "roof": {"latitude": 55.875514, "longitude": -4.282626}}, "link": "/v3/places/4b5a3ffff964a52078b728e3", "location": {"address": "499 Great Western Rd", "admin_region": "Scotland", "country": "GB", "cross_street": "", "formatted_address": "499 Great Western Rd, Glasgow, Glasgow City, G12 8HN", "locality": "Glasgow", "post_town": "Glasgow", "postcode": "G12 8HN", "region": "Glasgow City"}, "name": "Coopers", "related_places": {}, "timezone": "Europe/London"}, {"fsq_id": "4bebee7362c0c928e5a5e2d4", "categories": [{"id": 13031, "name": "Burger Joint", "short_name": "Burgers", "plural_name": "Burger Joints", "icon": {"prefix": "https://ss3.4sqi.net/img/categories_v2/food/burger_", "suffix": ".png"}}, {"id": 13145, "name": "Fast Food Restaurant", "short_name": "Fast Food", "plural_name": "Fast Food Restaurants", "icon": {"prefix": "https://ss3.4sqi.net/img/categories_v2/food/fastfood_", "suffix": ".png"}}], "chains": [{"id": "ab4a3530-d68a-012e-5619-003048cad9da", "name": "McDonald's"}], "closed_bucket": "VeryLikelyOpen", "distance": 492, "geocodes": {"main": {"latitude": 55.862645, "longitude": -4.280161}, "roof": {"latitude": 55.862645, "longitude": -4.280161}}, "link": "/v3/places/4bebee7362c0c928e5a5e2d4", "location": {"address": "The Clydeway Centre Skypark", "admin_region": "Scotland", "country": "GB", "cross_street": "at Finnieston St.", "formatted_address": "The Clydeway Centre Skypark (at Finnieston St.), Glasgow, Glasgow City, G3 8JU", "locality": "Glasgow", "post_town": "Glasgow", "postcode": "G3 8JU", "region": "Glasgow City"}, "name": "McDonald's", "related_places": {}, "timezone": "Europe/London"}, {"fsq_id": "5db0acc82e18280007e9dd9b", "categories": [{"id": 13031, "name": "Burger Joint", "short_name": "Burgers", "plural_name": "Burger Joints", "icon": {"prefix": "https://ss3.4sqi.net/img/categories_v2/food/burger_", "suffix": ".png"}}], "chains": [], "closed_bucket": "LikelyOpen", "distance": 382, "geocodes": {"main": {"latitude": 55.869794, "longitude": -4.274878}, "roof": {"latitude": 55.869794, "longitude": -4.274878}}, "link": "/v3/places/5db0acc82e18280007e9dd9b", "location": {"address": "152 Woodlands Rd", "admin_region": "Scotland", "country": "GB", "cross_street": "", "formatted_address": "152 Woodlands Rd, Glasgow, Glasgow City, G3 6LF", "locality": "Glasgow", "post_town": "Glasgow", "postcode": "G3 6LF", "region": "Glasgow City"}, "name": "El Perro Negro Woodlands", "related_places": {}, "timezone": "Europe/London"}], "context": {"geo_bounds": {"circle": {"center": {"latitude": 55.86698, "longitude": -4.278874}, "radius": 1000}}}}