{"results": [{"fsq_id": "4e1c4c481fc714dc5c3143ed", "categories": [{"id": 13006, "name": "Beer Bar", "short_name": "Beer Bar", "plural_name": "Beer Bars", "icon": {"prefix": "https://ss3.4sqi.net/img/categories_v2/nightlife/pub_", "suffix": ".png"}}, {"id": 13031, "name": "Burger Joint", "short_name": "Burgers", "plural_name": "Burger Joints", "icon": {"prefix": "https://ss3.4sqi.net/img/categories_v2/food/burger_", "suffix": ".png"}}], "chains": [], "closed_bucket": "Unsure", "distance": 460, "geocodes": {"main": {"latitude": 55.868325, "longitude": -4.292289}, "roof": {"latitude": 55.868325, "longitude": -4.292289}}, "link": "/v3/places/4e1c4c481fc714dc5c3143ed", "location": {"address": "1397 Argyle St", "admin_region": "Scotland", "country": "GB", "formatted_address": "1397 Argyle St, Glasgow, Glasgow City, G3 8AN", "locality": "Glasgow", "post_town": "Glasgow", "postcode": "G3 8AN", "region": "Glasgow City"}, "name": "BrewDog Glasgow", "related_places": {}, "timezone": "Europe/London"}, {"fsq_id": "4b7b007cf964a5205b4b2fe3", "categories": [{"id": 13199, "name": "Indian Restaurant", "short_name": "Indian", "plural_name": "Indian Restaurants", "icon": {"prefix": "https://ss3.4sqi.net/img/categories_v2/food/indian_", "suffix": ".png"}}], "chains": [], "closed_bucket": "Unsure", "distance": 392, "geocodes": {"main": {"latitude": 55.867287, "longitude": -4.2911}, "roof": {"latitude": 55.867287, "longitude": -4.2911}}, "link": "/v3/places/4b7b007cf964a5205b4b2fe3", "location": {"address": "1355 Argyle St", "admin_region": "Scotland", "country": "GB", "formatted_address": "1355 Argyle St, Glasgow, Glasgow City, G3 8AD", "locality": "Glasgow", "post_town": "Glasgow", "postcode": "G3 8AD", "region": "Glasgow City"}, "name": "Mother India's Cafe", "related_places": {}, "timezone": "Europe/London"}, {"fsq_id": "536e0497498effee047e1ab2", "categories": [{"id": 13065, "name": "Restaurant", "short_name": "Restaurant", "plural_name": "Restaurants", "icon": {"prefix": "https://ss3.4sqi.net/img/categories_v2/food/default_", "suffix": ".png"}}], "chains": [], "closed_bucket": "Unsure", "distance": 535, "geocodes": {"main": {"latitude": 55.865754, "longitude": -4.284743}, "roof": {"latitude": 55.865754, "longitude": -4.284743}}, "link": "/v3/places/536e0497498effee047e1ab2", "location": {"address": "920 Sauchiehall St", "admin_region": "Scotland", "country": "GB", "cross_street": "", "formatted_address": "920 Sauchiehall St, Glasgow, G3 7TF", "locality": "Glasgow", "post_town": "Glasgow", "postcode": "G3 7TF"}, "name": "Ox and Finch", "related_places": {}, "timezone": "Europe/London"}, {"fsq_id": "4b687ef1f964a520237c2be3", "categories": [{"id": 13024, "name": "Whisky Bar", "short_name": "Whisky Bar", "plural_name": "Whisky Bars", "icon": {"prefix": "https://ss3.4sqi.net/img/categories_v2/nightlife/whiskey_", "suffix": ".png"}}], "chains": [], "closed_bucket": "Unsure", "distance": 508, "geocodes": {"main": {"latitude": 55.864838, "longitude": -4.2851}, "roof": {"latitude": 55.864838, "longitude": -4.2851}}, "link": "/v3/places/4b687ef1f964a520237c2be3", "location": {"address": "1147 Argyle St", "admin_region": "Scotland", "country": "GB", "cross_street": "Corunna St", "formatted_address": "1147 Argyle St (Corunna St), Glasgow, Glasgow City, G3 8TB", "locality": "Glasgow", "post_town": "Glasgow", "postcode": "G3 8TB", "region": "Glasgow City"}, "name": "The Ben Nevis", "related_places": {}, "timezone": "Europe/London"}, {"fsq_id": "4bc2003eabf49521bdbfc193", "categories": [{"id": 13025, "name": "Wine Bar", "short_name": "Wine Bar", "plural_name": "Wine Bars", "icon": {"prefix": "https://ss3.4sqi.net/img/categories_v2/food/winery_", "suffix": ".png"}}, {"id": 13383, "name": "Steakhouse", "short_name": "Steakhouse", "plural_name": "Steakhouses", "icon": {"prefix": "https://ss3.4sqi.net/img/categories_v2/food/steakhouse_", "suffix": ".png"}}], "chains": [], "closed_bucket": "Unsure", "distance": 397, "geocodes": {"main": {"latitude": 55.866819, "longitude": -4.289157}, "roof": {"latitude": 55.866819, "longitude": -4.289157}}, "link": "/v3/places/4bc2003eabf49521bdbfc193", "location": {"address": "1055 Sauchiehall St", "admin_region": "Scotland", "country": "GB", "formatted_address": "1055 Sauchiehall St, Glasgow, Glasgow City, G3 7UD", "locality": "Glasgow", "post_town": "Glasgow", "postcode": "G3 7UD", "region": "Glasgow City"}, "name": "The Butchershop Bar & Grill", "related_places": {}, "timezone": "Europe/London"}, {"fsq_id": "4c8530ab74d7b60cac4999d8", "categories": [{"id": 13199, "name": "Indian Restaurant", "short_name": "Indian", "plural_name": "Indian Restaurants", "icon": {"prefix": "https://ss3.4sqi.net/img/categories_v2/food/indian_", "suffix": ".png"}}], "chains": [], "closed_bucket": "Unsure", "distance": 576, "geocodes": {"main": {"latitude": 55.865238, "longitude": -4.28364}, "roof": {"latitude": 55.865238, "longitude": -4.28364}}, "link": "/v3/places/4c8530ab74d7b60cac4999d8", "location": {"address": "28 Westminster Terrace", "admin_region": "Scotland", "country": "GB", "formatted_address": "28 Westminster Terrace, Glasgow, Glasgow City, G3 7RU", "locality": "Glasgow", "post_town": "Glasgow", "postcode": "G3 7RU", "region": "Glasgow City"}, "name": "Mother India", "related_places": {}, "timezone": "Europe/London"}, {"fsq_id": "56752941498ef438347e5c5e", "categories": [{"id": 13002, "name": "Bakery", "short_name": "Bakery", "plural_name": "Bakeries", "icon": {"prefix": "https://ss3.4sqi.net/img/categories_v2/food/bakery_", "suffix": ".png"}}, {"id": 13035, "name": "Coffee Shop", "short_name": "Coffee Shop", "plural_name": "Coffee Shops", "icon": {"prefix": "https://ss3.4sqi.net/img/categories_v2/food/coffeeshop_", "suffix": ".png"}}, {"id": 13145, "name": "Fast Food Restaurant", "short_name": "Fast Food", "plural_name": "Fast Food Restaurants", "icon": {"prefix": "https://ss3.4sqi.net/img/categories_v2/food/fastfood_", "suffix": ".png"}}], "chains": [], "closed_bucket": "LikelyOpen", "distance": 341, "geocodes": {"main": {"latitude": 55.86693, "longitude": -4.291825}, "roof": {"latitude": 55.86693, "longitude": -4.291825}}, "link": "/v3/places/56752941498ef438347e5c5e", "location": {"address": "27 Old Dumbarton Rd", "admin_region": "Scotland", "country": "GB", "cross_street": "", "formatted_address": "27 Old Dumbarton Rd, Glasgow, Glasgow City, G3 8RD", "locality": "Glasgow", "post_town": "Glasgow", "postcode": "G3 8RD", "region": "Glasgow City"}, "name": "Tantrum Doughnuts", "related_places": {}, "timezone": "Europe/London"}, {"fsq_id": "4c263d74b012b7135fd90893", "categories": [{"id": 13002, "name": "Bakery", "short_name": "Bakery", "plural_name": "Bakeries", "icon": {"prefix": "https://ss3.4sqi.net/img/categories_v2/food/bakery_", "suffix": ".png"}}, {"id": 13036, "name": "Tea Room", "short_name": "Tea Room", "plural_name": "Tea Rooms", "icon": {"prefix": "https://ss3.4sqi.net/img/categories_v2/food/tearoom_", "suffix": ".png"}}, {"id": 13065, "name": "Restaurant", "short_name": "Restaurant", "plural_name": "Restaurants", "icon": {"prefix": "https://ss3.4sqi.net/img/categories_v2/food/default_", "suffix": ".png"}}], "chains": [], "closed_bucket": "LikelyOpen", "distance": 592, "geocodes": {"main": {"latitude": 55.864291, "longitude": -4.283611}, "roof": {"latitude": 55.864291, "longitude": -4.283611}}, "link": "/v3/places/4c263d74b012b7135fd90893", "location": {"address": "1103 Argyle St", "address_extended": "Unit 8", "admin_region": "Scotland", "country": "GB", "cross_street": "Argyle Court", "formatted_address": "1103 Argyle St (Argyle Court), Glasgow, G3 8ND", "locality": "Glasgow", "post_town": "Glasgow", "postcode": "G3 8ND"}, "name": "The Hidden Lane Tearoom", "related_places": {"children": [{"fsq_id": "6177c84b1b7e0864e20470d8", "categories": [{"id": 11124, "name": "Office", "short_name": "Office", "plural_name": "Offices", "icon": {"prefix": "https://ss3.4sqi.net/img/categories_v2/building/default_", "suffix": ".png"}}], "name": "Rakata Technology Limited"}]}, "timezone": "Europe/London"}, {"fsq_id": "5635275a498e569169b27825", "categories": [{"id": 13145, "name": "Fast Food Restaurant", "short_name": "Fast Food", "plural_name": "Fast Food Restaurants", "icon": {"prefix": "https://ss3.4sqi.net/img/categories_v2/food/fastfood_", "suffix": ".png"}}, {"id": 13289, "name": "Korean Restaurant", "short_name": "Korean", "plural_name": "Korean Restaurants", "icon": {"prefix": "https://ss3.4sqi.net/img/categories_v2/food/korean_", "suffix": ".png"}}], "chains": [], "closed_bucket": "Unsure", "distance": 905, "geocodes": {"main": {"latitude": 55.871878, "longitude": -4.298324}, "roof": {"latitude": 55.871878, "longitude": -4.298324}}, "link": "/v3/places/5635275a498e569169b27825", "location": {"address": "14 Chancellor St", "admin_region": "Scotland", "country": "GB", "cross_street": "", "formatted_address": "14 Chancellor St, Glasgow, Glasgow City, G11 5RQ", "locality": "Glasgow", "post_town": "Glasgow", "postcode": "G11 5RQ", "region": "Glasgow City"}, "name": "Kimchi Cult", "related_places": {}, "timezone": "Europe/London"}, {"fsq_id": "523f5bd411d202b54c76c7c3", "categories": [{"id": 13337, "name": "Scottish Restaurant", "short_name": "Scottish", "plural_name": "Scottish Restaurants", "icon": {"prefix": "https://ss3.4sqi.net/img/categories_v2/food/default_", "suffix": ".png"}}], "chains": [], "closed_bucket": "VeryLikelyOpen", "distance": 496, "geocodes": {"drop_off": {"latitude": 55.865039, "longitude": -4.285229}, "main": {"latitude": 55.864881, "longitude": -4.285277}, "roof": {"latitude": 55.864881, "longitude": -4.285277}}, "link": "/v3/places/523f5bd411d202b54c76c7c3", "location": {"address": "1155 Argyle St", "admin_region": "Scotland", "country": "GB", "cross_street": "", "formatted_address": "1155 Argyle St, Glasgow, G3 8TB", "locality": "Glasgow", "post_town": "Glasgow", "postcode": "G3 8TB"}, "name": "The Gannet", "related_places": {}, "timezone": "Europe/London"}, {"fsq_id": "4b65dd17f964a520ac042be3", "categories": [{"id": 13009, "name": "Cocktail Bar", "short_name": "Cocktail", "plural_name": "Cocktail Bars", "icon": {"prefix": "https://ss3.4sqi.net/img/categories_v2/nightlife/cocktails_", "suffix": ".png"}}, {"id": 13057, "name": "Gastropub", "short_name": "Gastropub", "plural_name": "Gastropubs", "icon": {"prefix": "https://ss3.4sqi.net/img/categories_v2/food/gastropub_", "suffix": ".png"}}], "chains": [], "closed_bucket": "Unsure", "distance": 716, "geocodes": {"main": {"latitude": 55.864078, "longitude": -4.281817}, "roof": {"latitude": 55.864078, "longitude": -4.281817}}, "link": "/v3/places/4b65dd17f964a520ac042be3", "location": {"address": "1008 Argyle St", "admin_region": "Scotland", "country": "GB", "cross_street": "", "formatted_address": "1008 Argyle St, Glasgow, Glasgow City, G3 8LX", "locality": "Glasgow", "post_town": "Glasgow", "postcode": "G3 8LX", "region": "Glasgow City"}, "name": "Lebowskis", "related_places": {}, "timezone": "Europe/London"}, {"fsq_id": "50d20bc9e4b029fc6804c7a9", "categories": [{"id": 13003, "name": "Bar", "short_name": "Bar", "plural_name": "Bars", "icon": {"prefix": "https://ss3.4sqi.net/img/categories_v2/nightlife/pub_", "suffix": ".png"}}, {"id": 13065, "name": "Restaurant", "short_name": "Restaurant", "plural_name": "Restaurants", "icon": {"prefix": "https://ss3.4sqi.net/img/categories_v2/food/default_", "suffix": ".png"}}], "chains": [], "closed_bucket": "Unsure", "distance": 932, "geocodes": {"main": {"latitude": 55.871394, "longitude": -4.300342}, "roof": {"latitude": 55.871394, "longitude": -4.300342}}, "link": "/v3/places/50d20bc9e4b029fc6804c7a9", "location": {"address": "16 Dowanhill St", "admin_region": "Scotland", "country": "GB", "cross_street": "Dalcross Street", "formatted_address": "16 Dowanhill St (Dalcross Street), Glasgow, G11 5QS", "locality": "Glasgow", "post_town": "Glasgow", "postcode": "G11 5QS"}, "name": "The Sparkle Horse", "related_places": {}, "timezone": "Europe/London"}, {"fsq_id": "4c125afbb7b9c9284698a737", "categories": [{"id": 13018, "name": "Pub", "short_name": "Pub", "plural_name": "Pubs", "icon": {"prefix": "https://ss3.4sqi.net/img/categories_v2/nightlife/pub_", "suffix": ".png"}}, {"id": 13049, "name": "Diner", "short_name": "Diner", "plural_name": "Diners", "icon": {"prefix": "https://ss3.4sqi.net/img/categories_v2/food/diner_", "suffix": ".png"}}], "chains": [], "closed_bucket": "VeryLikelyOpen", "distance": 349, "geocodes": {"main": {"latitude": 55.866412, "longitude": -4.288899}, "roof": {"latitude": 55.866412, "longitude": -4.288899}}, "link": "/v3/places/4c125afbb7b9c9284698a737", "location": {"address": "1256 Argyle St", "admin_region": "Scotland", "country": "GB", "cross_street": "West End", "formatted_address": "1256 Argyle St (West End), Glasgow, Glasgow City, G3 8TJ", "locality": "Glasgow", "post_town": "Glasgow", "postcode": "G3 8TJ", "region": "Glasgow City"}, "name": "Islay Inn", "related_places": {}, "timezone": "Europe/London"}, {"fsq_id": "4c582eed7613b713957b91ea", "categories": [{"id": 13034, "name": "Caf\u00e9", "short_name": "Caf\u00e9", "plural_name": "Caf\u00e9s", "icon": {"prefix": "https://ss3.4sqi.net/img/categories_v2/food/cafe_", "suffix": ".png"}}, {"id": 13035, "name": "Coffee Shop", "short_name": "Coffee Shop", "plural_name": "Coffee Shops", "icon": {"prefix": "https://ss3.4sqi.net/img/categories_v2/food/coffeeshop_", "suffix": ".png"}}, {"id": 13065, "name": "Restaurant", "short_name": "Restaurant", "plural_name": "Restaurants", "icon": {"prefix": "https://ss3.4sqi.net/img/categories_v2/food/default_", "suffix": ".png"}}], "chains": [], "closed_bucket": "VeryLikelyOpen", "distance": 855, "geocodes": {"main": {"latitude": 55.866964, "longitude": -4.280154}, "roof": {"latitude": 55.866964, "longitude": -4.280154}}, "link": "/v3/places/4c582eed7613b713957b91ea", "location": {"address": "Kelvingrove Park", "admin_region": "Scotland", "country": "GB", "cross_street": "at North Claremont Street", "formatted_address": "Kelvingrove Park (at North Claremont Street), Glasgow, Glasgow City, G3 7LH", "locality": "Glasgow", "post_town": "Glasgow", "postcode": "G3 7LH", "region": "Glasgow City"}, "name": "An Clachan Cafe", "related_places": {}, "timezone": "Europe/London"}, {"fsq_id": "4b597d4bf964a520f48928e3", "categories": [{"id": 13049, "name": "Diner", "short_name": "Diner", "plural_name": "Diners", "icon": {"prefix": "https://ss3.4sqi.net/img/categories_v2/food/diner_", "suffix": ".png"}}, {"id": 13337, "name": "Scottish Restaurant", "short_name": "Scottish", "plural_name": "Scottish Restaurants", "icon": {"prefix": "https://ss3.4sqi.net/img/categories_v2/food/default_", "suffix": ".png"}}], "chains": [], "closed_bucket": "Unsure", "distance": 581, "geocodes": {"main": {"latitude": 55.865602, "longitude": -4.283722}, "roof": {"latitude": 55.865602, "longitude": -4.283722}}, "link": "/v3/places/4b597d4bf964a520f48928e3", "location": {"address": "36 Kelvingrove St", "admin_region": "Scotland", "country": "GB", "formatted_address": "36 Kelvingrove St, Kelvingrove Park, Glasgow City, G3 7RZ", "locality": "Kelvingrove Park", "post_town": "Glasgow", "postcode": "G3 7RZ", "region": "Glasgow City"}, "name": "The Sisters", "related_places": {}, "timezone": "Europe/London"}, {"fsq_id": "4d0263ce3fd4224b72abb677", "categories": [{"id": 13018, "name": "Pub", "short_name": "Pub", "plural_name": "Pubs", "icon": {"prefix": "https://ss3.4sqi.net/img/categories_v2/nightlife/pub_", "suffix": ".png"}}], "chains": [], "closed_bucket": "Unsure", "distance": 793, "geocodes": {"drop_off": {"latitude": 55.870369, "longitude": -4.29944}, "front_door": {"latitude": 55.870348, "longitude": -4.299355}, "main": {"latitude": 55.870348, "longitude": -4.299355}, "roof": {"latitude": 55.870338, "longitude": -4.299468}}, "link": "/v3/places/4d0263ce3fd4224b72abb677", "location": {"address": "141 Dumbarton Rd", "admin_region": "Scotland", "country": "GB", "cross_street": "Byres Road", "formatted_address": "141 Dumbarton Rd (Byres Road), Glasgow, Glasgow City, G11 6PR", "locality": "Glasgow", "post_town": "Glasgow", "postcode": "G11 6PR", "region": "Glasgow City"}, "name": "Three Judges", "related_places": {}, "timezone": "Europe/London"}, {"fsq_id": "4b658635f964a52041f32ae3", "categories": [{"id": 13018, "name": "Pub", "short_name": "Pub", "plural_name": "Pubs", "icon": {"prefix": "https://ss3.4sqi.net/img/categories_v2/nightlife/pub_", "suffix": ".png"}}, {"id": 13025, "name": "Wine Bar", "short_name": "Wine Bar", "plural_name": "Wine Bars", "icon": {"prefix": "https://ss3.4sqi.net/img/categories_v2/food/winery_", "suffix": ".png"}}, {"id": 13057, "name": "Gastropub", "short_name": "Gastropub", "plural_name": "Gastropubs", "icon": {"prefix": "https://ss3.4sqi.net/img/categories_v2/food/gastropub_", "suffix": ".png"}}], "chains": [], "closed_bucket": "LikelyOpen", "distance": 584, "geocodes": {"main": {"latitude": 55.865596, "longitude": -4.283827}, "roof": {"latitude": 55.865596, "longitude": -4.283827}}, "link": "/v3/places/4b658635f964a52041f32ae3", "location": {"address": "36a Kelvingrove St", "admin_region": "Scotland", "country": "GB", "formatted_address": "36a Kelvingrove St, Glasgow, Glasgow City, G3 7SA", "locality": "Glasgow", "post_town": "Glasgow", "postcode": "G3 7SA", "region": "Glasgow City"}, "name": "Big Slope", "related_places": {}, "timezone": "Europe/London"}, {"fsq_id": "57cf101c498e00f91f9e64cc", "categories": [{"id": 13006, "name": "Beer Bar", "short_name": "Beer Bar", "plural_name": "Beer Bars", "icon": {"prefix": "https://ss3.4sqi.net/img/categories_v2/nightlife/pub_", "suffix": ".png"}}, {"id": 13018, "name": "Pub", "short_name": "Pub", "plural_name": "Pubs", "icon": {"prefix": "https://ss3.4sqi.net/img/categories_v2/nightlife/pub_", "suffix": ".png"}}, {"id": 13065, "name": "Restaurant", "short_name": "Restaurant", "plural_name": "Restaurants", "icon": {"prefix": "https://ss3.4sqi.net/img/categories_v2/food/default_", "suffix": ".png"}}], "chains": [], "closed_bucket": "LikelyOpen", "distance": 870, "geocodes": {"drop_off": {"latitude": 55.870744, "longitude": -4.300571}, "main": {"latitude": 55.870642, "longitude": -4.300599}, "roof": {"latitude": 55.870642, "longitude": -4.300599}}, "link": "/v3/places/57cf101c498e00f91f9e64cc", "location": {"address": "165 Dumbarton Rd", "admin_region": "Scotland", "country": "GB", "cross_street": "", "formatted_address": "165 Dumbarton Rd, Glasgow, G11 6AA", "locality": "Glasgow", "post_town": "Glasgow", "postcode": "G11 6AA"}, "name": "Bag O Nails", "related_places": {}, "timezone": "Europe/London"}, {"fsq_id": "4bc9e70dfb84c9b6ded81b3e", "categories": [{"id": 13352, "name": "Thai Restaurant", "short_name": "Thai", "plural_name": "Thai Restaurants", "icon": {"prefix": "https://ss3.4sqi.net/img/categories_v2/food/thai_", "suffix": ".png"}}], "chains": [], "closed_bucket": "LikelyOpen", "distance": 425, "geocodes": {"main": {"latitude": 55.865373, "longitude": -4.286799}, "roof": {"latitude": 55.865373, "longitude": -4.286799}}, "link": "/v3/places/4bc9e70dfb84c9b6ded81b3e", "location": {"address": "1191 Argyle St", "admin_region": "Scotland", "country": "GB", "cross_street": "", "formatted_address": "1191 Argyle St, Glasgow, Glasgow City, G3 8TQ", "locality": "Glasgow", "post_town": "Glasgow", "postcode": "G3 8TQ", "region": "Glasgow City"}, "name": "Thai Siam", "related_places": {}, "timezone": "Europe/London"}, {"fsq_id": "4d876a92651041bd10349b30", "categories": [{"id": 13039, "name": "Deli", "short_name": "Deli", "plural_name": "Delis", "icon": {"prefix": "https://ss3.4sqi.net/img/categories_v2/food/deli_", "suffix": ".png"}}, {"id": 13145, "name": "Fast Food Restaurant", "short_name": "Fast Food", "plural_name": "Fast Food Restaurants", "icon": {"prefix": "https://ss3.4sqi.net/img/categories_v2/food/fastfood_", "suffix": ".png"}}, {"id": 13334, "name": "Sandwich Spot", "short_name": "Sandwich Spot", "plural_name": "Sandwich Spots", "icon": {"prefix": "https://ss3.4sqi.net/img/categories_v2/food/deli_", "suffix": ".png"}}], "chains": [{"id": "ab4bee40-d68a-012e-5619-003048cad9da", "name": "Subway"}], "closed_bucket": "VeryLikelyOpen", "distance": 868, "geocodes": {"main": {"latitude": 55.870824, "longitude": -4.300184}, "roof": {"latitude": 55.870824, "longitude": -4.300184}}, "link": "/v3/places/4d876a92651041bd10349b30", "location": {"address": "172 Dumbarton Rd", "admin_region": "Scotland", "country": "GB", "formatted_address": "172 Dumbarton Rd, Glasgow, G11 6XE", "locality": "Glasgow", "post_town": "Glasgow", "postcode": "G11 6XE"}, "name": "Subway", "related_places": {}, "timezone": "Europe/London"}, {"fsq_id": "4ee28df99a521fcbefc9cf9a", "categories": [{"id": 13003, "name": "Bar", "short_name": "Bar", "plural_name": "Bars", "icon": {"prefix": "https://ss3.4sqi.net/img/categories_v2/nightlife/pub_", "suffix": ".png"}}], "chains": [], "closed_bucket": "LikelyOpen", "distance": 333, "geocodes": {"main": {"latitude": 55.866966, "longitude": -4.292106}, "roof": {"latitude": 55.866966, "longitude": -4.292106}}, "link": "/v3/places/4ee28df99a521fcbefc9cf9a", "location": {"address": "41 Old Dumbarton Rd", "admin_region": "Scotland", "country": "GB", "cross_street": "Yorkhill St", "formatted_address": "41 Old Dumbarton Rd (Yorkhill St), Glasgow, G3 8RD", "locality": "Glasgow", "post_town": "Glasgow", "postcode": "G3 8RD"}, "name": "Dukes Bar", "related_places": {}, "timezone": "Europe/London"}, {"fsq_id": "4c894ce9da5da1cdec563be9", "categories": [{"id": 13018, "name": "Pub", "short_name": "Pub", "plural_name": "Pubs", "icon": {"prefix": "https://ss3.4sqi.net/img/categories_v2/nightlife/pub_", "suffix": ".png"}}], "chains": [], "closed_bucket": "Unsure", "distance": 732, "geocodes": {"main": {"latitude": 55.863859, "longitude": -4.281039}, "roof": {"latitude": 55.863859, "longitude": -4.281039}}, "link": "/v3/places/4c894ce9da5da1cdec563be9", "location": {"address": "1004 Argyle St", "admin_region": "Scotland", "country": "GB", "formatted_address": "1004 Argyle St, Glasgow, Glasgow City, G3 8LZ", "locality": "Glasgow", "post_town": "Glasgow", "postcode": "G3 8LZ", "region": "Glasgow City"}, "name": "The Brass Monkey", "related_places": {}, "timezone": "Europe/London"}, {"fsq_id": "530b2e55498e560107d891b4", "categories": [{"id": 13031, "name": "Burger Joint", "short_name": "Burgers", "plural_name": "Burger Joints", "icon": {"prefix": "https://ss3.4sqi.net/img/categories_v2/food/burger_", "suffix": ".png"}}], "chains": [], "closed_bucket": "VeryLikelyOpen", "distance": 552, "geocodes": {"main": {"latitude": 55.860216, "longitude": -4.287621}, "roof": {"latitude": 55.860216, "longitude": -4.287621}}, "link": "/v3/places/530b2e55498e560107d891b4", "location": {"address": "Queens Dock", "admin_region": "Scotland", "country": "GB", "cross_street": "", "formatted_address": "Queens Dock, Glasgow, Glasgow City, G3 8YW", "locality": "Glasgow", "post_town": "Glasgow", "postcode": "G3 8YW", "region": "Glasgow City"}, "name": "Clydebuilt Bar & Kitchen", "related_places": {}, "timezone": "Europe/London"}, {"fsq_id": "4c3a2d4f2c8020a120f58d00", "categories": [{"id": 13003, "name": "Bar", "short_name": "Bar", "plural_name": "Bars", "icon": {"prefix": "https://ss3.4sqi.net/img/categories_v2/nightlife/pub_", "suffix": ".png"}}], "chains": [], "closed_bucket": "VeryLikelyOpen", "distance": 708, "geocodes": {"main": {"latitude": 55.870161, "longitude": -4.297043}, "roof": {"latitude": 55.870161, "longitude": -4.297043}}, "link": "/v3/places/4c3a2d4f2c8020a120f58d00", "location": {"address": "5-13 Thurso St", "country": "GB", "cross_street": "", "formatted_address": "5-13 Thurso St, Glasgow, Glasgow City", "locality": "Glasgow", "post_town": "Glasgow", "region": "Glasgow City"}, "name": "Gallus", "related_places": {}, "timezone": "Europe/London"}, {"fsq_id": "4bebee7362c0c928e5a5e2d4", "categories": [{"id": 13031, "name": "Burger Joint", "short_name": "Burgers", "plural_name": "Burger Joints", "icon": {"prefix": "https://ss3.4sqi.net/img/categories_v2/food/burger_", "suffix": ".png"}}, {"id": 13145, "name": "Fast Food Restaurant", "short_name": "Fast Food", "plural_name": "Fast Food Restaurants", "icon": {"prefix": "https://ss3.4sqi.net/img/categories_v2/food/fastfood_", "suffix": ".png"}}], "chains": [{"id": "ab4a3530-d68a-012e-5619-003048cad9da", "name": "McDonald's"}], "closed_bucket": "VeryLikelyOpen", "distance": 816, "geocodes": {"main": {"latitude": 55.862645, "longitude": -4.280161}, "roof": {"latitude": 55.862645, "longitude": -4.280161}}, "link": "/v3/places/4bebee7362c0c928e5a5e2d4", "location": {"address": "The Clydeway Centre Skypark", "admin_region": "Scotland", "country": "GB", "cross_street": "at Finnieston St.", "formatted_address": "The Clydeway Centre Skypark (at Finnieston St.), Glasgow, Glasgow City, G3 8JU", "locality": "Glasgow", "post_town": "Glasgow", "postcode": "G3 8JU", "region": "Glasgow City"}, "name": "McDonald's", "related_places": {}, "timezone": "Europe/London"}, {"fsq_id": "4beae92eb3352d7f29c655d2", "categories": [{"id": 13018, "name": "Pub", "short_name": "Pub", "plural_name": "Pubs", "icon": {"prefix": "https://ss3.4sqi.net/img/categories_v2/nightlife/pub_", "suffix": ".png"}}], "chains": [], "closed_bucket": "VeryLikelyOpen", "distance": 329, "geocodes": {"main": {"latitude": 55.862135, "longitude": -4.289082}}, "link": "/v3/places/4beae92eb3352d7f29c655d2", "location": {"country": "GB", "formatted_address": ""}, "name": "Culcreuch Castle Bar and Dungeon", "related_places": {"children": [{"fsq_id": "5b5387c66adbf5002ce6f2fc", "categories": [{"id": 11039, "name": "Event Space", "short_name": "Event Space", "plural_name": "Event Spaces", "icon": {"prefix": "https://ss3.4sqi.net/img/categories_v2/building/eventspace_", "suffix": ".png"}}], "name": "Galbraith Hall"}]}, "timezone": "Europe/London"}, {"fsq_id": "5b8002af234724002c324dec", "categories": [{"id": 13003, "name": "Bar", "short_name": "Bar", "plural_name": "Bars", "icon": {"prefix": "https://ss3.4sqi.net/img/categories_v2/nightlife/pub_", "suffix": ".png"}}, {"id": 13065, "name": "Restaurant", "short_name": "Restaurant", "plural_name": "Restaurants", "icon": {"prefix": "https://ss3.4sqi.net/img/categories_v2/food/default_", "suffix": ".png"}}], "chains": [], "closed_bucket": "LikelyOpen", "distance": 332, "geocodes": {"drop_off": {"latitude": 55.867273, "longitude": -4.292991}, "main": {"latitude": 55.867125, "longitude": -4.293022}, "roof": {"latitude": 55.867125, "longitude": -4.293022}}, "link": "/v3/places/5b8002af234724002c324dec", "location": {"address": "67 Old Dumbarton Rd", "admin_region": "Scotland", "country": "GB", "cross_street": "", "formatted_address": "67 Old Dumbarton Rd, Glasgow, G3 8RF", "locality": "Glasgow", "post_town": "Glasgow", "postcode": "G3 8RF"}, "name": "The Brunch Club", "related_places": {}, "timezone": "Europe/London"}, {"fsq_id": "5ca34bd7603d2a002c4f98e6", "categories": [{"id": 13377, "name": "Vegan and Vegetarian Restaurant", "short_name": "Vegan and Vegetarian Restaurant", "plural_name": "Vegan and Vegetarian Restaurants", "icon": {"prefix": "https://ss3.4sqi.net/img/categories_v2/food/vegetarian_", "suffix": ".png"}}], "chains": [], "closed_bucket": "LikelyOpen", "distance": 378, "geocodes": {"main": {"latitude": 55.865968, "longitude": -4.286537}, "roof": {"latitude": 55.865968, "longitude": -4.286537}}, "link": "/v3/places/5ca34bd7603d2a002c4f98e6", "location": {"address": "973 Sauchiehall St", "admin_region": "Scotland", "country": "GB", "cross_street": "", "formatted_address": "973 Sauchiehall St, Glasgow, Glasgow City, G3 7TQ", "locality": "Glasgow", "post_town": "Glasgow", "postcode": "G3 7TQ", "region": "Glasgow City"}, "name": "Soul Food Kitchen", "related_places": {"parent": {"fsq_id": "4bd109f220cd99603ba92e9e", "categories": [{"id": 19014, "name": "Hotel", "short_name": "Hotel", "plural_name": "Hotels", "icon": {"prefix": "https://ss3.4sqi.net/img/categories_v2/travel/hotel_", "suffix": ".png"}}], "name": "Argyll Hotel"}}, "timezone": "Europe/London"}, {"fsq_id": "5f33d4f6c551a43bd0797629", "categories": [{"id": 13035, "name": "Coffee Shop", "short_name": "Coffee Shop", "plural_name": "Coffee Shops", "icon": {"prefix": "https://ss3.4sqi.net/img/categories_v2/food/coffeeshop_", "suffix": ".png"}}, {"id": 13065, "name": "Restaurant", "short_name": "Restaurant", "plural_name": "Restaurants", "icon": {"prefix": "https://ss3.4sqi.net/img/categories_v2/food/default_", "suffix": ".png"}}], "chains": [], "closed_bucket": "Unsure", "distance": 394, "geocodes": {"main": {"latitude": 55.867384, "longitude": -4.291243}, "roof": {"latitude": 55.867384, "longitude": -4.291243}}, "link": "/v3/places/5f33d4f6c551a43bd0797629", "location": {"address": "1361 Argyle St", "admin_region": "Scotland", "country": "GB", "cross_street": "", "formatted_address": "1361 Argyle St, Glasgow, Glasgow City", "locality": "Glasgow", "post_town": "Glasgow", "region": "Glasgow City"}, "name": "Ronzio", "related_places": {}, "timezone": "Europe/London"}, {"fsq_id": "4bbe2e501416a59330c6f33c", "categories": [{"id": 13018, "name": "Pub", "short_name": "Pub", "plural_name": "Pubs", "icon": {"prefix": "https://ss3.4sqi.net/img/categories_v2/nightlife/pub_", "suffix": ".png"}}], "chains": [], "closed_bucket": "LikelyOpen", "distance": 454, "geocodes": {"main": {"latitude": 55.866162, "longitude": -4.286823}, "roof": {"latitude": 55.866162, "longitude": -4.286823}}, "link": "/v3/places/4bbe2e501416a59330c6f33c", "location": {"address": "979 Sauchiehall St", "admin_region": "Scotland", "country": "GB", "cross_street": "", "formatted_address": "979 Sauchiehall St, Glasgow, Glasgow City, G3 7TQ", "locality": "Glasgow", "post_town": "Glasgow", "postcode": "G3 7TQ", "region": "Glasgow City"}, "name": "Snaffle Bit Glasgow", "related_places": {}, "timezone": "Europe/London"}, {"fsq_id": "4be47330d4f7c9b6922b2420", "categories": [{"id": 13177, "name": "Greek Restaurant", "short_name": "Greek", "plural_name": "Greek Restaurants", "icon": {"prefix": "https://ss3.4sqi.net/img/categories_v2/food/greek_", "suffix": ".png"}}], "chains": [], "closed_bucket": "VeryLikelyOpen", "distance": 509, "geocodes": {"main": {"latitude": 55.865063, "longitude": -4.284862}, "roof": {"latitude": 55.865063, "longitude": -4.284862}}, "link": "/v3/places/4be47330d4f7c9b6922b2420", "location": {"address": "1116 Argyle St", "admin_region": "Scotland", "country": "GB", "cross_street": "", "formatted_address": "1116 Argyle St, Glasgow, Glasgow City, G3 8TD", "locality": "Glasgow", "post_town": "Glasgow", "postcode": "G3 8TD", "region": "Glasgow City"}, "name": "Athena Greek Taverna", "related_places": {}, "timezone": "Europe/London"}, {"fsq_id": "4ef9ea3393ad7cf2ec8ebab2", "categories": [{"id": 13034, "name": "Caf\u00e9", "short_name": "Caf\u00e9", "plural_name": "Caf\u00e9s", "icon": {"prefix": "https://ss3.4sqi.net/img/categories_v2/food/cafe_", "suffix": ".png"}}, {"id": 13065, "name": "Restaurant", "short_name": "Restaurant", "plural_name": "Restaurants", "icon": {"prefix": "https://ss3.4sqi.net/img/categories_v2/food/default_", "suffix": ".png"}}], "chains": [], "closed_bucket": "LikelyOpen", "distance": 520, "geocodes": {"main": {"latitude": 55.8685, "longitude": -4.290156}, "roof": {"latitude": 55.8685, "longitude": -4.290156}}, "link": "/v3/places/4ef9ea3393ad7cf2ec8ebab2", "location": {"address": "Kelvingrove Museum and Gallery", "admin_region": "Scotland", "country": "GB", "cross_street": "", "formatted_address": "Kelvingrove Museum and Gallery, Glasgow, Glasgow City, G3 8AG", "locality": "Glasgow", "post_town": "Glasgow", "postcode": "G3 8AG", "region": "Glasgow City"}, "name": "KG Caf\u00e9", "related_places": {"parent": {"fsq_id": "4ba647c4f964a520f04139e3", "categories": [{"id": 10004, "name": "Art Gallery", "short_name": "Art Gallery", "plural_name": "Art Galleries", "icon": {"prefix": "https://ss3.4sqi.net/img/categories_v2/arts_entertainment/artgallery_", "suffix": ".png"}}], "name": "Kelvingrove Art Gallery and Museum"}}, "timezone": "Europe/London"}, {"fsq_id": "5d07ac6522d490002c021c5e", "categories": [{"id": 13006, "name": "Beer Bar", "short_name": "Beer Bar", "plural_name": "Beer Bars", "icon": {"prefix": "https://ss3.4sqi.net/img/categories_v2/nightlife/pub_", "suffix": ".png"}}, {"id": 13068, "name": "American Restaurant", "short_name": "American", "plural_name": "American Restaurants", "icon": {"prefix": "https://ss3.4sqi.net/img/categories_v2/food/default_", "suffix": ".png"}}], "chains": [], "closed_bucket": "LikelyOpen", "distance": 637, "geocodes": {"main": {"latitude": 55.864303, "longitude": -4.28249}, "roof": {"latitude": 55.864303, "longitude": -4.28249}}, "link": "/v3/places/5d07ac6522d490002c021c5e", "location": {"address": "1038 Argyle St", "admin_region": "Scotland", "country": "GB", "cross_street": "", "formatted_address": "1038 Argyle St, Glasgow, Glasgow City, G3 8LX", "locality": "Glasgow", "post_town": "Glasgow", "postcode": "G3 8LX", "region": "Glasgow City"}, "name": "The Dirty Duchess", "related_places": {}, "timezone": "Europe/London"}, {"fsq_id": "52d99e9b498e5140a1fae25e", "categories": [{"id": 13003, "name": "Bar", "short_name": "Bar", "plural_name": "Bars", "icon": {"prefix": "https://ss3.4sqi.net/img/categories_v2/nightlife/pub_", "suffix": ".png"}}], "chains": [], "closed_bucket": "VeryLikelyOpen", "distance": 659, "geocodes": {"main": {"latitude": 55.859748, "longitude": -4.285679}, "roof": {"latitude": 55.859748, "longitude": -4.285679}}, "link": "/v3/places/52d99e9b498e5140a1fae25e", "location": {"country": "GB", "cross_street": "", "formatted_address": ""}, "name": "The Hydro Club", "related_places": {"parent": {"fsq_id": "4ecfe4e68b81b47395e67c15", "categories": [{"id": 10037, "name": "Concert Hall", "short_name": "Concert Hall", "plural_name": "Concert Halls", "icon": {"prefix": "https://ss3.4sqi.net/img/categories_v2/arts_entertainment/musicvenue_", "suffix": ".png"}}, {"id": 10039, "name": "Music Venue", "short_name": "Music Venue", "plural_name": "Music Venues", "icon": {"prefix": "https://ss3.4sqi.net/img/categories_v2/arts_entertainment/musicvenue_", "suffix": ".png"}}, {"id": 11039, "name": "Event Space", "short_name": "Event Space", "plural_name": "Event Spaces", "icon": {"prefix": "https://ss3.4sqi.net/img/categories_v2/building/eventspace_", "suffix": ".png"}}], "name": "The SSE Hydro"}}, "timezone": "Europe/London"}, {"fsq_id": "5e4e8b462b631a00083161d8", "categories": [{"id": 13309, "name": "Middle Eastern Restaurant", "short_name": "Middle Eastern", "plural_name": "Middle Eastern Restaurants", "icon": {"prefix": "https://ss3.4sqi.net/img/categories_v2/food/middleeastern_", "suffix": ".png"}}, {"id": 13356, "name": "Turkish Restaurant", "short_name": "Turkish", "plural_name": "Turkish Restaurants", "icon": {"prefix": "https://ss3.4sqi.net/img/categories_v2/food/turkish_", "suffix": ".png"}}], "chains": [], "closed_bucket": "LikelyOpen", "distance": 664, "geocodes": {"drop_off": {"latitude": 55.864113, "longitude": -4.282273}, "main": {"latitude": 55.864211, "longitude": -4.282242}, "roof": {"latitude": 55.864211, "longitude": -4.282242}}, "link": "/v3/places/5e4e8b462b631a00083161d8", "location": {"address": "1032 Argyle St", "admin_region": "Scotland", "country": "GB", "cross_street": "", "formatted_address": "1032 Argyle St, Glasgow, Glasgow City, G3 8LX", "locality": "Glasgow", "post_town": "Glasgow", "postcode": "G3 8LX", "region": "Glasgow City"}, "name": "Meze Meze", "related_places": {}, "timezone": "Europe/London"}, {"fsq_id": "beee60ef9bcb4210057922ab", "categories": [{"id": 13068, "name": "American Restaurant", "short_name": "American", "plural_name": "American Restaurants", "icon": {"prefix": "https://ss3.4sqi.net/img/categories_v2/food/default_", "suffix": ".png"}}], "chains": [], "closed_bucket": "LikelyOpen", "distance": 739, "geocodes": {"drop_off": {"latitude": 55.870178, "longitude": -4.298284}, "main": {"latitude": 55.870088, "longitude": -4.298303}, "roof": {"latitude": 55.870088, "longitude": -4.298303}}, "link": "/v3/places/beee60ef9bcb4210057922ab", "location": {"address": "102 Dumbarton Rd", "admin_region": "Scotland", "country": "GB", "formatted_address": "102 Dumbarton Rd, Glasgow, G11 6NX", "locality": "Glasgow", "post_town": "Glasgow", "postcode": "G11 6NX"}, "name": "Trideca Diner", "related_places": {}, "timezone": "Europe/London"}, {"fsq_id": "64a44a7aaf401651d63db2a8", "categories": [{"id": 13148, "name": "French Restaurant", "short_name": "French", "plural_name": "French Restaurants", "icon": {"prefix": "https://ss3.4sqi.net/img/categories_v2/food/french_", "suffix": ".png"}}, {"id": 13334, "name": "Sandwich Spot", "short_name": "Sandwich Spot", "plural_name": "Sandwich Spots", "icon": {"prefix": "https://ss3.4sqi.net/img/categories_v2/food/deli_", "suffix": ".png"}}], "chains": [], "closed_bucket": "Unsure", "distance": 849, "geocodes": {"main": {"latitude": 55.870989, "longitude": -4.299006}}, "link": "/v3/places/64a44a7aaf401651d63db2a8", "location": {"address": "21 Byres Road", "admin_region": "Scotland", "country": "GB", "cross_street": "", "formatted_address": "21 Byres Road, Glasgow, Glasgow City, G11 5RD", "locality": "Glasgow", "post_town": "Glasgow", "postcode": "G11 5RD", "region": "Glasgow City"}, "name": "Le Petit Coq", "related_places": {}, "timezone": "Europe/London"}, {"fsq_id": "0f8bda6b6c6448584631c039", "categories": [{"id": 13003, "name": "Bar", "short_name": "Bar", "plural_name": "Bars", "icon": {"prefix": "https://ss3.4sqi.net/img/categories_v2/nightlife/pub_", "suffix": ".png"}}], "chains": [], "closed_bucket": "LikelyOpen", "distance": 864, "geocodes": {"main": {"latitude": 55.870642, "longitude": -4.300599}, "roof": {"latitude": 55.870642, "longitude": -4.300599}}, "link": "/v3/places/0f8bda6b6c6448584631c039", "location": {"address": "163 Dumbarton Rd", "admin_region": "Scotland", "country": "GB", "formatted_address": "163 Dumbarton Rd, Glasgow, G11 6AA", "locality": "Glasgow", "post_town": "Glasgow", "postcode": "G11 6AA"}, "name": "Partick Tavern", "related_places": {}, "timezone": "Europe/London"}, {"fsq_id": "587a7c79668af7600aabed05", "categories": [{"id": 13034, "name": "Caf\u00e9", "short_name": "Caf\u00e9", "plural_name": "Caf\u00e9s", "icon": {"prefix": "https://ss3.4sqi.net/img/categories_v2/food/cafe_", "suffix": ".png"}}, {"id": 13065, "name": "Restaurant", "short_name": "Restaurant", "plural_name": "Restaurants", "icon": {"prefix": "https://ss3.4sqi.net/img/categories_v2/food/default_", "suffix": ".png"}}], "chains": [], "closed_bucket": "VeryLikelyOpen", "distance": 881, "geocodes": {"drop_off": {"latitude": 55.863047, "longitude": -4.278856}, "main": {"latitude": 55.863196, "longitude": -4.278811}, "roof": {"latitude": 55.863196, "longitude": -4.278811}}, "link": "/v3/places/587a7c79668af7600aabed05", "location": {"admin_region": "Scotland", "country": "GB", "cross_street": "", "formatted_address": "Glasgow, Glasgow City, G3 8JG", "locality": "Glasgow", "post_town": "Glasgow", "postcode": "G3 8JG", "region": "Glasgow City"}, "name": "Finnieston House", "related_places": {}, "timezone": "Europe/London"}, {"fsq_id": "522e6ffa61fc96df51d2d674", "categories": [{"id": 13065, "name": "Restaurant", "short_name": "Restaurant", "plural_name": "Restaurants", "icon": {"prefix": "https://ss3.4sqi.net/img/categories_v2/food/default_", "suffix": ".png"}}], "chains": [], "closed_bucket": "LikelyOpen", "distance": 892, "geocodes": {"drop_off": {"latitude": 55.858807, "longitude": -4.28199}, "main": {"latitude": 55.859011, "longitude": -4.281976}, "roof": {"latitude": 55.859011, "longitude": -4.281976}}, "link": "/v3/places/522e6ffa61fc96df51d2d674", "location": {"address": "28 Tunnel St", "admin_region": "Scotland", "country": "GB", "formatted_address": "28 Tunnel St, Glasgow, G3 8HL", "locality": "Glasgow", "post_town": "Glasgow", "postcode": "G3 8HL"}, "name": "Rotunda Bar and Diner", "related_places": {}, "timezone": "Europe/London"}, {"fsq_id": "4d83cc955e70224b157aff08", "categories": [{"id": 13145, "name": "Fast Food Restaurant", "short_name": "Fast Food", "plural_name": "Fast Food Restaurants", "icon": {"prefix": "https://ss3.4sqi.net/img/categories_v2/food/fastfood_", "suffix": ".png"}}], "chains": [], "closed_bucket": "VeryLikelyOpen", "distance": 895, "geocodes": {"main": {"latitude": 55.871544, "longitude": -4.297717}, "roof": {"latitude": 55.871544, "longitude": -4.297717}}, "link": "/v3/places/4d83cc955e70224b157aff08", "location": {"address": "Glasgow, Glasgow City", "admin_region": "Scotland", "country": "GB", "cross_street": "", "formatted_address": "Glasgow, Glasgow City, Glasgow, Glasgow City, G11 5HN", "locality": "Glasgow", "post_town": "Glasgow", "postcode": "G11 5HN", "region": "Glasgow City"}, "name": "University Takeaway", "related_places": {}, "timezone": "Europe/London"}, {"fsq_id": "4b858e11f964a520306531e3", "categories": [{"id": 13018, "name": "Pub", "short_name": "Pub", "plural_name": "Pubs", "icon": {"prefix": "https://ss3.4sqi.net/img/categories_v2/nightlife/pub_", "suffix": ".png"}}], "chains": [], "closed_bucket": "VeryLikelyOpen", "distance": 900, "geocodes": {"drop_off": {"latitude": 55.87181, "longitude": -4.297757}, "main": {"latitude": 55.871957, "longitude": -4.29787}, "roof": {"latitude": 55.871957, "longitude": -4.29787}}, "link": "/v3/places/4b858e11f964a520306531e3", "location": {"address": "71-77 Byres Rd", "admin_region": "Scotland", "country": "GB", "formatted_address": "71-77 Byres Rd, Glasgow, Glasgow City, G11 5HN", "locality": "Glasgow", "post_town": "Glasgow", "postcode": "G11 5HN", "region": "Glasgow City"}, "name": "Common Rooms", "related_places": {}, "timezone": "Europe/London"}, {"fsq_id": "5b099a55b399f7002cd7bb21", "categories": [{"id": 13003, "name": "Bar", "short_name": "Bar", "plural_name": "Bars", "icon": {"prefix": "https://ss3.4sqi.net/img/categories_v2/nightlife/pub_", "suffix": ".png"}}, {"id": 13065, "name": "Restaurant", "short_name": "Restaurant", "plural_name": "Restaurants", "icon": {"prefix": "https://ss3.4sqi.net/img/categories_v2/food/default_", "suffix": ".png"}}], "chains": [], "closed_bucket": "VeryLikelyOpen", "distance": 927, "geocodes": {"drop_off": {"latitude": 55.858101, "longitude": -4.282673}, "main": {"latitude": 55.85829, "longitude": -4.28262}, "roof": {"latitude": 55.85829, "longitude": -4.28262}}, "link": "/v3/places/5b099a55b399f7002cd7bb21", "location": {"address": "Finnieston Quay", "admin_region": "Scotland", "country": "GB", "cross_street": "", "formatted_address": "Finnieston Quay, Glasgow, Glasgow City, G3 8HN", "locality": "Glasgow", "post_town": "Glasgow", "postcode": "G3 8HN", "region": "Glasgow City"}, "name": "OUIBar + KTCHN", "related_places": {"parent": {"fsq_id": "5af167bc6adbf5002c4339d2", "categories": [{"id": 19014, "name": "Hotel", "short_name": "Hotel", "plural_name": "Hotels", "icon": {"prefix": "https://ss3.4sqi.net/img/categories_v2/travel/hotel_", "suffix": ".png"}}], "name": "Radisson RED Glasgow"}}, "timezone": "Europe/London"}, {"fsq_id": "53345752498e595f19747eb6", "categories": [{"id": 13099, "name": "Chinese Restaurant", "short_name": "Chinese", "plural_name": "Chinese Restaurants", "icon": {"prefix": "https://ss3.4sqi.net/img/categories_v2/food/asian_", "suffix": ".png"}}, {"id": 13145, "name": "Fast Food Restaurant", "short_name": "Fast Food", "plural_name": "Fast Food Restaurants", "icon": {"prefix": "https://ss3.4sqi.net/img/categories_v2/food/fastfood_", "suffix": ".png"}}], "chains": [], "closed_bucket": "Unsure", "distance": 938, "geocodes": {"drop_off": {"latitude": 55.872526, "longitude": -4.29684}, "main": {"latitude": 55.87229, "longitude": -4.296654}, "roof": {"latitude": 55.87229, "longitude": -4.296654}}, "link": "/v3/places/53345752498e595f19747eb6", "location": {"address": "101 Byers Rd", "country": "GB", "cross_street": "", "formatted_address": "101 Byers Rd, Glasgow, Glasgow City", "locality": "Glasgow", "post_town": "Glasgow", "region": "Glasgow City"}, "name": "HomeWok", "related_places": {}, "timezone": "Europe/London"}, {"fsq_id": "5979cf38747ecd2ae6a2fdac", "categories": [{"id": 13065, "name": "Restaurant", "short_name": "Restaurant", "plural_name": "Restaurants", "icon": {"prefix": "https://ss3.4sqi.net/img/categories_v2/food/default_", "suffix": ".png"}}], "chains": [], "closed_bucket": "LikelyOpen", "distance": 948, "geocodes": {"main": {"latitude": 55.857931, "longitude": -4.282433}, "roof": {"latitude": 55.857931, "longitude": -4.282433}}, "link": "/v3/places/5979cf38747ecd2ae6a2fdac", "location": {"address": "Finnieston Quay", "admin_region": "Scotland", "country": "GB", "cross_street": "", "formatted_address": "Finnieston Quay, Glasgow, Glasgow City, G3 8HN", "locality": "Glasgow", "post_town": "Glasgow", "postcode": "G3 8HN", "region": "Glasgow City"}, "name": "Recess", "related_places": {"parent": {"fsq_id": "4f3fcd07e4b06010fc18ad01", "categories": [{"id": 19014, "name": "Hotel", "short_name": "Hotel", "plural_name": "Hotels", "icon": {"prefix": "https://ss3.4sqi.net/img/categories_v2/travel/hotel_", "suffix": ".png"}}], "name": "Hilton Garden Inn Glasgow City Centre"}}, "timezone": "Europe/London"}, {"fsq_id": "5e6e66f7fc840000080fbf71", "categories": [{"id": 13272, "name": "Ramen Restaurant", "short_name": "Ramen", "plural_name": "Ramen Restaurants", "icon": {"prefix": "https://ss3.4sqi.net/img/categories_v2/food/ramen_", "suffix": ".png"}}], "chains": [], "closed_bucket": "Unsure", "distance": 1709, "geocodes": {"drop_off": {"latitude": 55.864939, "longitude": -4.284899}, "main": {"latitude": 55.865063, "longitude": -4.284862}, "roof": {"latitude": 55.865063, "longitude": -4.284862}}, "link": "/v3/places/5e6e66f7fc840000080fbf71", "location": {"address": "1126 Argyle St", "admin_region": "Scotland", "country": "GB", "cross_street": "", "formatted_address": "1126 Argyle St, Glasgow, Glasgow City, G3 8TD", "locality": "Glasgow", "post_town": "Glasgow", "postcode": "G3 8TD", "region": "Glasgow City"}, "name": "Ramen Dayo", "related_places": {}, "timezone": "Europe/London"}, {"fsq_id": "f1aa8682b6da458e3bd11f71", "categories": [{"id": 13003, "name": "Bar", "short_name": "Bar", "plural_name": "Bars", "icon": {"prefix": "https://ss3.4sqi.net/img/categories_v2/nightlife/pub_", "suffix": ".png"}}, {"id": 13065, "name": "Restaurant", "short_name": "Restaurant", "plural_name": "Restaurants", "icon": {"prefix": "https://ss3.4sqi.net/img/categories_v2/food/default_", "suffix": ".png"}}], "chains": [], "closed_bucket": "VeryLikelyOpen", "distance": 536, "geocodes": {"drop_off": {"latitude": 55.864832, "longitude": -4.284554}, "main": {"latitude": 55.864977, "longitude": -4.284509}, "roof": {"latitude": 55.864977, "longitude": -4.284509}}, "link": "/v3/places/f1aa8682b6da458e3bd11f71", "location": {"address": "1102-1106 Argyle St", "admin_region": "Scotland", "country": "GB", "formatted_address": "1102-1106 Argyle St, Glasgow, G3 8TD", "locality": "Glasgow", "post_town": "Glasgow", "postcode": "G3 8TD"}, "name": "Crescent", "related_places": {}}, {"fsq_id": "98cb5c30b16342e83e399438", "categories": [{"id": 13003, "name": "Bar", "short_name": "Bar", "plural_name": "Bars", "icon": {"prefix": "https://ss3.4sqi.net/img/categories_v2/nightlife/pub_", "suffix": ".png"}}], "chains": [], "closed_bucket": "LikelyOpen", "distance": 573, "geocodes": {"main": {"latitude": 55.864959, "longitude": -4.283912}, "roof": {"latitude": 55.864959, "longitude": -4.283912}}, "link": "/v3/places/98cb5c30b16342e83e399438", "location": {"address": "8 Kelvingrove St", "admin_region": "Scotland", "country": "GB", "formatted_address": "8 Kelvingrove St, Glasgow, G3 7RX", "locality": "Glasgow", "post_town": "Glasgow", "postcode": "G3 7RX"}, "name": "Grove Bar", "related_places": {}}, {"fsq_id": "780dc94e15334a3dcda10347", "categories": [{"id": 13035, "name": "Coffee Shop", "short_name": "Coffee Shop", "plural_name": "Coffee Shops", "icon": {"prefix": "https://ss3.4sqi.net/img/categories_v2/food/coffeeshop_", "suffix": ".png"}}, {"id": 13065, "name": "Restaurant", "short_name": "Restaurant", "plural_name": "Restaurants", "icon": {"prefix": "https://ss3.4sqi.net/img/categories_v2/food/default_", "suffix": ".png"}}], "chains": [], "closed_bucket": "LikelyOpen", "distance": 743, "geocodes": {"drop_off": {"latitude": 55.863731, "longitude": -4.281058}, "main": {"latitude": 55.863592, "longitude": -4.281101}, "roof": {"latitude": 55.863592, "longitude": -4.281101}}, "link": "/v3/places/780dc94e15334a3dcda10347", "location": {"address": "994 Argyle St", "admin_region": "Scotland", "country": "GB", "formatted_address": "994 Argyle St, Glasgow, G3 8LU", "locality": "Glasgow", "post_town": "Glasgow", "postcode": "G3 8LU"}, "name": "The Cran", "related_places": {}}], "context": {"geo_bounds": {"circle": {"center": {"latitude": 55.864135, "longitude": -4.292988}, "radius": 1000}}}}