{"results": [{"fsq_id": "4bcb2e8e511f952190e1b0c7", "categories": [{"id": 10000, "name": "Arts and Entertainment", "short_name": "Arts & Entertainment", "plural_name": "Arts and Entertainment", "icon": {"prefix": "https://ss3.4sqi.net/img/categories_v2/arts_entertainment/default_", "suffix": ".png"}}, {"id": 13018, "name": "Pub", "short_name": "Pub", "plural_name": "Pubs", "icon": {"prefix": "https://ss3.4sqi.net/img/categories_v2/nightlife/pub_", "suffix": ".png"}}, {"id": 13022, "name": "Sports Bar", "short_name": "Sports Bar", "plural_name": "Sports Bars", "icon": {"prefix": "https://ss3.4sqi.net/img/categories_v2/nightlife/sportsbar_", "suffix": ".png"}}], "chains": [], "closed_bucket": "Unsure", "distance": 529, "geocodes": {"main": {"latitude": 55.836841, "longitude": -4.269802}, "roof": {"latitude": 55.836841, "longitude": -4.269802}}, "link": "/v3/places/4bcb2e8e511f952190e1b0c7", "location": {"address": "720 Pollokshaws Rd", "admin_region": "Scotland", "country": "GB", "formatted_address": "720 Pollokshaws Rd, Glasgow, Glasgow City, G41 2AD", "locality": "Glasgow", "post_town": "Glasgow", "postcode": "G41 2AD", "region": "Glasgow City"}, "name": "Allison Arms", "related_places": {}, "timezone": "Europe/London"}, {"fsq_id": "4ee51e01e30005f8b882bbd3", "categories": [{"id": 13003, "name": "Bar", "short_name": "Bar", "plural_name": "Bars", "icon": {"prefix": "https://ss3.4sqi.net/img/categories_v2/nightlife/pub_", "suffix": ".png"}}, {"id": 13065, "name": "Restaurant", "short_name": "Restaurant", "plural_name": "Restaurants", "icon": {"prefix": "https://ss3.4sqi.net/img/categories_v2/food/default_", "suffix": ".png"}}], "chains": [], "closed_bucket": "LikelyOpen", "distance": 551, "geocodes": {"main": {"latitude": 55.836587, "longitude": -4.271476}, "roof": {"latitude": 55.836587, "longitude": -4.271476}}, "link": "/v3/places/4ee51e01e30005f8b882bbd3", "location": {"address": "17-21 Nithsdale Rd", "admin_region": "Scotland", "country": "GB", "formatted_address": "17-21 Nithsdale Rd, Glasgow, G41 2AL", "locality": "Glasgow", "post_town": "Glasgow", "postcode": "G41 2AL"}, "name": "The Bungo", "related_places": {}, "timezone": "Europe/London"}, {"fsq_id": "54384207498e7f9326a7d50e", "categories": [{"id": 13009, "name": "Cocktail Bar", "short_name": "Cocktail", "plural_name": "Cocktail Bars", "icon": {"prefix": "https://ss3.4sqi.net/img/categories_v2/nightlife/cocktails_", "suffix": ".png"}}, {"id": 13097, "name": "Caribbean Restaurant", "short_name": "Caribbean", "plural_name": "Caribbean Restaurants", "icon": {"prefix": "https://ss3.4sqi.net/img/categories_v2/food/caribbean_", "suffix": ".png"}}], "chains": [], "closed_bucket": "LikelyOpen", "distance": 525, "geocodes": {"main": {"latitude": 55.836646, "longitude": -4.269516}, "roof": {"latitude": 55.836646, "longitude": -4.269516}}, "link": "/v3/places/54384207498e7f9326a7d50e", "location": {"address": "657-659 Pollokshaws Rd", "admin_region": "Scotland", "country": "GB", "cross_street": "", "formatted_address": "657-659 Pollokshaws Rd, Glasgow, Glasgow City, G41 2AB", "locality": "Glasgow", "post_town": "Glasgow", "postcode": "G41 2AB", "region": "Glasgow City"}, "name": "Rum Shack", "related_places": {}, "timezone": "Europe/London"}, {"fsq_id": "59b2bda1b54618784f105664", "categories": [{"id": 13006, "name": "Beer Bar", "short_name": "Beer Bar", "plural_name": "Beer Bars", "icon": {"prefix": "https://ss3.4sqi.net/img/categories_v2/nightlife/pub_", "suffix": ".png"}}, {"id": 13025, "name": "Wine Bar", "short_name": "Wine Bar", "plural_name": "Wine Bars", "icon": {"prefix": "https://ss3.4sqi.net/img/categories_v2/food/winery_", "suffix": ".png"}}], "chains": [], "closed_bucket": "Unsure", "distance": 469, "geocodes": {"drop_off": {"latitude": 55.837179, "longitude": -4.269069}, "main": {"latitude": 55.837296, "longitude": -4.269221}, "roof": {"latitude": 55.837296, "longitude": -4.269221}}, "link": "/v3/places/59b2bda1b54618784f105664", "location": {"address": "686-688 Pollokshaws Rd", "admin_region": "Scotland", "country": "GB", "cross_street": "", "formatted_address": "686-688 Pollokshaws Rd, Glasgow, Glasgow City, G41 2QB", "locality": "Glasgow", "post_town": "Glasgow", "postcode": "G41 2QB", "region": "Glasgow City"}, "name": "Koelschip Yard", "related_places": {}, "timezone": "Europe/London"}, {"fsq_id": "4d876a91651041bd89339b30", "categories": [{"id": 13039, "name": "Deli", "short_name": "Deli", "plural_name": "Delis", "icon": {"prefix": "https://ss3.4sqi.net/img/categories_v2/food/deli_", "suffix": ".png"}}, {"id": 13145, "name": "Fast Food Restaurant", "short_name": "Fast Food", "plural_name": "Fast Food Restaurants", "icon": {"prefix": "https://ss3.4sqi.net/img/categories_v2/food/fastfood_", "suffix": ".png"}}, {"id": 13334, "name": "Sandwich Spot", "short_name": "Sandwich Spot", "plural_name": "Sandwich Spots", "icon": {"prefix": "https://ss3.4sqi.net/img/categories_v2/food/deli_", "suffix": ".png"}}], "chains": [{"id": "ab4bee40-d68a-012e-5619-003048cad9da", "name": "Subway"}], "closed_bucket": "VeryLikelyOpen", "distance": 498, "geocodes": {"drop_off": {"latitude": 55.838095, "longitude": -4.26424}, "main": {"latitude": 55.838197, "longitude": -4.26452}, "roof": {"latitude": 55.838197, "longitude": -4.26452}}, "link": "/v3/places/4d876a91651041bd89339b30", "location": {"address": "Victoria Rd", "country": "GB", "formatted_address": "Victoria Rd, Glasgow, Glasgow City", "locality": "Glasgow", "post_town": "Glasgow", "region": "Glasgow City"}, "name": "Subway", "related_places": {}, "timezone": "Europe/London"}, {"fsq_id": "5597fed9498e6d42e6120ea3", "categories": [{"id": 13018, "name": "Pub", "short_name": "Pub", "plural_name": "Pubs", "icon": {"prefix": "https://ss3.4sqi.net/img/categories_v2/nightlife/pub_", "suffix": ".png"}}], "chains": [], "closed_bucket": "VeryLikelyOpen", "distance": 481, "geocodes": {"drop_off": {"latitude": 55.837421, "longitude": -4.272374}, "main": {"latitude": 55.837268, "longitude": -4.272478}, "roof": {"latitude": 55.837268, "longitude": -4.272478}}, "link": "/v3/places/5597fed9498e6d42e6120ea3", "location": {"address": "69 Nithsdale Rd", "country": "GB", "cross_street": "", "formatted_address": "69 Nithsdale Rd, Glasgow, Glasgow City", "locality": "Glasgow", "post_town": "Glasgow", "region": "Glasgow City"}, "name": "Don Cazcabel", "related_places": {}, "timezone": "Europe/London"}, {"fsq_id": "4f08808be4b07c8f8c299637", "categories": [{"id": 13012, "name": "Hookah Bar", "short_name": "Hookah Bar", "plural_name": "Hookah Bars", "icon": {"prefix": "https://ss3.4sqi.net/img/categories_v2/nightlife/hookahbar_", "suffix": ".png"}}, {"id": 13040, "name": "Dessert Shop", "short_name": "Desserts", "plural_name": "Dessert Shops", "icon": {"prefix": "https://ss3.4sqi.net/img/categories_v2/food/dessert_", "suffix": ".png"}}], "chains": [], "closed_bucket": "LikelyOpen", "distance": 338, "geocodes": {"main": {"latitude": 55.844602, "longitude": -4.268604}, "roof": {"latitude": 55.844602, "longitude": -4.268604}}, "link": "/v3/places/4f08808be4b07c8f8c299637", "location": {"address": "32 St Andrews Rd", "admin_region": "Scotland", "country": "GB", "cross_street": "", "formatted_address": "32 St Andrews Rd, Glasgow, G41 1PF", "locality": "Glasgow", "post_town": "Glasgow", "postcode": "G41 1PF"}, "name": "Sugar Rush", "related_places": {}, "timezone": "Europe/London"}, {"fsq_id": "4b90247ff964a520367833e3", "categories": [{"id": 13031, "name": "Burger Joint", "short_name": "Burgers", "plural_name": "Burger Joints", "icon": {"prefix": "https://ss3.4sqi.net/img/categories_v2/food/burger_", "suffix": ".png"}}, {"id": 13145, "name": "Fast Food Restaurant", "short_name": "Fast Food", "plural_name": "Fast Food Restaurants", "icon": {"prefix": "https://ss3.4sqi.net/img/categories_v2/food/fastfood_", "suffix": ".png"}}], "chains": [{"id": "ab4a3530-d68a-012e-5619-003048cad9da", "name": "McDonald's"}], "closed_bucket": "VeryLikelyOpen", "distance": 334, "geocodes": {"main": {"latitude": 55.839023, "longitude": -4.266647}, "roof": {"latitude": 55.839023, "longitude": -4.266647}}, "link": "/v3/places/4b90247ff964a520367833e3", "location": {"address": "489 Pollokshaws Rd", "admin_region": "Scotland", "country": "GB", "formatted_address": "489 Pollokshaws Rd, Glasgow, Glasgow City, G41 2PF", "locality": "Glasgow", "post_town": "Glasgow", "postcode": "G41 2PF", "region": "Glasgow City"}, "name": "McDonald's", "related_places": {}, "timezone": "Europe/London"}, {"fsq_id": "526c03ab11d2c398ec74106b", "categories": [{"id": 13064, "name": "Pizzeria", "short_name": "Pizza", "plural_name": "Pizzerias", "icon": {"prefix": "https://ss3.4sqi.net/img/categories_v2/food/pizza_", "suffix": ".png"}}, {"id": 13145, "name": "Fast Food Restaurant", "short_name": "Fast Food", "plural_name": "Fast Food Restaurants", "icon": {"prefix": "https://ss3.4sqi.net/img/categories_v2/food/fastfood_", "suffix": ".png"}}, {"id": 13199, "name": "Indian Restaurant", "short_name": "Indian", "plural_name": "Indian Restaurants", "icon": {"prefix": "https://ss3.4sqi.net/img/categories_v2/food/indian_", "suffix": ".png"}}], "chains": [], "closed_bucket": "LikelyOpen", "distance": 182, "geocodes": {"drop_off": {"latitude": 55.842082, "longitude": -4.272412}, "main": {"latitude": 55.842226, "longitude": -4.272384}, "roof": {"latitude": 55.842226, "longitude": -4.272384}}, "link": "/v3/places/526c03ab11d2c398ec74106b", "location": {"address": "196 Albert Dr", "admin_region": "Scotland", "country": "GB", "cross_street": "", "formatted_address": "196 Albert Dr, Glasgow, G41 2NH", "locality": "Glasgow", "post_town": "Glasgow", "postcode": "G41 2NH"}, "name": "Lahore Kebab House", "related_places": {}, "timezone": "Europe/London"}, {"fsq_id": "4d03dacf7d9ba35d22666223", "categories": [{"id": 13064, "name": "Pizzeria", "short_name": "Pizza", "plural_name": "Pizzerias", "icon": {"prefix": "https://ss3.4sqi.net/img/categories_v2/food/pizza_", "suffix": ".png"}}, {"id": 13145, "name": "Fast Food Restaurant", "short_name": "Fast Food", "plural_name": "Fast Food Restaurants", "icon": {"prefix": "https://ss3.4sqi.net/img/categories_v2/food/fastfood_", "suffix": ".png"}}], "chains": [], "closed_bucket": "VeryLikelyOpen", "distance": 217, "geocodes": {"main": {"latitude": 55.842378, "longitude": -4.272494}, "roof": {"latitude": 55.842378, "longitude": -4.272494}}, "link": "/v3/places/4d03dacf7d9ba35d22666223", "location": {"address": "145 Kenmure St", "admin_region": "Scotland", "country": "GB", "formatted_address": "145 Kenmure St, Glasgow, G41 2NU", "locality": "Glasgow", "post_town": "Glasgow", "postcode": "G41 2NU"}, "name": "Pizza Hub", "related_places": {}, "timezone": "Europe/London"}, {"fsq_id": "51d86c8a498e32f14de904f5", "categories": [{"id": 13199, "name": "Indian Restaurant", "short_name": "Indian", "plural_name": "Indian Restaurants", "icon": {"prefix": "https://ss3.4sqi.net/img/categories_v2/food/indian_", "suffix": ".png"}}, {"id": 13031, "name": "Burger Joint", "short_name": "Burgers", "plural_name": "Burger Joints", "icon": {"prefix": "https://ss3.4sqi.net/img/categories_v2/food/burger_", "suffix": ".png"}}, {"id": 13051, "name": "Fish and Chips Shop", "short_name": "Fish and Chips Shop", "plural_name": "Fish and Chips Shops", "icon": {"prefix": "https://ss3.4sqi.net/img/categories_v2/food/fishandchips_", "suffix": ".png"}}], "chains": [], "closed_bucket": "VeryLikelyOpen", "distance": 323, "geocodes": {"main": {"latitude": 55.844493, "longitude": -4.268671}, "roof": {"latitude": 55.844493, "longitude": -4.268671}}, "link": "/v3/places/51d86c8a498e32f14de904f5", "location": {"address": "32D St Andrews Rd", "admin_region": "Scotland", "country": "GB", "cross_street": "", "formatted_address": "32D St Andrews Rd, Glasgow, Glasgow City, G41 5PF", "locality": "Glasgow", "post_town": "Glasgow", "postcode": "G41 5PF", "region": "Glasgow City"}, "name": "Red Pepper", "related_places": {}, "timezone": "Europe/London"}, {"fsq_id": "4e6e35668877d6d0b11dc071", "categories": [{"id": 13051, "name": "Fish and Chips Shop", "short_name": "Fish and Chips Shop", "plural_name": "Fish and Chips Shops", "icon": {"prefix": "https://ss3.4sqi.net/img/categories_v2/food/fishandchips_", "suffix": ".png"}}], "chains": [], "closed_bucket": "VeryLikelyOpen", "distance": 355, "geocodes": {"main": {"latitude": 55.838406, "longitude": -4.268239}, "roof": {"latitude": 55.838406, "longitude": -4.268239}}, "link": "/v3/places/4e6e35668877d6d0b11dc071", "location": {"country": "GB", "cross_street": "", "formatted_address": ""}, "name": "Tony's Fish and Chip Shop", "related_places": {}, "timezone": "Europe/London"}, {"fsq_id": "5ae3801da42362002ca506d0", "categories": [{"id": 13072, "name": "Asian Restaurant", "short_name": "Asian", "plural_name": "Asian Restaurants", "icon": {"prefix": "https://ss3.4sqi.net/img/categories_v2/food/asian_", "suffix": ".png"}}], "chains": [], "closed_bucket": "VeryLikelyOpen", "distance": 396, "geocodes": {"drop_off": {"latitude": 55.841017, "longitude": -4.263188}, "main": {"latitude": 55.841103, "longitude": -4.263453}, "roof": {"latitude": 55.841103, "longitude": -4.263453}}, "link": "/v3/places/5ae3801da42362002ca506d0", "location": {"address": "72 Victoria Rd", "admin_region": "Scotland", "country": "GB", "cross_street": "", "formatted_address": "72 Victoria Rd, Glasgow, Glasgow City, G42 7AA", "locality": "Glasgow", "post_town": "Glasgow", "postcode": "G42 7AA", "region": "Glasgow City"}, "name": "Tempura Kiro", "related_places": {}, "timezone": "Europe/London"}, {"fsq_id": "5d7a849cd133420008a2603d", "categories": [{"id": 13025, "name": "Wine Bar", "short_name": "Wine Bar", "plural_name": "Wine Bars", "icon": {"prefix": "https://ss3.4sqi.net/img/categories_v2/food/winery_", "suffix": ".png"}}, {"id": 13236, "name": "Italian Restaurant", "short_name": "Italian", "plural_name": "Italian Restaurants", "icon": {"prefix": "https://ss3.4sqi.net/img/categories_v2/food/italian_", "suffix": ".png"}}], "chains": [], "closed_bucket": "LikelyOpen", "distance": 417, "geocodes": {"drop_off": {"latitude": 55.840937, "longitude": -4.263213}, "main": {"latitude": 55.840866, "longitude": -4.26299}, "roof": {"latitude": 55.840866, "longitude": -4.26299}}, "link": "/v3/places/5d7a849cd133420008a2603d", "location": {"address": "80 Victoria Rd", "admin_region": "Scotland", "country": "GB", "cross_street": "", "formatted_address": "80 Victoria Rd, Glasgow, Glasgow City, G42 7AA", "locality": "Glasgow", "post_town": "Glasgow", "postcode": "G42 7AA", "region": "Glasgow City"}, "name": "Bar Vini", "related_places": {}, "timezone": "Europe/London"}, {"fsq_id": "736358a402e84037c6883d6b", "categories": [{"id": 13236, "name": "Italian Restaurant", "short_name": "Italian", "plural_name": "Italian Restaurants", "icon": {"prefix": "https://ss3.4sqi.net/img/categories_v2/food/italian_", "suffix": ".png"}}], "chains": [], "closed_bucket": "LikelyOpen", "distance": 433, "geocodes": {"drop_off": {"latitude": 55.838952, "longitude": -4.275277}, "main": {"latitude": 55.839114, "longitude": -4.275196}, "roof": {"latitude": 55.839114, "longitude": -4.275196}}, "link": "/v3/places/736358a402e84037c6883d6b", "location": {"address": "142 Nithsdale Rd", "admin_region": "Scotland", "country": "GB", "formatted_address": "142 Nithsdale Rd, Glasgow, G41 5RB", "locality": "Glasgow", "post_town": "Glasgow", "postcode": "G41 5RB"}, "name": "Zeno", "related_places": {}, "timezone": "Europe/London"}, {"fsq_id": "54e5e440498e4ac03ebf30a5", "categories": [{"id": 13142, "name": "English Restaurant", "short_name": "English", "plural_name": "English Restaurants", "icon": {"prefix": "https://ss3.4sqi.net/img/categories_v2/food/default_", "suffix": ".png"}}], "chains": [], "closed_bucket": "VeryLikelyOpen", "distance": 446, "geocodes": {"main": {"latitude": 55.838926, "longitude": -4.274805}, "roof": {"latitude": 55.838926, "longitude": -4.274805}}, "link": "/v3/places/54e5e440498e4ac03ebf30a5", "location": {"address": "122 Nithsdale Rd", "admin_region": "Scotland", "country": "GB", "cross_street": "", "formatted_address": "122 Nithsdale Rd, Glasgow, G41 5RB", "locality": "Glasgow", "post_town": "Glasgow", "postcode": "G41 5RB"}, "name": "Ollie's", "related_places": {}, "timezone": "Europe/London"}, {"fsq_id": "51eb0818498efde263ff3f40", "categories": [{"id": 13066, "name": "Afghan Restaurant", "short_name": "Afghan", "plural_name": "Afghan Restaurants", "icon": {"prefix": "https://ss3.4sqi.net/img/categories_v2/food/afghan_", "suffix": ".png"}}], "chains": [], "closed_bucket": "VeryLikelyOpen", "distance": 451, "geocodes": {"drop_off": {"latitude": 55.837565, "longitude": -4.268767}, "main": {"latitude": 55.837435, "longitude": -4.26863}, "roof": {"latitude": 55.837435, "longitude": -4.26863}}, "link": "/v3/places/51eb0818498efde263ff3f40", "location": {"address": "607 Pollokshaws Rd Glasgow", "admin_region": "Scotland", "country": "GB", "cross_street": "", "formatted_address": "607 Pollokshaws Rd Glasgow, Glasgow, Glasgow City, G41 2QG", "locality": "Glasgow", "post_town": "Glasgow", "postcode": "G41 2QG", "region": "Glasgow City"}, "name": "Afghan Village", "related_places": {}, "timezone": "Europe/London"}, {"fsq_id": "632e04f72f5dc66afe8b057c", "categories": [{"id": 13009, "name": "Cocktail Bar", "short_name": "Cocktail", "plural_name": "Cocktail Bars", "icon": {"prefix": "https://ss3.4sqi.net/img/categories_v2/nightlife/cocktails_", "suffix": ".png"}}, {"id": 13016, "name": "Lounge", "short_name": "Lounge", "plural_name": "Lounges", "icon": {"prefix": "https://ss3.4sqi.net/img/categories_v2/nightlife/default_", "suffix": ".png"}}], "chains": [], "closed_bucket": "Unsure", "distance": 487, "geocodes": {"drop_off": {"latitude": 55.83744, "longitude": -4.271698}, "main": {"latitude": 55.837309, "longitude": -4.271743}, "roof": {"latitude": 55.837309, "longitude": -4.271743}}, "link": "/v3/places/632e04f72f5dc66afe8b057c", "location": {"address": "72 Nithsdale St", "admin_region": "Scotland", "country": "GB", "cross_street": "", "formatted_address": "72 Nithsdale St, Glasgow, Glasgow City", "locality": "Glasgow", "post_town": "Glasgow", "region": "Glasgow City"}, "name": "Lunar", "related_places": {}, "timezone": "Europe/London"}, {"fsq_id": "ae0bbaaf95264e2bb3c5111c", "categories": [{"id": 13064, "name": "Pizzeria", "short_name": "Pizza", "plural_name": "Pizzerias", "icon": {"prefix": "https://ss3.4sqi.net/img/categories_v2/food/pizza_", "suffix": ".png"}}, {"id": 13145, "name": "Fast Food Restaurant", "short_name": "Fast Food", "plural_name": "Fast Food Restaurants", "icon": {"prefix": "https://ss3.4sqi.net/img/categories_v2/food/fastfood_", "suffix": ".png"}}], "chains": [], "closed_bucket": "LikelyOpen", "distance": 495, "geocodes": {"main": {"latitude": 55.84342, "longitude": -4.262543}, "roof": {"latitude": 55.84342, "longitude": -4.262543}}, "link": "/v3/places/ae0bbaaf95264e2bb3c5111c", "location": {"address": "666 Eglinton St", "admin_region": "Scotland", "country": "GB", "formatted_address": "666 Eglinton St, Glasgow, Glasgow City, G5 9RP", "locality": "Glasgow", "post_town": "Glasgow", "postcode": "G5 9RP", "region": "Glasgow City"}, "name": "Pizza L'aquila", "related_places": {}, "timezone": "Europe/London"}, {"fsq_id": "4c07bb8ac69aa5937eaf9ba2", "categories": [{"id": 13046, "name": "Ice Cream Parlor", "short_name": "Ice Cream", "plural_name": "Ice Cream Parlors", "icon": {"prefix": "https://ss3.4sqi.net/img/categories_v2/food/icecream_", "suffix": ".png"}}, {"id": 13065, "name": "Restaurant", "short_name": "Restaurant", "plural_name": "Restaurants", "icon": {"prefix": "https://ss3.4sqi.net/img/categories_v2/food/default_", "suffix": ".png"}}], "chains": [], "closed_bucket": "LikelyOpen", "distance": 496, "geocodes": {"main": {"latitude": 55.838336, "longitude": -4.263929}, "roof": {"latitude": 55.838336, "longitude": -4.263929}}, "link": "/v3/places/4c07bb8ac69aa5937eaf9ba2", "location": {"address": "329 Victoria Rd", "admin_region": "Scotland", "country": "GB", "cross_street": "", "formatted_address": "329 Victoria Rd, Glasgow, Glasgow City, G42 7SA", "locality": "Glasgow", "post_town": "Glasgow", "postcode": "G42 7SA", "region": "Glasgow City"}, "name": "Big Licks", "related_places": {}, "timezone": "Europe/London"}, {"fsq_id": "4b9ad6cdf964a520e0da35e3", "categories": [{"id": 13018, "name": "Pub", "short_name": "Pub", "plural_name": "Pubs", "icon": {"prefix": "https://ss3.4sqi.net/img/categories_v2/nightlife/pub_", "suffix": ".png"}}], "chains": [], "closed_bucket": "VeryLikelyOpen", "distance": 518, "geocodes": {"main": {"latitude": 55.836841, "longitude": -4.269802}, "roof": {"latitude": 55.836841, "longitude": -4.269802}}, "link": "/v3/places/4b9ad6cdf964a520e0da35e3", "location": {"address": "708 Pollokshaws Rd", "admin_region": "Scotland", "country": "GB", "cross_street": "at Nithsdale St", "formatted_address": "708 Pollokshaws Rd (at Nithsdale St), Glasgow, Glasgow City, G41 2AD", "locality": "Glasgow", "post_town": "Glasgow", "postcode": "G41 2AD", "region": "Glasgow City"}, "name": "Heraghty's Bar", "related_places": {}, "timezone": "Europe/London"}, {"fsq_id": "4c265a46136d20a18434e561", "categories": [{"id": 13018, "name": "Pub", "short_name": "Pub", "plural_name": "Pubs", "icon": {"prefix": "https://ss3.4sqi.net/img/categories_v2/nightlife/pub_", "suffix": ".png"}}], "chains": [], "closed_bucket": "LikelyOpen", "distance": 520, "geocodes": {"main": {"latitude": 55.83706, "longitude": -4.27149}, "roof": {"latitude": 55.83706, "longitude": -4.27149}}, "link": "/v3/places/4c265a46136d20a18434e561", "location": {"address": "52-58 Nithsdale Rd", "admin_region": "Scotland", "country": "GB", "cross_street": "", "formatted_address": "52-58 Nithsdale Rd, Glasgow, G41 2AN", "locality": "Glasgow", "post_town": "Glasgow", "postcode": "G41 2AN"}, "name": "Titwood Bar", "related_places": {}, "timezone": "Europe/London"}, {"fsq_id": "56f32072498e5b7c43831aa1", "categories": [{"id": 13012, "name": "Hookah Bar", "short_name": "Hookah Bar", "plural_name": "Hookah Bars", "icon": {"prefix": "https://ss3.4sqi.net/img/categories_v2/nightlife/hookahbar_", "suffix": ".png"}}, {"id": 13065, "name": "Restaurant", "short_name": "Restaurant", "plural_name": "Restaurants", "icon": {"prefix": "https://ss3.4sqi.net/img/categories_v2/food/default_", "suffix": ".png"}}], "chains": [], "closed_bucket": "LikelyOpen", "distance": 542, "geocodes": {"drop_off": {"latitude": 55.837245, "longitude": -4.264569}, "main": {"latitude": 55.837384, "longitude": -4.264915}, "roof": {"latitude": 55.837384, "longitude": -4.264915}}, "link": "/v3/places/56f32072498e5b7c43831aa1", "location": {"address": "361 Victoria Rd", "country": "GB", "cross_street": "", "formatted_address": "361 Victoria Rd, Glasgow, Glasgow City", "locality": "Glasgow", "post_town": "Glasgow", "region": "Glasgow City"}, "name": "Damascus Cafe", "related_places": {}, "timezone": "Europe/London"}, {"fsq_id": "5cb857bf9deb7d002c60fd3d", "categories": [{"id": 13034, "name": "Caf\u00e9", "short_name": "Caf\u00e9", "plural_name": "Caf\u00e9s", "icon": {"prefix": "https://ss3.4sqi.net/img/categories_v2/food/cafe_", "suffix": ".png"}}, {"id": 13065, "name": "Restaurant", "short_name": "Restaurant", "plural_name": "Restaurants", "icon": {"prefix": "https://ss3.4sqi.net/img/categories_v2/food/default_", "suffix": ".png"}}], "chains": [], "closed_bucket": "LikelyOpen", "distance": 552, "geocodes": {"drop_off": {"latitude": 55.837249, "longitude": -4.264935}, "main": {"latitude": 55.837384, "longitude": -4.264915}, "roof": {"latitude": 55.837384, "longitude": -4.264915}}, "link": "/v3/places/5cb857bf9deb7d002c60fd3d", "location": {"address": "83 Bowman St", "admin_region": "Scotland", "country": "GB", "cross_street": "", "formatted_address": "83 Bowman St, Glasgow, Glasgow City, G42 8LF", "locality": "Glasgow", "post_town": "Glasgow", "postcode": "G42 8LF", "region": "Glasgow City"}, "name": "Bee's Knees Cafe", "related_places": {}, "timezone": "Europe/London"}, {"fsq_id": "6eaa13dcc4144b81503d6190", "categories": [{"id": 13065, "name": "Restaurant", "short_name": "Restaurant", "plural_name": "Restaurants", "icon": {"prefix": "https://ss3.4sqi.net/img/categories_v2/food/default_", "suffix": ".png"}}], "chains": [], "closed_bucket": "LikelyOpen", "distance": 560, "geocodes": {"drop_off": {"latitude": 55.8457, "longitude": -4.275152}, "main": {"latitude": 55.845614, "longitude": -4.274871}, "roof": {"latitude": 55.845614, "longitude": -4.274871}}, "link": "/v3/places/6eaa13dcc4144b81503d6190", "location": {"address": "407 Shields Rd", "admin_region": "Scotland", "country": "GB", "formatted_address": "407 Shields Rd, Glasgow, Glasgow City, G41 1NY", "locality": "Glasgow", "post_town": "Glasgow", "postcode": "G41 1NY", "region": "Glasgow City"}, "name": "Jay's Gelato", "related_places": {}, "timezone": "Europe/London"}, {"fsq_id": "5c9a80804928220034aaa434", "categories": [{"id": 13177, "name": "Greek Restaurant", "short_name": "Greek", "plural_name": "Greek Restaurants", "icon": {"prefix": "https://ss3.4sqi.net/img/categories_v2/food/greek_", "suffix": ".png"}}], "chains": [], "closed_bucket": "LikelyOpen", "distance": 588, "geocodes": {"main": {"latitude": 55.836289, "longitude": -4.270241}, "roof": {"latitude": 55.836289, "longitude": -4.270241}}, "link": "/v3/places/5c9a80804928220034aaa434", "location": {"address": "697 Pollokshaws Rd", "admin_region": "Scotland", "country": "GB", "cross_street": "", "formatted_address": "697 Pollokshaws Rd, Glasgow, Glasgow City, G41 2AB", "locality": "Glasgow", "post_town": "Glasgow", "postcode": "G41 2AB", "region": "Glasgow City"}, "name": "Halloumi", "related_places": {}, "timezone": "Europe/London"}, {"fsq_id": "4c793d7c93ef236aaec5ae0f", "categories": [{"id": 13018, "name": "Pub", "short_name": "Pub", "plural_name": "Pubs", "icon": {"prefix": "https://ss3.4sqi.net/img/categories_v2/nightlife/pub_", "suffix": ".png"}}], "chains": [], "closed_bucket": "LikelyOpen", "distance": 604, "geocodes": {"main": {"latitude": 55.836534, "longitude": -4.26503}, "roof": {"latitude": 55.836534, "longitude": -4.26503}}, "link": "/v3/places/4c793d7c93ef236aaec5ae0f", "location": {"address": "400 Victoria Rd", "admin_region": "Scotland", "country": "GB", "cross_street": "", "formatted_address": "400 Victoria Rd, Glasgow, G42 8YS", "locality": "Glasgow", "post_town": "Glasgow", "postcode": "G42 8YS"}, "name": "Victoria Bar", "related_places": {}, "timezone": "Europe/London"}, {"fsq_id": "5e4c02c6a1c4c2000870ef6e", "categories": [{"id": 13035, "name": "Coffee Shop", "short_name": "Coffee Shop", "plural_name": "Coffee Shops", "icon": {"prefix": "https://ss3.4sqi.net/img/categories_v2/food/coffeeshop_", "suffix": ".png"}}, {"id": 13065, "name": "Restaurant", "short_name": "Restaurant", "plural_name": "Restaurants", "icon": {"prefix": "https://ss3.4sqi.net/img/categories_v2/food/default_", "suffix": ".png"}}], "chains": [], "closed_bucket": "VeryLikelyOpen", "distance": 611, "geocodes": {"drop_off": {"latitude": 55.836095, "longitude": -4.270841}, "main": {"latitude": 55.835943, "longitude": -4.270756}, "roof": {"latitude": 55.835943, "longitude": -4.270756}}, "link": "/v3/places/5e4c02c6a1c4c2000870ef6e", "location": {"address": "719 Pollokshaws Rd", "admin_region": "Scotland", "country": "GB", "cross_street": "", "formatted_address": "719 Pollokshaws Rd, G41 2AA", "post_town": "Glasgow", "postcode": "G41 2AA"}, "name": "Gray's Kitchen", "related_places": {}, "timezone": "Europe/London"}, {"fsq_id": "57e52004498e3f88fc8d140f", "categories": [{"id": 13236, "name": "Italian Restaurant", "short_name": "Italian", "plural_name": "Italian Restaurants", "icon": {"prefix": "https://ss3.4sqi.net/img/categories_v2/food/italian_", "suffix": ".png"}}], "chains": [], "closed_bucket": "LikelyOpen", "distance": 612, "geocodes": {"drop_off": {"latitude": 55.836207, "longitude": -4.2704}, "main": {"latitude": 55.836064, "longitude": -4.270479}, "roof": {"latitude": 55.836064, "longitude": -4.270479}}, "link": "/v3/places/57e52004498e3f88fc8d140f", "location": {"address": "10 Torrisdale St", "admin_region": "Scotland", "country": "GB", "cross_street": "", "formatted_address": "10 Torrisdale St, Glasgow, Glasgow City, G42 8PZ", "locality": "Glasgow", "post_town": "Glasgow", "postcode": "G42 8PZ", "region": "Glasgow City"}, "name": "Al Forno", "related_places": {}, "timezone": "Europe/London"}, {"fsq_id": "55f217e7498ed2c826fcc40f", "categories": [{"id": 12082, "name": "Organization", "short_name": "Organization", "plural_name": "Organizations", "icon": {"prefix": "https://ss3.4sqi.net/img/categories_v2/building/default_", "suffix": ".png"}}, {"id": 13034, "name": "Caf\u00e9", "short_name": "Caf\u00e9", "plural_name": "Caf\u00e9s", "icon": {"prefix": "https://ss3.4sqi.net/img/categories_v2/food/cafe_", "suffix": ".png"}}, {"id": 13065, "name": "Restaurant", "short_name": "Restaurant", "plural_name": "Restaurants", "icon": {"prefix": "https://ss3.4sqi.net/img/categories_v2/food/default_", "suffix": ".png"}}], "chains": [], "closed_bucket": "LikelyOpen", "distance": 677, "geocodes": {"drop_off": {"latitude": 55.835856, "longitude": -4.265059}, "main": {"latitude": 55.835939, "longitude": -4.265292}, "roof": {"latitude": 55.835939, "longitude": -4.265292}}, "link": "/v3/places/55f217e7498ed2c826fcc40f", "location": {"address": "452 Victoria Rd", "admin_region": "Scotland", "country": "GB", "cross_street": "", "formatted_address": "452 Victoria Rd, Glasgow, Glasgow City, G42 8YU", "locality": "Glasgow", "post_town": "Glasgow", "postcode": "G42 8YU", "region": "Glasgow City"}, "name": "MILK cafe", "related_places": {}, "timezone": "Europe/London"}, {"fsq_id": "522e706e4dcb9d240ceb75f0", "categories": [{"id": 13065, "name": "Restaurant", "short_name": "Restaurant", "plural_name": "Restaurants", "icon": {"prefix": "https://ss3.4sqi.net/img/categories_v2/food/default_", "suffix": ".png"}}], "chains": [], "closed_bucket": "LikelyOpen", "distance": 685, "geocodes": {"main": {"latitude": 55.835866, "longitude": -4.264729}, "roof": {"latitude": 55.835866, "longitude": -4.264729}}, "link": "/v3/places/522e706e4dcb9d240ceb75f0", "location": {"address": "441 Victoria Rd", "admin_region": "Scotland", "country": "GB", "formatted_address": "441 Victoria Rd, Glasgow, Glasgow City, G42 8RW", "locality": "Glasgow", "post_town": "Glasgow", "postcode": "G42 8RW", "region": "Glasgow City"}, "name": "The Upper House Oriental Restaurant", "related_places": {}, "timezone": "Europe/London"}, {"fsq_id": "636eb65ca651666a0faf98f4", "categories": [{"id": 13263, "name": "Japanese Restaurant", "short_name": "Japanese", "plural_name": "Japanese Restaurants", "icon": {"prefix": "https://ss3.4sqi.net/img/categories_v2/food/japanese_", "suffix": ".png"}}], "chains": [], "closed_bucket": "VeryLikelyOpen", "distance": 696, "geocodes": {"main": {"latitude": 55.835757, "longitude": -4.264796}, "roof": {"latitude": 55.835757, "longitude": -4.264796}}, "link": "/v3/places/636eb65ca651666a0faf98f4", "location": {"admin_region": "Scotland", "country": "GB", "cross_street": "", "formatted_address": "Glasgow, Glasgow City, G42 8RW", "locality": "Glasgow", "post_town": "Glasgow", "postcode": "G42 8RW", "region": "Glasgow City"}, "name": "Daku", "related_places": {}, "timezone": "Europe/London"}, {"fsq_id": "51d0a26b498e3eb734e3b9f1", "categories": [{"id": 11056, "name": "Food and Beverage Service", "short_name": "Food Service", "plural_name": "Food and Beverage Services", "icon": {"prefix": "https://ss3.4sqi.net/img/categories_v2/shops/foodanddrink_", "suffix": ".png"}}, {"id": 13012, "name": "Hookah Bar", "short_name": "Hookah Bar", "plural_name": "Hookah Bars", "icon": {"prefix": "https://ss3.4sqi.net/img/categories_v2/nightlife/hookahbar_", "suffix": ".png"}}, {"id": 13356, "name": "Turkish Restaurant", "short_name": "Turkish", "plural_name": "Turkish Restaurants", "icon": {"prefix": "https://ss3.4sqi.net/img/categories_v2/food/turkish_", "suffix": ".png"}}], "chains": [], "closed_bucket": "VeryLikelyOpen", "distance": 703, "geocodes": {"main": {"latitude": 55.847057, "longitude": -4.26437}, "roof": {"latitude": 55.847057, "longitude": -4.26437}}, "link": "/v3/places/51d0a26b498e3eb734e3b9f1", "location": {"address": "92 Kilbirnie St", "admin_region": "Scotland", "country": "GB", "cross_street": "", "formatted_address": "92 Kilbirnie St, Glasgow, Glasgow City, G5 8JD", "locality": "Glasgow", "post_town": "Glasgow", "postcode": "G5 8JD", "region": "Glasgow City"}, "name": "Anaya Glasgow", "related_places": {}, "timezone": "Europe/London"}, {"fsq_id": "0b2d7be4c8fb44b7ab1d2cc7", "categories": [{"id": 13065, "name": "Restaurant", "short_name": "Restaurant", "plural_name": "Restaurants", "icon": {"prefix": "https://ss3.4sqi.net/img/categories_v2/food/default_", "suffix": ".png"}}, {"id": 17077, "name": "Meat and Seafood Store", "short_name": "Meat and Seafood Store", "plural_name": "Meat and Seafood Stores", "icon": {"prefix": "https://ss3.4sqi.net/img/categories_v2/shops/food_grocery_", "suffix": ".png"}}], "chains": [], "closed_bucket": "Unsure", "distance": 715, "geocodes": {"main": {"latitude": 55.846898, "longitude": -4.263454}, "roof": {"latitude": 55.846898, "longitude": -4.263454}}, "link": "/v3/places/0b2d7be4c8fb44b7ab1d2cc7", "location": {"address": "76 Kilbirnie St", "admin_region": "Scotland", "country": "GB", "formatted_address": "76 Kilbirnie St, Glasgow, G5 8JD", "locality": "Glasgow", "post_town": "Glasgow", "postcode": "G5 8JD"}, "name": "Nav Star", "related_places": {}, "timezone": "Europe/London"}, {"fsq_id": "8a29e23aea964ebabe1ca8c6", "categories": [{"id": 13003, "name": "Bar", "short_name": "Bar", "plural_name": "Bars", "icon": {"prefix": "https://ss3.4sqi.net/img/categories_v2/nightlife/pub_", "suffix": ".png"}}], "chains": [], "closed_bucket": "LikelyOpen", "distance": 716, "geocodes": {"main": {"latitude": 55.835078, "longitude": -4.265615}, "roof": {"latitude": 55.835078, "longitude": -4.265615}}, "link": "/v3/places/8a29e23aea964ebabe1ca8c6", "location": {"address": "173 Allison St", "admin_region": "Scotland", "country": "GB", "formatted_address": "173 Allison St, Glasgow, South Ayrshire, G42 8RX", "locality": "Glasgow", "post_town": "Glasgow", "postcode": "G42 8RX", "region": "South Ayrshire"}, "name": "Queenspark Pawn Brokers", "related_places": {}, "timezone": "Europe/London"}, {"fsq_id": "524ef879498ed20ea59c4c57", "categories": [{"id": 10039, "name": "Music Venue", "short_name": "Music Venue", "plural_name": "Music Venues", "icon": {"prefix": "https://ss3.4sqi.net/img/categories_v2/arts_entertainment/musicvenue_", "suffix": ".png"}}, {"id": 13022, "name": "Sports Bar", "short_name": "Sports Bar", "plural_name": "Sports Bars", "icon": {"prefix": "https://ss3.4sqi.net/img/categories_v2/nightlife/sportsbar_", "suffix": ".png"}}, {"id": 13065, "name": "Restaurant", "short_name": "Restaurant", "plural_name": "Restaurants", "icon": {"prefix": "https://ss3.4sqi.net/img/categories_v2/food/default_", "suffix": ".png"}}], "chains": [], "closed_bucket": "VeryLikelyOpen", "distance": 751, "geocodes": {"main": {"latitude": 55.834933, "longitude": -4.266312}, "roof": {"latitude": 55.834933, "longitude": -4.266312}}, "link": "/v3/places/524ef879498ed20ea59c4c57", "location": {"address": "106 Torrisdale St", "admin_region": "Scotland", "country": "GB", "cross_street": "", "formatted_address": "106 Torrisdale St, Glasgow, G42 8PH", "locality": "Glasgow", "post_town": "Glasgow", "postcode": "G42 8PH"}, "name": "McNeill's Bar", "related_places": {"children": [{"fsq_id": "611e42200ad112448285ade8", "categories": [{"id": 13263, "name": "Japanese Restaurant", "short_name": "Japanese", "plural_name": "Japanese Restaurants", "icon": {"prefix": "https://ss3.4sqi.net/img/categories_v2/food/japanese_", "suffix": ".png"}}], "name": "Betsumono"}]}, "timezone": "Europe/London"}, {"fsq_id": "5cd00a085d891b002c3c46bf", "categories": [{"id": 13003, "name": "Bar", "short_name": "Bar", "plural_name": "Bars", "icon": {"prefix": "https://ss3.4sqi.net/img/categories_v2/nightlife/pub_", "suffix": ".png"}}, {"id": 13057, "name": "Gastropub", "short_name": "Gastropub", "plural_name": "Gastropubs", "icon": {"prefix": "https://ss3.4sqi.net/img/categories_v2/food/gastropub_", "suffix": ".png"}}], "chains": [], "closed_bucket": "LikelyOpen", "distance": 765, "geocodes": {"drop_off": {"latitude": 55.835258, "longitude": -4.264139}, "main": {"latitude": 55.835374, "longitude": -4.264118}, "roof": {"latitude": 55.835374, "longitude": -4.264118}}, "link": "/v3/places/5cd00a085d891b002c3c46bf", "location": {"address": "21 Dixon Ave", "admin_region": "Scotland", "country": "GB", "cross_street": "", "formatted_address": "21 Dixon Ave, Glasgow, Glasgow City, G42 8EB", "locality": "Glasgow", "post_town": "Glasgow", "postcode": "G42 8EB", "region": "Glasgow City"}, "name": "The Bell Jar", "related_places": {}, "timezone": "Europe/London"}, {"fsq_id": "5b5c6fae56c89f002c8290db", "categories": [{"id": 13034, "name": "Caf\u00e9", "short_name": "Caf\u00e9", "plural_name": "Caf\u00e9s", "icon": {"prefix": "https://ss3.4sqi.net/img/categories_v2/food/cafe_", "suffix": ".png"}}, {"id": 13065, "name": "Restaurant", "short_name": "Restaurant", "plural_name": "Restaurants", "icon": {"prefix": "https://ss3.4sqi.net/img/categories_v2/food/default_", "suffix": ".png"}}], "chains": [], "closed_bucket": "LikelyOpen", "distance": 796, "geocodes": {"drop_off": {"latitude": 55.834874, "longitude": -4.265406}, "main": {"latitude": 55.834786, "longitude": -4.265186}, "roof": {"latitude": 55.834786, "longitude": -4.265186}}, "link": "/v3/places/5b5c6fae56c89f002c8290db", "location": {"address": "501 Victoria Rd", "admin_region": "Scotland", "country": "GB", "cross_street": "", "formatted_address": "501 Victoria Rd, Glasgow, Glasgow City, G42 8RL", "locality": "Glasgow", "post_town": "Glasgow", "postcode": "G42 8RL", "region": "Glasgow City"}, "name": "Short Long Black", "related_places": {}, "timezone": "Europe/London"}, {"fsq_id": "4bb8c4d03db7b7130d95219a", "categories": [{"id": 13199, "name": "Indian Restaurant", "short_name": "Indian", "plural_name": "Indian Restaurants", "icon": {"prefix": "https://ss3.4sqi.net/img/categories_v2/food/indian_", "suffix": ".png"}}], "chains": [], "closed_bucket": "VeryLikelyOpen", "distance": 797, "geocodes": {"main": {"latitude": 55.836118, "longitude": -4.261234}, "roof": {"latitude": 55.836118, "longitude": -4.261234}}, "link": "/v3/places/4bb8c4d03db7b7130d95219a", "location": {"country": "GB", "cross_street": "", "formatted_address": ""}, "name": "The Chicken Hut", "related_places": {}, "timezone": "Europe/London"}, {"fsq_id": "5a033d44805e3f472304e501", "categories": [{"id": 13040, "name": "Dessert Shop", "short_name": "Desserts", "plural_name": "Dessert Shops", "icon": {"prefix": "https://ss3.4sqi.net/img/categories_v2/food/dessert_", "suffix": ".png"}}, {"id": 13065, "name": "Restaurant", "short_name": "Restaurant", "plural_name": "Restaurants", "icon": {"prefix": "https://ss3.4sqi.net/img/categories_v2/food/default_", "suffix": ".png"}}], "chains": [], "closed_bucket": "LikelyOpen", "distance": 806, "geocodes": {"main": {"latitude": 55.834647, "longitude": -4.265777}, "roof": {"latitude": 55.834647, "longitude": -4.265777}}, "link": "/v3/places/5a033d44805e3f472304e501", "location": {"address": "504 Victoria Rd", "admin_region": "Scotland", "country": "GB", "cross_street": "", "formatted_address": "504 Victoria Rd, Glasgow, Glasgow City, G42 8PQ", "locality": "Glasgow", "post_town": "Glasgow", "postcode": "G42 8PQ", "region": "Glasgow City"}, "name": "What the Fudge", "related_places": {}, "timezone": "Europe/London"}, {"fsq_id": "61840fb322589805172dc95c", "categories": [{"id": 13034, "name": "Caf\u00e9", "short_name": "Caf\u00e9", "plural_name": "Caf\u00e9s", "icon": {"prefix": "https://ss3.4sqi.net/img/categories_v2/food/cafe_", "suffix": ".png"}}, {"id": 13065, "name": "Restaurant", "short_name": "Restaurant", "plural_name": "Restaurants", "icon": {"prefix": "https://ss3.4sqi.net/img/categories_v2/food/default_", "suffix": ".png"}}], "chains": [], "closed_bucket": "Unsure", "distance": 809, "geocodes": {"drop_off": {"latitude": 55.834757, "longitude": -4.265453}, "main": {"latitude": 55.834677, "longitude": -4.265253}, "roof": {"latitude": 55.834677, "longitude": -4.265253}}, "link": "/v3/places/61840fb322589805172dc95c", "location": {"address": "505 Victoria Rd", "admin_region": "Scotland", "country": "GB", "cross_street": "Albert Road", "formatted_address": "505 Victoria Rd (Albert Road), Glasgow, Glasgow City, G42 8RL", "locality": "Glasgow", "post_town": "Glasgow", "postcode": "G42 8RL", "region": "Glasgow City"}, "name": "Mi Chaii", "related_places": {}, "timezone": "Europe/London"}, {"fsq_id": "5b2f6a934a7aae003984d41f", "categories": [{"id": 13035, "name": "Coffee Shop", "short_name": "Coffee Shop", "plural_name": "Coffee Shops", "icon": {"prefix": "https://ss3.4sqi.net/img/categories_v2/food/coffeeshop_", "suffix": ".png"}}, {"id": 13065, "name": "Restaurant", "short_name": "Restaurant", "plural_name": "Restaurants", "icon": {"prefix": "https://ss3.4sqi.net/img/categories_v2/food/default_", "suffix": ".png"}}], "chains": [], "closed_bucket": "LikelyOpen", "distance": 813, "geocodes": {"main": {"latitude": 55.834647, "longitude": -4.265777}, "roof": {"latitude": 55.834647, "longitude": -4.265777}}, "link": "/v3/places/5b2f6a934a7aae003984d41f", "location": {"address": "510 Victoria Rd", "admin_region": "Scotland", "country": "GB", "cross_street": "", "formatted_address": "510 Victoria Rd, Glasgow, Glasgow City, G42 8PQ", "locality": "Glasgow", "post_town": "Glasgow", "postcode": "G42 8PQ", "region": "Glasgow City"}, "name": "Crema Coffee", "related_places": {}, "timezone": "Europe/London"}, {"fsq_id": "41839c120b14413b06c9508c", "categories": [{"id": 13039, "name": "Deli", "short_name": "Deli", "plural_name": "Delis", "icon": {"prefix": "https://ss3.4sqi.net/img/categories_v2/food/deli_", "suffix": ".png"}}, {"id": 13145, "name": "Fast Food Restaurant", "short_name": "Fast Food", "plural_name": "Fast Food Restaurants", "icon": {"prefix": "https://ss3.4sqi.net/img/categories_v2/food/fastfood_", "suffix": ".png"}}, {"id": 13199, "name": "Indian Restaurant", "short_name": "Indian", "plural_name": "Indian Restaurants", "icon": {"prefix": "https://ss3.4sqi.net/img/categories_v2/food/indian_", "suffix": ".png"}}], "chains": [], "closed_bucket": "LikelyOpen", "distance": 883, "geocodes": {"drop_off": {"latitude": 55.837765, "longitude": -4.256983}, "main": {"latitude": 55.837772, "longitude": -4.257187}, "roof": {"latitude": 55.837772, "longitude": -4.257187}}, "link": "/v3/places/41839c120b14413b06c9508c", "location": {"address": "468 Cathcart Rd", "admin_region": "Scotland", "country": "GB", "formatted_address": "468 Cathcart Rd, Glasgow, G42 7BY", "locality": "Glasgow", "post_town": "Glasgow", "postcode": "G42 7BY"}, "name": "Desi Fast Foods", "related_places": {}, "timezone": "Europe/London"}, {"fsq_id": "63af5901c5841f5099bcec4f", "categories": [{"id": 13018, "name": "Pub", "short_name": "Pub", "plural_name": "Pubs", "icon": {"prefix": "https://ss3.4sqi.net/img/categories_v2/nightlife/pub_", "suffix": ".png"}}], "chains": [], "closed_bucket": "LikelyOpen", "distance": 896, "geocodes": {"drop_off": {"latitude": 55.834277, "longitude": -4.263634}, "main": {"latitude": 55.834136, "longitude": -4.26366}, "roof": {"latitude": 55.834136, "longitude": -4.26366}}, "link": "/v3/places/63af5901c5841f5099bcec4f", "location": {"address": "58 Albert Rd", "admin_region": "Scotland", "country": "GB", "cross_street": "", "formatted_address": "58 Albert Rd, Glasgow, Glasgow City, G42 8DN", "locality": "Glasgow", "post_town": "Glasgow", "postcode": "G42 8DN", "region": "Glasgow City"}, "name": "The Rose Reilly", "related_places": {}, "timezone": "Europe/London"}, {"fsq_id": "5b5701b22463d8004481da88", "categories": [{"id": 13034, "name": "Caf\u00e9", "short_name": "Caf\u00e9", "plural_name": "Caf\u00e9s", "icon": {"prefix": "https://ss3.4sqi.net/img/categories_v2/food/cafe_", "suffix": ".png"}}, {"id": 13035, "name": "Coffee Shop", "short_name": "Coffee Shop", "plural_name": "Coffee Shops", "icon": {"prefix": "https://ss3.4sqi.net/img/categories_v2/food/coffeeshop_", "suffix": ".png"}}, {"id": 13065, "name": "Restaurant", "short_name": "Restaurant", "plural_name": "Restaurants", "icon": {"prefix": "https://ss3.4sqi.net/img/categories_v2/food/default_", "suffix": ".png"}}], "chains": [], "closed_bucket": "VeryLikelyOpen", "distance": 954, "geocodes": {"main": {"latitude": 55.833646, "longitude": -4.275904}, "roof": {"latitude": 55.833646, "longitude": -4.275904}}, "link": "/v3/places/5b5701b22463d8004481da88", "location": {"address": "890 Pollokshaws Rd", "admin_region": "Scotland", "country": "GB", "cross_street": "", "formatted_address": "890 Pollokshaws Rd, Glasgow, Glasgow City, G41 2ET", "locality": "Glasgow", "post_town": "Glasgow", "postcode": "G41 2ET", "region": "Glasgow City"}, "name": "Wild Bean Caf\u00e9", "related_places": {"parent": {"fsq_id": "4c40ad807beab713b8639555", "categories": [{"id": 19007, "name": "Fuel Station", "short_name": "Fuel Station", "plural_name": "Fuel Stations", "icon": {"prefix": "https://ss3.4sqi.net/img/categories_v2/shops/gas_", "suffix": ".png"}}], "name": "Bp Pulse"}}, "timezone": "Europe/London"}, {"fsq_id": "9f251312360c47ca2c0beb44", "categories": [{"id": 13003, "name": "Bar", "short_name": "Bar", "plural_name": "Bars", "icon": {"prefix": "https://ss3.4sqi.net/img/categories_v2/nightlife/pub_", "suffix": ".png"}}], "chains": [], "closed_bucket": "Unsure", "distance": 959, "geocodes": {"main": {"latitude": 55.833626, "longitude": -4.263365}, "roof": {"latitude": 55.833626, "longitude": -4.263365}}, "link": "/v3/places/9f251312360c47ca2c0beb44", "location": {"address": "331 Langside Rd", "admin_region": "Scotland", "country": "GB", "formatted_address": "331 Langside Rd, Glasgow, G42 8XT", "locality": "Glasgow", "post_town": "Glasgow", "postcode": "G42 8XT"}, "name": "Albert Bar", "related_places": {}, "timezone": "Europe/London"}, {"fsq_id": "4df3944714954f21cf2ea7b5", "categories": [{"id": 13003, "name": "Bar", "short_name": "Bar", "plural_name": "Bars", "icon": {"prefix": "https://ss3.4sqi.net/img/categories_v2/nightlife/pub_", "suffix": ".png"}}], "chains": [], "closed_bucket": "LikelyOpen", "distance": 1098, "geocodes": {"main": {"latitude": 55.833264, "longitude": -4.276137}, "roof": {"latitude": 55.833264, "longitude": -4.276137}}, "link": "/v3/places/4df3944714954f21cf2ea7b5", "location": {"address": "962 Pollokshaws Rd", "admin_region": "Scotland", "country": "GB", "formatted_address": "962 Pollokshaws Rd, Glasgow, Glasgow City, G41 2ET", "locality": "Glasgow", "post_town": "Glasgow", "postcode": "G41 2ET", "region": "Glasgow City"}, "name": "The Bay Horse", "related_places": {}, "timezone": "Europe/London"}, {"fsq_id": "4c13d52a127f952127c02425", "categories": [{"id": 13145, "name": "Fast Food Restaurant", "short_name": "Fast Food", "plural_name": "Fast Food Restaurants", "icon": {"prefix": "https://ss3.4sqi.net/img/categories_v2/food/fastfood_", "suffix": ".png"}}, {"id": 13199, "name": "Indian Restaurant", "short_name": "Indian", "plural_name": "Indian Restaurants", "icon": {"prefix": "https://ss3.4sqi.net/img/categories_v2/food/indian_", "suffix": ".png"}}], "chains": [], "closed_bucket": "VeryLikelyOpen", "distance": 1187, "geocodes": {"main": {"latitude": 55.837388, "longitude": -4.262078}, "roof": {"latitude": 55.837388, "longitude": -4.262078}}, "link": "/v3/places/4c13d52a127f952127c02425", "location": {"address": "148 Calder St", "admin_region": "Scotland", "country": "GB", "cross_street": "Westmoreland St.", "formatted_address": "148 Calder St (Westmoreland St.), Glasgow, G42 7QP", "locality": "Glasgow", "post_town": "Glasgow", "postcode": "G42 7QP"}, "name": "Yadgar Kebab House", "related_places": {}, "timezone": "Europe/London"}, {"fsq_id": "b0888ef6ba41476e9feb7f5f", "categories": [{"id": 13145, "name": "Fast Food Restaurant", "short_name": "Fast Food", "plural_name": "Fast Food Restaurants", "icon": {"prefix": "https://ss3.4sqi.net/img/categories_v2/food/fastfood_", "suffix": ".png"}}], "chains": [], "closed_bucket": "Unsure", "distance": 495, "geocodes": {"drop_off": {"latitude": 55.843347, "longitude": -4.262346}, "main": {"latitude": 55.84342, "longitude": -4.262543}, "roof": {"latitude": 55.84342, "longitude": -4.262543}}, "link": "/v3/places/b0888ef6ba41476e9feb7f5f", "location": {"address": "666 Eglinton St", "admin_region": "Scotland", "country": "GB", "formatted_address": "666 Eglinton St, Glasgow, G5 9RP", "locality": "Glasgow", "post_town": "Glasgow", "postcode": "G5 9RP"}, "name": "Wingerz", "related_places": {}}, {"fsq_id": "0133dbe67b484a18d0cba71c", "categories": [{"id": 10000, "name": "Arts and Entertainment", "short_name": "Arts & Entertainment", "plural_name": "Arts and Entertainment", "icon": {"prefix": "https://ss3.4sqi.net/img/categories_v2/arts_entertainment/default_", "suffix": ".png"}}, {"id": 13003, "name": "Bar", "short_name": "Bar", "plural_name": "Bars", "icon": {"prefix": "https://ss3.4sqi.net/img/categories_v2/nightlife/pub_", "suffix": ".png"}}, {"id": 13065, "name": "Restaurant", "short_name": "Restaurant", "plural_name": "Restaurants", "icon": {"prefix": "https://ss3.4sqi.net/img/categories_v2/food/default_", "suffix": ".png"}}], "chains": [], "closed_bucket": "LikelyOpen", "distance": 510, "geocodes": {"drop_off": {"latitude": 55.836786, "longitude": -4.2696}, "main": {"latitude": 55.836901, "longitude": -4.269664}, "roof": {"latitude": 55.836901, "longitude": -4.269664}}, "link": "/v3/places/0133dbe67b484a18d0cba71c", "location": {"address": "657 Pollockshaws Rd", "admin_region": "Scotland", "country": "GB", "formatted_address": "657 Pollockshaws Rd, Glasgow, G41 2AB", "locality": "Glasgow", "post_town": "Glasgow", "postcode": "G41 2AB"}, "name": "Strathies", "related_places": {}}], "context": {"geo_bounds": {"circle": {"center": {"latitude": 55.841494, "longitude": -4.269701}, "radius": 1000}}}}