{"results": [{"fsq_id": "4bfcc91c4cf820a1e390ebf4", "categories": [{"id": 13236, "name": "Italian Restaurant", "short_name": "Italian", "plural_name": "Italian Restaurants", "icon": {"prefix": "https://ss3.4sqi.net/img/categories_v2/food/italian_", "suffix": ".png"}}], "chains": [], "closed_bucket": "LikelyOpen", "distance": 611, "geocodes": {"main": {"latitude": 55.827133, "longitude": -4.266318}, "roof": {"latitude": 55.827133, "longitude": -4.266318}}, "link": "/v3/places/4bfcc91c4cf820a1e390ebf4", "location": {"address": "55 Battlefield Rd", "admin_region": "Scotland", "country": "GB", "formatted_address": "55 Battlefield Rd, Glasgow, G42 9JL", "locality": "Glasgow", "post_town": "Glasgow", "postcode": "G42 9JL"}, "name": "Battlefield Rest", "related_places": {}, "timezone": "Europe/London"}, {"fsq_id": "5af6b5d1c876c8002cdb8a28", "categories": [{"id": 13035, "name": "Coffee Shop", "short_name": "Coffee Shop", "plural_name": "Coffee Shops", "icon": {"prefix": "https://ss3.4sqi.net/img/categories_v2/food/coffeeshop_", "suffix": ".png"}}, {"id": 13065, "name": "Restaurant", "short_name": "Restaurant", "plural_name": "Restaurants", "icon": {"prefix": "https://ss3.4sqi.net/img/categories_v2/food/default_", "suffix": ".png"}}], "chains": [], "closed_bucket": "LikelyOpen", "distance": 731, "geocodes": {"drop_off": {"latitude": 55.827276, "longitude": -4.268118}, "main": {"latitude": 55.827134, "longitude": -4.268139}, "roof": {"latitude": 55.827134, "longitude": -4.268139}}, "link": "/v3/places/5af6b5d1c876c8002cdb8a28", "location": {"address": "50 Battlefield Rd", "admin_region": "Scotland", "country": "GB", "cross_street": "", "formatted_address": "50 Battlefield Rd, Glasgow, Glasgow City, G42 9QF", "locality": "Glasgow", "post_town": "Glasgow", "postcode": "G42 9QF", "region": "Glasgow City"}, "name": "Grain and Grind", "related_places": {}, "timezone": "Europe/London"}, {"fsq_id": "4bf810775317a5931915ff7e", "categories": [{"id": 13347, "name": "Tapas Restaurant", "short_name": "Tapas", "plural_name": "Tapas Restaurants", "icon": {"prefix": "https://ss3.4sqi.net/img/categories_v2/food/tapas_", "suffix": ".png"}}], "chains": [], "closed_bucket": "VeryLikelyOpen", "distance": 529, "geocodes": {"main": {"latitude": 55.826447, "longitude": -4.265422}, "roof": {"latitude": 55.826447, "longitude": -4.265422}}, "link": "/v3/places/4bf810775317a5931915ff7e", "location": {"address": "138 Battlefield Rd", "admin_region": "Scotland", "country": "GB", "cross_street": "at Valeview Terr.", "formatted_address": "138 Battlefield Rd (at Valeview Terr.), Glasgow, Glasgow City, G42 9JT", "locality": "Glasgow", "post_town": "Glasgow", "postcode": "G42 9JT", "region": "Glasgow City"}, "name": "Tinto Tapas Bar", "related_places": {}, "timezone": "Europe/London"}, {"fsq_id": "51d6ce50498eda53c01ee49c", "categories": [{"id": 13177, "name": "Greek Restaurant", "short_name": "Greek", "plural_name": "Greek Restaurants", "icon": {"prefix": "https://ss3.4sqi.net/img/categories_v2/food/greek_", "suffix": ".png"}}], "chains": [], "closed_bucket": "VeryLikelyOpen", "distance": 652, "geocodes": {"drop_off": {"latitude": 55.826283, "longitude": -4.267343}, "main": {"latitude": 55.826381, "longitude": -4.267486}, "roof": {"latitude": 55.826381, "longitude": -4.267486}}, "link": "/v3/places/51d6ce50498eda53c01ee49c", "location": {"admin_region": "Scotland", "country": "GB", "cross_street": "", "formatted_address": "", "post_town": "Glasgow"}, "name": "Frousoulla's Greek Restaurant", "related_places": {}, "timezone": "Europe/London"}, {"fsq_id": "4bae5929f964a5201ea63be3", "categories": [{"id": 13003, "name": "Bar", "short_name": "Bar", "plural_name": "Bars", "icon": {"prefix": "https://ss3.4sqi.net/img/categories_v2/nightlife/pub_", "suffix": ".png"}}, {"id": 13057, "name": "Gastropub", "short_name": "Gastropub", "plural_name": "Gastropubs", "icon": {"prefix": "https://ss3.4sqi.net/img/categories_v2/food/gastropub_", "suffix": ".png"}}], "chains": [], "closed_bucket": "LikelyOpen", "distance": 237, "geocodes": {"main": {"latitude": 55.823189, "longitude": -4.25881}, "roof": {"latitude": 55.823189, "longitude": -4.25881}}, "link": "/v3/places/4bae5929f964a5201ea63be3", "location": {"address": "1153-1155 Cathcart Rd", "admin_region": "Scotland", "country": "GB", "formatted_address": "1153-1155 Cathcart Rd, Glasgow, Glasgow City, G42 9HB", "locality": "Glasgow", "post_town": "Glasgow", "postcode": "G42 9HB", "region": "Glasgow City"}, "name": "Clockwork Beer Co", "related_places": {}, "timezone": "Europe/London"}, {"fsq_id": "4ba55019f964a5207af938e3", "categories": [{"id": 13018, "name": "Pub", "short_name": "Pub", "plural_name": "Pubs", "icon": {"prefix": "https://ss3.4sqi.net/img/categories_v2/nightlife/pub_", "suffix": ".png"}}, {"id": 13065, "name": "Restaurant", "short_name": "Restaurant", "plural_name": "Restaurants", "icon": {"prefix": "https://ss3.4sqi.net/img/categories_v2/food/default_", "suffix": ".png"}}], "chains": [], "closed_bucket": "Unsure", "distance": 951, "geocodes": {"main": {"latitude": 55.827677, "longitude": -4.271553}, "roof": {"latitude": 55.827677, "longitude": -4.271553}}, "link": "/v3/places/4ba55019f964a5207af938e3", "location": {"address": "16 Algie St", "admin_region": "Scotland", "country": "GB", "formatted_address": "16 Algie St, Glasgow, Glasgow City, G41 3DJ", "locality": "Glasgow", "post_town": "Glasgow", "postcode": "G41 3DJ", "region": "Glasgow City"}, "name": "Church on the Hill", "related_places": {}, "timezone": "Europe/London"}, {"fsq_id": "4e36e8adb61cddd1cd4cd4c0", "categories": [{"id": 13199, "name": "Indian Restaurant", "short_name": "Indian", "plural_name": "Indian Restaurants", "icon": {"prefix": "https://ss3.4sqi.net/img/categories_v2/food/indian_", "suffix": ".png"}}], "chains": [], "closed_bucket": "VeryLikelyOpen", "distance": 303, "geocodes": {"main": {"latitude": 55.824909, "longitude": -4.261908}, "roof": {"latitude": 55.824909, "longitude": -4.261908}}, "link": "/v3/places/4e36e8adb61cddd1cd4cd4c0", "location": {"address": "250 Battlefield Rd", "admin_region": "Scotland", "country": "GB", "formatted_address": "250 Battlefield Rd, Glasgow, G42 9HU", "locality": "Glasgow", "post_town": "Glasgow", "postcode": "G42 9HU"}, "name": "Alishan Tandoori", "related_places": {}, "timezone": "Europe/London"}, {"fsq_id": "60fb34827f12bd23e97068f5", "categories": [{"id": 13031, "name": "Burger Joint", "short_name": "Burgers", "plural_name": "Burger Joints", "icon": {"prefix": "https://ss3.4sqi.net/img/categories_v2/food/burger_", "suffix": ".png"}}, {"id": 13145, "name": "Fast Food Restaurant", "short_name": "Fast Food", "plural_name": "Fast Food Restaurants", "icon": {"prefix": "https://ss3.4sqi.net/img/categories_v2/food/fastfood_", "suffix": ".png"}}], "chains": [{"id": "ab4a3530-d68a-012e-5619-003048cad9da", "name": "McDonald's"}], "closed_bucket": "VeryLikelyOpen", "distance": 912, "geocodes": {"main": {"latitude": 55.829946, "longitude": -4.246584}, "roof": {"latitude": 55.829946, "longitude": -4.246584}}, "link": "/v3/places/60fb34827f12bd23e97068f5", "location": {"address": "557 Prospecthill Rd", "admin_region": "Scotland", "country": "GB", "cross_street": "", "formatted_address": "557 Prospecthill Rd, Glasgow, G42 0AE", "locality": "Glasgow", "post_town": "Glasgow", "postcode": "G42 0AE"}, "name": "McDonald's", "related_places": {}, "timezone": "Europe/London"}, {"fsq_id": "4decae94b0fb8293f80c752a", "categories": [{"id": 13049, "name": "Diner", "short_name": "Diner", "plural_name": "Diners", "icon": {"prefix": "https://ss3.4sqi.net/img/categories_v2/food/diner_", "suffix": ".png"}}], "chains": [], "closed_bucket": "LikelyOpen", "distance": 43, "geocodes": {"drop_off": {"latitude": 55.825061, "longitude": -4.257016}, "main": {"latitude": 55.825093, "longitude": -4.256837}, "roof": {"latitude": 55.825093, "longitude": -4.256837}}, "link": "/v3/places/4decae94b0fb8293f80c752a", "location": {"address": "19 Carmunnock Rd", "admin_region": "Scotland", "country": "GB", "cross_street": "", "formatted_address": "19 Carmunnock Rd, Glasgow, Glasgow City", "locality": "Glasgow", "post_town": "Glasgow", "region": "Glasgow City"}, "name": "Cafe Amalfi", "related_places": {}, "timezone": "Europe/London"}, {"fsq_id": "4daf5b3efa8c123fa7ecba58", "categories": [{"id": 13145, "name": "Fast Food Restaurant", "short_name": "Fast Food", "plural_name": "Fast Food Restaurants", "icon": {"prefix": "https://ss3.4sqi.net/img/categories_v2/food/fastfood_", "suffix": ".png"}}, {"id": 13199, "name": "Indian Restaurant", "short_name": "Indian", "plural_name": "Indian Restaurants", "icon": {"prefix": "https://ss3.4sqi.net/img/categories_v2/food/indian_", "suffix": ".png"}}], "chains": [], "closed_bucket": "VeryLikelyOpen", "distance": 48, "geocodes": {"main": {"latitude": 55.825154, "longitude": -4.257609}, "roof": {"latitude": 55.825154, "longitude": -4.257609}}, "link": "/v3/places/4daf5b3efa8c123fa7ecba58", "location": {"address": "1154 Cathcart Rd", "admin_region": "Scotland", "country": "GB", "cross_street": "", "formatted_address": "1154 Cathcart Rd, Glasgow, Glasgow City, G42 9EG", "locality": "Glasgow", "post_town": "Glasgow", "postcode": "G42 9EG", "region": "Glasgow City"}, "name": "Lassani Tandoori Halal", "related_places": {}, "timezone": "Europe/London"}, {"fsq_id": "5aa2d6046c08d133ac75c700", "categories": [{"id": 13025, "name": "Wine Bar", "short_name": "Wine Bar", "plural_name": "Wine Bars", "icon": {"prefix": "https://ss3.4sqi.net/img/categories_v2/food/winery_", "suffix": ".png"}}, {"id": 13031, "name": "Burger Joint", "short_name": "Burgers", "plural_name": "Burger Joints", "icon": {"prefix": "https://ss3.4sqi.net/img/categories_v2/food/burger_", "suffix": ".png"}}, {"id": 13068, "name": "American Restaurant", "short_name": "American", "plural_name": "American Restaurants", "icon": {"prefix": "https://ss3.4sqi.net/img/categories_v2/food/default_", "suffix": ".png"}}], "chains": [], "closed_bucket": "VeryLikelyOpen", "distance": 69, "geocodes": {"drop_off": {"latitude": 55.826111, "longitude": -4.257507}, "main": {"latitude": 55.825883, "longitude": -4.257771}, "roof": {"latitude": 55.825883, "longitude": -4.257771}}, "link": "/v3/places/5aa2d6046c08d133ac75c700", "location": {"address": "1102 Cathcart Rd", "admin_region": "Scotland", "country": "GB", "cross_street": "", "formatted_address": "1102 Cathcart Rd, Glasgow, Glasgow City, G42 9EG", "locality": "Glasgow", "post_town": "Glasgow", "postcode": "G42 9EG", "region": "Glasgow City"}, "name": "Hoagies", "related_places": {}, "timezone": "Europe/London"}, {"fsq_id": "4c866fa374d7b60c0809a4d8", "categories": [{"id": 13199, "name": "Indian Restaurant", "short_name": "Indian", "plural_name": "Indian Restaurants", "icon": {"prefix": "https://ss3.4sqi.net/img/categories_v2/food/indian_", "suffix": ".png"}}], "chains": [], "closed_bucket": "VeryLikelyOpen", "distance": 100, "geocodes": {"main": {"latitude": 55.826144, "longitude": -4.257814}, "roof": {"latitude": 55.826144, "longitude": -4.257814}}, "link": "/v3/places/4c866fa374d7b60c0809a4d8", "location": {"address": "1096 Cathcart Rd", "admin_region": "Scotland", "country": "GB", "cross_street": "at Bolton Dr.", "formatted_address": "1096 Cathcart Rd (at Bolton Dr.), Glasgow, G42 9XW", "locality": "Glasgow", "post_town": "Glasgow", "postcode": "G42 9XW"}, "name": "Shezan Tandoori", "related_places": {}, "timezone": "Europe/London"}, {"fsq_id": "4c9647cc94a0236a2f7d9d12", "categories": [{"id": 13099, "name": "Chinese Restaurant", "short_name": "Chinese", "plural_name": "Chinese Restaurants", "icon": {"prefix": "https://ss3.4sqi.net/img/categories_v2/food/asian_", "suffix": ".png"}}], "chains": [], "closed_bucket": "VeryLikelyOpen", "distance": 166, "geocodes": {"main": {"latitude": 55.826354, "longitude": -4.255054}, "roof": {"latitude": 55.826354, "longitude": -4.255054}}, "link": "/v3/places/4c9647cc94a0236a2f7d9d12", "location": {"address": "13 Cumming Dr, Mount Florida", "admin_region": "Scotland", "country": "GB", "cross_street": "Mount Florida", "formatted_address": "13 Cumming Dr, Mount Florida (Mount Florida), Glasgow, Glasgow City, G42 9AE", "locality": "Glasgow", "post_town": "Glasgow", "postcode": "G42 9AE", "region": "Glasgow City"}, "name": "Good Choi's Cuisine", "related_places": {}, "timezone": "Europe/London"}, {"fsq_id": "4c76b8d3f247370434d363eb", "categories": [{"id": 13003, "name": "Bar", "short_name": "Bar", "plural_name": "Bars", "icon": {"prefix": "https://ss3.4sqi.net/img/categories_v2/nightlife/pub_", "suffix": ".png"}}], "chains": [], "closed_bucket": "LikelyOpen", "distance": 196, "geocodes": {"main": {"latitude": 55.824343, "longitude": -4.259825}, "roof": {"latitude": 55.824343, "longitude": -4.259825}}, "link": "/v3/places/4c76b8d3f247370434d363eb", "location": {"address": "318 Battlefield Rd", "admin_region": "Scotland", "country": "GB", "cross_street": "", "formatted_address": "318 Battlefield Rd, Glasgow, G42 9JD", "locality": "Glasgow", "post_town": "Glasgow", "postcode": "G42 9JD"}, "name": "The Florida Park", "related_places": {}, "timezone": "Europe/London"}, {"fsq_id": "d761d7e36d4242c93845adc4", "categories": [{"id": 13236, "name": "Italian Restaurant", "short_name": "Italian", "plural_name": "Italian Restaurants", "icon": {"prefix": "https://ss3.4sqi.net/img/categories_v2/food/italian_", "suffix": ".png"}}], "chains": [], "closed_bucket": "LikelyOpen", "distance": 232, "geocodes": {"drop_off": {"latitude": 55.827297, "longitude": -4.259157}, "main": {"latitude": 55.826952, "longitude": -4.259344}, "roof": {"latitude": 55.826952, "longitude": -4.259344}}, "link": "/v3/places/d761d7e36d4242c93845adc4", "location": {"address": "1021 Cathcart Rd", "admin_region": "Scotland", "country": "GB", "formatted_address": "1021 Cathcart Rd, Glasgow, Glasgow City, G42 9XJ", "locality": "Glasgow", "post_town": "Glasgow", "postcode": "G42 9XJ", "region": "Glasgow City"}, "name": "Meatballs Master", "related_places": {}, "timezone": "Europe/London"}, {"fsq_id": "4e554e5318a8e7aa2cd8614f", "categories": [{"id": 13145, "name": "Fast Food Restaurant", "short_name": "Fast Food", "plural_name": "Fast Food Restaurants", "icon": {"prefix": "https://ss3.4sqi.net/img/categories_v2/food/fastfood_", "suffix": ".png"}}], "chains": [], "closed_bucket": "VeryLikelyOpen", "distance": 234, "geocodes": {"main": {"latitude": 55.826976, "longitude": -4.258925}, "roof": {"latitude": 55.826976, "longitude": -4.258925}}, "link": "/v3/places/4e554e5318a8e7aa2cd8614f", "location": {"country": "GB", "cross_street": "", "formatted_address": ""}, "name": "Papa-G's Fish and Chips", "related_places": {}, "timezone": "Europe/London"}, {"fsq_id": "4e7223521495e4ca142bfff6", "categories": [{"id": 13034, "name": "Caf\u00e9", "short_name": "Caf\u00e9", "plural_name": "Caf\u00e9s", "icon": {"prefix": "https://ss3.4sqi.net/img/categories_v2/food/cafe_", "suffix": ".png"}}, {"id": 13035, "name": "Coffee Shop", "short_name": "Coffee Shop", "plural_name": "Coffee Shops", "icon": {"prefix": "https://ss3.4sqi.net/img/categories_v2/food/coffeeshop_", "suffix": ".png"}}, {"id": 13145, "name": "Fast Food Restaurant", "short_name": "Fast Food", "plural_name": "Fast Food Restaurants", "icon": {"prefix": "https://ss3.4sqi.net/img/categories_v2/food/fastfood_", "suffix": ".png"}}], "chains": [], "closed_bucket": "LikelyOpen", "distance": 250, "geocodes": {"main": {"latitude": 55.82711, "longitude": -4.259349}, "roof": {"latitude": 55.82711, "longitude": -4.259349}}, "link": "/v3/places/4e7223521495e4ca142bfff6", "location": {"address": "10 Clincart Rd", "admin_region": "Scotland", "country": "GB", "formatted_address": "10 Clincart Rd, Glasgow, G42 9DJ", "locality": "Glasgow", "post_town": "Glasgow", "postcode": "G42 9DJ"}, "name": "Loafers", "related_places": {}, "timezone": "Europe/London"}, {"fsq_id": "4f3e3169e4b0500b68105de7", "categories": [{"id": 11056, "name": "Food and Beverage Service", "short_name": "Food Service", "plural_name": "Food and Beverage Services", "icon": {"prefix": "https://ss3.4sqi.net/img/categories_v2/shops/foodanddrink_", "suffix": ".png"}}, {"id": 13040, "name": "Dessert Shop", "short_name": "Desserts", "plural_name": "Dessert Shops", "icon": {"prefix": "https://ss3.4sqi.net/img/categories_v2/food/dessert_", "suffix": ".png"}}, {"id": 13065, "name": "Restaurant", "short_name": "Restaurant", "plural_name": "Restaurants", "icon": {"prefix": "https://ss3.4sqi.net/img/categories_v2/food/default_", "suffix": ".png"}}], "chains": [], "closed_bucket": "VeryLikelyOpen", "distance": 252, "geocodes": {"main": {"latitude": 55.827031, "longitude": -4.258891}, "roof": {"latitude": 55.827031, "longitude": -4.258891}}, "link": "/v3/places/4f3e3169e4b0500b68105de7", "location": {"address": "1032 Cathcart Rd", "admin_region": "Scotland", "country": "GB", "cross_street": "", "formatted_address": "1032 Cathcart Rd, Glasgow, G42 9XW", "locality": "Glasgow", "post_town": "Glasgow", "postcode": "G42 9XW"}, "name": "Dream Cakes", "related_places": {}, "timezone": "Europe/London"}, {"fsq_id": "47ebfd3e88a54e79d7a48e40", "categories": [{"id": 13051, "name": "Fish and Chips Shop", "short_name": "Fish and Chips Shop", "plural_name": "Fish and Chips Shops", "icon": {"prefix": "https://ss3.4sqi.net/img/categories_v2/food/fishandchips_", "suffix": ".png"}}], "chains": [], "closed_bucket": "Unsure", "distance": 262, "geocodes": {"main": {"latitude": 55.827389, "longitude": -4.259077}, "roof": {"latitude": 55.827389, "longitude": -4.259077}}, "link": "/v3/places/47ebfd3e88a54e79d7a48e40", "location": {"address": "1027 Cathcart Rd", "admin_region": "Scotland", "country": "GB", "formatted_address": "1027 Cathcart Rd, Glasgow, G42 9XJ", "locality": "Glasgow", "post_town": "Glasgow", "postcode": "G42 9XJ"}, "name": "Papa G", "related_places": {}, "timezone": "Europe/London"}, {"fsq_id": "6209551803de4c178085244b", "categories": [{"id": 13003, "name": "Bar", "short_name": "Bar", "plural_name": "Bars", "icon": {"prefix": "https://ss3.4sqi.net/img/categories_v2/nightlife/pub_", "suffix": ".png"}}, {"id": 13068, "name": "American Restaurant", "short_name": "American", "plural_name": "American Restaurants", "icon": {"prefix": "https://ss3.4sqi.net/img/categories_v2/food/default_", "suffix": ".png"}}], "chains": [], "closed_bucket": "Unsure", "distance": 266, "geocodes": {"drop_off": {"latitude": 55.827326, "longitude": -4.25921}, "main": {"latitude": 55.827438, "longitude": -4.259149}, "roof": {"latitude": 55.827438, "longitude": -4.259149}}, "link": "/v3/places/6209551803de4c178085244b", "location": {"address": "1021 Cathcart Rd", "admin_region": "Scotland", "country": "GB", "cross_street": "", "formatted_address": "1021 Cathcart Rd, Glasgow, Glasgow City, G42 9XJ", "locality": "Glasgow", "post_town": "Glasgow", "postcode": "G42 9XJ", "region": "Glasgow City"}, "name": "Buck\u2019s Bar", "related_places": {}, "timezone": "Europe/London"}, {"fsq_id": "5cdff7ad6fd626002c3f880b", "categories": [{"id": 13034, "name": "Caf\u00e9", "short_name": "Caf\u00e9", "plural_name": "Caf\u00e9s", "icon": {"prefix": "https://ss3.4sqi.net/img/categories_v2/food/cafe_", "suffix": ".png"}}, {"id": 13035, "name": "Coffee Shop", "short_name": "Coffee Shop", "plural_name": "Coffee Shops", "icon": {"prefix": "https://ss3.4sqi.net/img/categories_v2/food/coffeeshop_", "suffix": ".png"}}, {"id": 13065, "name": "Restaurant", "short_name": "Restaurant", "plural_name": "Restaurants", "icon": {"prefix": "https://ss3.4sqi.net/img/categories_v2/food/default_", "suffix": ".png"}}], "chains": [], "closed_bucket": "LikelyOpen", "distance": 283, "geocodes": {"drop_off": {"latitude": 55.827754, "longitude": -4.259384}, "main": {"latitude": 55.827753, "longitude": -4.259159}, "roof": {"latitude": 55.827753, "longitude": -4.259159}}, "link": "/v3/places/5cdff7ad6fd626002c3f880b", "location": {"address": "1007 Cathcart Rd", "admin_region": "Scotland", "country": "GB", "cross_street": "", "formatted_address": "1007 Cathcart Rd, Glasgow, Glasgow City, G42 9XJ", "locality": "Glasgow", "post_town": "Glasgow", "postcode": "G42 9XJ", "region": "Glasgow City"}, "name": "Cafe Salmagundi", "related_places": {}, "timezone": "Europe/London"}, {"fsq_id": "4e9adaf28231878c159ca551", "categories": [{"id": 13145, "name": "Fast Food Restaurant", "short_name": "Fast Food", "plural_name": "Fast Food Restaurants", "icon": {"prefix": "https://ss3.4sqi.net/img/categories_v2/food/fastfood_", "suffix": ".png"}}, {"id": 13334, "name": "Sandwich Spot", "short_name": "Sandwich Spot", "plural_name": "Sandwich Spots", "icon": {"prefix": "https://ss3.4sqi.net/img/categories_v2/food/deli_", "suffix": ".png"}}], "chains": [], "closed_bucket": "VeryLikelyOpen", "distance": 301, "geocodes": {"main": {"latitude": 55.827596, "longitude": -4.259154}, "roof": {"latitude": 55.827596, "longitude": -4.259154}}, "link": "/v3/places/4e9adaf28231878c159ca551", "location": {"address": "1009 Cathcart Rd", "admin_region": "Scotland", "country": "GB", "cross_street": "", "formatted_address": "1009 Cathcart Rd, Glasgow, Glasgow City, G42 9XJ", "locality": "Glasgow", "post_town": "Glasgow", "postcode": "G42 9XJ", "region": "Glasgow City"}, "name": "New York Jacks", "related_places": {}, "timezone": "Europe/London"}, {"fsq_id": "52a3840c11d251e43167cb77", "categories": [{"id": 13099, "name": "Chinese Restaurant", "short_name": "Chinese", "plural_name": "Chinese Restaurants", "icon": {"prefix": "https://ss3.4sqi.net/img/categories_v2/food/asian_", "suffix": ".png"}}], "chains": [], "closed_bucket": "VeryLikelyOpen", "distance": 430, "geocodes": {"main": {"latitude": 55.82348, "longitude": -4.25094}, "roof": {"latitude": 55.82348, "longitude": -4.25094}}, "link": "/v3/places/52a3840c11d251e43167cb77", "location": {"country": "GB", "cross_street": "", "formatted_address": ""}, "name": "Lucky Garden", "related_places": {}, "timezone": "Europe/London"}, {"fsq_id": "60b3a51315095275b53785d1", "categories": [{"id": 13040, "name": "Dessert Shop", "short_name": "Desserts", "plural_name": "Dessert Shops", "icon": {"prefix": "https://ss3.4sqi.net/img/categories_v2/food/dessert_", "suffix": ".png"}}, {"id": 13065, "name": "Restaurant", "short_name": "Restaurant", "plural_name": "Restaurants", "icon": {"prefix": "https://ss3.4sqi.net/img/categories_v2/food/default_", "suffix": ".png"}}], "chains": [], "closed_bucket": "VeryLikelyOpen", "distance": 432, "geocodes": {"drop_off": {"latitude": 55.825632, "longitude": -4.264023}, "main": {"latitude": 55.825469, "longitude": -4.264096}, "roof": {"latitude": 55.825469, "longitude": -4.264096}}, "link": "/v3/places/60b3a51315095275b53785d1", "location": {"address": "192-194 Battlefield Rd", "admin_region": "Scotland", "country": "GB", "cross_street": "", "formatted_address": "192-194 Battlefield Rd, Glasgow, G42 9HN", "locality": "Glasgow", "post_town": "Glasgow", "postcode": "G42 9HN"}, "name": "Pure Munchied", "related_places": {}, "timezone": "Europe/London"}, {"fsq_id": "6151ef46c34ad50db6d92f73", "categories": [{"id": 13040, "name": "Dessert Shop", "short_name": "Desserts", "plural_name": "Dessert Shops", "icon": {"prefix": "https://ss3.4sqi.net/img/categories_v2/food/dessert_", "suffix": ".png"}}, {"id": 13065, "name": "Restaurant", "short_name": "Restaurant", "plural_name": "Restaurants", "icon": {"prefix": "https://ss3.4sqi.net/img/categories_v2/food/default_", "suffix": ".png"}}], "chains": [], "closed_bucket": "VeryLikelyOpen", "distance": 445, "geocodes": {"drop_off": {"latitude": 55.825667, "longitude": -4.264101}, "main": {"latitude": 55.825517, "longitude": -4.264168}, "roof": {"latitude": 55.825517, "longitude": -4.264168}}, "link": "/v3/places/6151ef46c34ad50db6d92f73", "location": {"address": "194 Battlefield Rd", "admin_region": "Scotland", "country": "GB", "cross_street": "Lochleven Street", "formatted_address": "194 Battlefield Rd (Lochleven Street), Glasgow, Glasgow City, G42 9HN", "locality": "Glasgow", "post_town": "Glasgow", "postcode": "G42 9HN", "region": "Glasgow City"}, "name": "Guilty", "related_places": {}, "timezone": "Europe/London"}, {"fsq_id": "5018f77de4b06fb71b57fa90", "categories": [{"id": 13034, "name": "Caf\u00e9", "short_name": "Caf\u00e9", "plural_name": "Caf\u00e9s", "icon": {"prefix": "https://ss3.4sqi.net/img/categories_v2/food/cafe_", "suffix": ".png"}}, {"id": 13065, "name": "Restaurant", "short_name": "Restaurant", "plural_name": "Restaurants", "icon": {"prefix": "https://ss3.4sqi.net/img/categories_v2/food/default_", "suffix": ".png"}}], "chains": [], "closed_bucket": "VeryLikelyOpen", "distance": 450, "geocodes": {"main": {"latitude": 55.822256, "longitude": -4.261302}, "roof": {"latitude": 55.822256, "longitude": -4.261302}}, "link": "/v3/places/5018f77de4b06fb71b57fa90", "location": {"address": "172 Holmlea Rd", "admin_region": "Scotland", "country": "GB", "cross_street": "", "formatted_address": "172 Holmlea Rd, Glasgow, G44 4BA", "locality": "Glasgow", "post_town": "Glasgow", "postcode": "G44 4BA"}, "name": "Cafe Royale", "related_places": {}, "timezone": "Europe/London"}, {"fsq_id": "4f7dffd6e4b0d0d3d0b78575", "categories": [{"id": 13099, "name": "Chinese Restaurant", "short_name": "Chinese", "plural_name": "Chinese Restaurants", "icon": {"prefix": "https://ss3.4sqi.net/img/categories_v2/food/asian_", "suffix": ".png"}}, {"id": 13145, "name": "Fast Food Restaurant", "short_name": "Fast Food", "plural_name": "Fast Food Restaurants", "icon": {"prefix": "https://ss3.4sqi.net/img/categories_v2/food/fastfood_", "suffix": ".png"}}], "chains": [], "closed_bucket": "VeryLikelyOpen", "distance": 454, "geocodes": {"main": {"latitude": 55.825657, "longitude": -4.264487}, "roof": {"latitude": 55.825657, "longitude": -4.264487}}, "link": "/v3/places/4f7dffd6e4b0d0d3d0b78575", "location": {"address": "5 Lochleven Rd", "admin_region": "Scotland", "country": "GB", "cross_street": "", "formatted_address": "5 Lochleven Rd, Glasgow, G42 9JU", "locality": "Glasgow", "post_town": "Glasgow", "postcode": "G42 9JU"}, "name": "Golden Dragon", "related_places": {}, "timezone": "Europe/London"}, {"fsq_id": "8f12beccb76340b1604a9d3c", "categories": [{"id": 13236, "name": "Italian Restaurant", "short_name": "Italian", "plural_name": "Italian Restaurants", "icon": {"prefix": "https://ss3.4sqi.net/img/categories_v2/food/italian_", "suffix": ".png"}}], "chains": [], "closed_bucket": "VeryLikelyOpen", "distance": 462, "geocodes": {"main": {"latitude": 55.825451, "longitude": -4.264411}, "roof": {"latitude": 55.825451, "longitude": -4.264411}}, "link": "/v3/places/8f12beccb76340b1604a9d3c", "location": {"address": "9 Lochleven Rd", "admin_region": "Scotland", "country": "GB", "formatted_address": "9 Lochleven Rd, Glasgow, G42 9JU", "locality": "Glasgow", "post_town": "Glasgow", "postcode": "G42 9JU"}, "name": "Trevi", "related_places": {}, "timezone": "Europe/London"}, {"fsq_id": "61222929076ec67cbd687f38", "categories": [{"id": 13035, "name": "Coffee Shop", "short_name": "Coffee Shop", "plural_name": "Coffee Shops", "icon": {"prefix": "https://ss3.4sqi.net/img/categories_v2/food/coffeeshop_", "suffix": ".png"}}, {"id": 13065, "name": "Restaurant", "short_name": "Restaurant", "plural_name": "Restaurants", "icon": {"prefix": "https://ss3.4sqi.net/img/categories_v2/food/default_", "suffix": ".png"}}], "chains": [], "closed_bucket": "Unsure", "distance": 467, "geocodes": {"main": {"latitude": 55.82576, "longitude": -4.264526}, "roof": {"latitude": 55.82576, "longitude": -4.264526}}, "link": "/v3/places/61222929076ec67cbd687f38", "location": {"address": "186 Battlefield Rd", "admin_region": "Scotland", "country": "GB", "cross_street": "", "formatted_address": "186 Battlefield Rd, Glasgow, Glasgow City, G42 9JT", "locality": "Glasgow", "post_town": "Glasgow", "postcode": "G42 9JT", "region": "Glasgow City"}, "name": "Common Ground", "related_places": {}, "timezone": "Europe/London"}, {"fsq_id": "49ef00967e96454e21ed9234", "categories": [{"id": 13003, "name": "Bar", "short_name": "Bar", "plural_name": "Bars", "icon": {"prefix": "https://ss3.4sqi.net/img/categories_v2/nightlife/pub_", "suffix": ".png"}}], "chains": [], "closed_bucket": "LikelyOpen", "distance": 513, "geocodes": {"main": {"latitude": 55.826149, "longitude": -4.265098}, "roof": {"latitude": 55.826149, "longitude": -4.265098}}, "link": "/v3/places/49ef00967e96454e21ed9234", "location": {"address": "160-162 Battlefield Rd", "admin_region": "Scotland", "country": "GB", "formatted_address": "160-162 Battlefield Rd, Glasgow, G42 9JT", "locality": "Glasgow", "post_town": "Glasgow", "postcode": "G42 9JT"}, "name": "The Mission Bar", "related_places": {}, "timezone": "Europe/London"}, {"fsq_id": "8f041b9cdcc646e6b0864769", "categories": [{"id": 13051, "name": "Fish and Chips Shop", "short_name": "Fish and Chips Shop", "plural_name": "Fish and Chips Shops", "icon": {"prefix": "https://ss3.4sqi.net/img/categories_v2/food/fishandchips_", "suffix": ".png"}}, {"id": 13145, "name": "Fast Food Restaurant", "short_name": "Fast Food", "plural_name": "Fast Food Restaurants", "icon": {"prefix": "https://ss3.4sqi.net/img/categories_v2/food/fastfood_", "suffix": ".png"}}], "chains": [], "closed_bucket": "Unsure", "distance": 513, "geocodes": {"main": {"latitude": 55.826149, "longitude": -4.265098}, "roof": {"latitude": 55.826149, "longitude": -4.265098}}, "link": "/v3/places/8f041b9cdcc646e6b0864769", "location": {"address": "118 Battlefield Rd", "admin_region": "Scotland", "country": "GB", "formatted_address": "118 Battlefield Rd, Glasgow, G42 9JT", "locality": "Glasgow", "post_town": "Glasgow", "postcode": "G42 9JT"}, "name": "Mr V's Fast Food", "related_places": {}, "timezone": "Europe/London"}, {"fsq_id": "4daf555c1e7264cc0e332f4e", "categories": [{"id": 13145, "name": "Fast Food Restaurant", "short_name": "Fast Food", "plural_name": "Fast Food Restaurants", "icon": {"prefix": "https://ss3.4sqi.net/img/categories_v2/food/fastfood_", "suffix": ".png"}}, {"id": 13199, "name": "Indian Restaurant", "short_name": "Indian", "plural_name": "Indian Restaurants", "icon": {"prefix": "https://ss3.4sqi.net/img/categories_v2/food/indian_", "suffix": ".png"}}], "chains": [], "closed_bucket": "Unsure", "distance": 519, "geocodes": {"main": {"latitude": 55.8238, "longitude": -4.249024}, "roof": {"latitude": 55.8238, "longitude": -4.249024}}, "link": "/v3/places/4daf555c1e7264cc0e332f4e", "location": {"address": "1003 Aikenhead Rd", "admin_region": "Scotland", "country": "GB", "cross_street": "", "formatted_address": "1003 Aikenhead Rd, Glasgow, Glasgow City, G44 4SF", "locality": "Glasgow", "post_town": "Glasgow", "postcode": "G44 4SF", "region": "Glasgow City"}, "name": "Barbecue Palace", "related_places": {}, "timezone": "Europe/London"}, {"fsq_id": "4eab3c1e00392665f787c9f8", "categories": [{"id": 13145, "name": "Fast Food Restaurant", "short_name": "Fast Food", "plural_name": "Fast Food Restaurants", "icon": {"prefix": "https://ss3.4sqi.net/img/categories_v2/food/fastfood_", "suffix": ".png"}}], "chains": [], "closed_bucket": "VeryLikelyOpen", "distance": 531, "geocodes": {"main": {"latitude": 55.826447, "longitude": -4.265422}, "roof": {"latitude": 55.826447, "longitude": -4.265422}}, "link": "/v3/places/4eab3c1e00392665f787c9f8", "location": {"address": "142 Battlefield Rd", "admin_region": "Scotland", "country": "GB", "formatted_address": "142 Battlefield Rd, Glasgow, G42 9JT", "locality": "Glasgow", "post_town": "Glasgow", "postcode": "G42 9JT"}, "name": "Persepolis Takeaway", "related_places": {}, "timezone": "Europe/London"}, {"fsq_id": "87a9784465bf44ddfeff8cbd", "categories": [{"id": 13035, "name": "Coffee Shop", "short_name": "Coffee Shop", "plural_name": "Coffee Shops", "icon": {"prefix": "https://ss3.4sqi.net/img/categories_v2/food/coffeeshop_", "suffix": ".png"}}, {"id": 13145, "name": "Fast Food Restaurant", "short_name": "Fast Food", "plural_name": "Fast Food Restaurants", "icon": {"prefix": "https://ss3.4sqi.net/img/categories_v2/food/fastfood_", "suffix": ".png"}}], "chains": [], "closed_bucket": "Unsure", "distance": 532, "geocodes": {"drop_off": {"latitude": 55.823855, "longitude": -4.249191}, "main": {"latitude": 55.823751, "longitude": -4.248953}, "roof": {"latitude": 55.823751, "longitude": -4.248953}}, "link": "/v3/places/87a9784465bf44ddfeff8cbd", "location": {"address": "1005 Aikenhead Rd", "admin_region": "Scotland", "country": "GB", "formatted_address": "1005 Aikenhead Rd, Glasgow, Glasgow City, G44 4SF", "locality": "Glasgow", "post_town": "Glasgow", "postcode": "G44 4SF", "region": "Glasgow City"}, "name": "The Coffee Shack", "related_places": {}, "timezone": "Europe/London"}, {"fsq_id": "4c2223e59a67a5934ef6db87", "categories": [{"id": 13018, "name": "Pub", "short_name": "Pub", "plural_name": "Pubs", "icon": {"prefix": "https://ss3.4sqi.net/img/categories_v2/nightlife/pub_", "suffix": ".png"}}, {"id": 13065, "name": "Restaurant", "short_name": "Restaurant", "plural_name": "Restaurants", "icon": {"prefix": "https://ss3.4sqi.net/img/categories_v2/food/default_", "suffix": ".png"}}], "chains": [], "closed_bucket": "VeryLikelyOpen", "distance": 556, "geocodes": {"main": {"latitude": 55.823502, "longitude": -4.2487}, "roof": {"latitude": 55.823502, "longitude": -4.2487}}, "link": "/v3/places/4c2223e59a67a5934ef6db87", "location": {"address": "156-164 Ardmay Crescent", "admin_region": "Scotland", "country": "GB", "cross_street": "", "formatted_address": "156-164 Ardmay Crescent, Glasgow, Glasgow City, G44 4PP", "locality": "Glasgow", "post_town": "Glasgow", "postcode": "G44 4PP", "region": "Glasgow City"}, "name": "Beechwood Tavern", "related_places": {}, "timezone": "Europe/London"}, {"fsq_id": "50030121e4b06d50188b0040", "categories": [{"id": 13051, "name": "Fish and Chips Shop", "short_name": "Fish and Chips Shop", "plural_name": "Fish and Chips Shops", "icon": {"prefix": "https://ss3.4sqi.net/img/categories_v2/food/fishandchips_", "suffix": ".png"}}, {"id": 13145, "name": "Fast Food Restaurant", "short_name": "Fast Food", "plural_name": "Fast Food Restaurants", "icon": {"prefix": "https://ss3.4sqi.net/img/categories_v2/food/fastfood_", "suffix": ".png"}}], "chains": [], "closed_bucket": "LikelyOpen", "distance": 578, "geocodes": {"drop_off": {"latitude": 55.826905, "longitude": -4.265825}, "main": {"latitude": 55.826732, "longitude": -4.265956}, "roof": {"latitude": 55.826732, "longitude": -4.265956}}, "link": "/v3/places/50030121e4b06d50188b0040", "location": {"address": "Battlefield Rd", "admin_region": "Scotland", "country": "GB", "cross_street": "", "formatted_address": "Battlefield Rd, Glasgow, Glasgow City", "locality": "Glasgow", "post_town": "Glasgow", "region": "Glasgow City"}, "name": "Mr V's", "related_places": {}, "timezone": "Europe/London"}, {"fsq_id": "9ad7da3940c94f76b3372009", "categories": [{"id": 13003, "name": "Bar", "short_name": "Bar", "plural_name": "Bars", "icon": {"prefix": "https://ss3.4sqi.net/img/categories_v2/nightlife/pub_", "suffix": ".png"}}], "chains": [], "closed_bucket": "Unsure", "distance": 588, "geocodes": {"drop_off": {"latitude": 55.823242, "longitude": -4.248395}, "main": {"latitude": 55.82315, "longitude": -4.24841}, "roof": {"latitude": 55.82315, "longitude": -4.24841}}, "link": "/v3/places/9ad7da3940c94f76b3372009", "location": {"address": "156-164 Ardmay Crescent", "admin_region": "Scotland", "country": "GB", "formatted_address": "156-164 Ardmay Crescent, Glasgow, G44 4PP", "locality": "Glasgow", "post_town": "Glasgow", "postcode": "G44 4PP"}, "name": "Maguire, Mary", "related_places": {}, "timezone": "Europe/London"}, {"fsq_id": "4ca7763ea6e08cfad9fa8494", "categories": [{"id": 13177, "name": "Greek Restaurant", "short_name": "Greek", "plural_name": "Greek Restaurants", "icon": {"prefix": "https://ss3.4sqi.net/img/categories_v2/food/greek_", "suffix": ".png"}}], "chains": [], "closed_bucket": "VeryLikelyOpen", "distance": 665, "geocodes": {"main": {"latitude": 55.826381, "longitude": -4.267486}, "roof": {"latitude": 55.826381, "longitude": -4.267486}}, "link": "/v3/places/4ca7763ea6e08cfad9fa8494", "location": {"address": "34 Sinclair Dr", "admin_region": "Scotland", "country": "GB", "cross_street": "", "formatted_address": "34 Sinclair Dr, Glasgow, G42 9QE", "locality": "Glasgow", "post_town": "Glasgow", "postcode": "G42 9QE"}, "name": "Greek Golden Kebab", "related_places": {}, "timezone": "Europe/London"}, {"fsq_id": "e5b4a76300214589694fff6c", "categories": [{"id": 13065, "name": "Restaurant", "short_name": "Restaurant", "plural_name": "Restaurants", "icon": {"prefix": "https://ss3.4sqi.net/img/categories_v2/food/default_", "suffix": ".png"}}], "chains": [], "closed_bucket": "VeryLikelyOpen", "distance": 669, "geocodes": {"drop_off": {"latitude": 55.826693, "longitude": -4.246735}, "main": {"latitude": 55.826681, "longitude": -4.246555}, "roof": {"latitude": 55.826681, "longitude": -4.246555}}, "link": "/v3/places/e5b4a76300214589694fff6c", "location": {"address": "899 Aikenhead Rd", "admin_region": "Scotland", "country": "GB", "formatted_address": "899 Aikenhead Rd, Glasgow, G42 0NT", "locality": "Glasgow", "post_town": "Glasgow", "postcode": "G42 0NT"}, "name": "Yum Chinese Takeaway", "related_places": {}, "timezone": "Europe/London"}, {"fsq_id": "51939472498e6951c3cb9485", "categories": [{"id": 10045, "name": "Pool Hall", "short_name": "Billiards", "plural_name": "Pool Halls", "icon": {"prefix": "https://ss3.4sqi.net/img/categories_v2/arts_entertainment/billiards_", "suffix": ".png"}}, {"id": 13022, "name": "Sports Bar", "short_name": "Sports Bar", "plural_name": "Sports Bars", "icon": {"prefix": "https://ss3.4sqi.net/img/categories_v2/nightlife/sportsbar_", "suffix": ".png"}}], "chains": [], "closed_bucket": "Unsure", "distance": 673, "geocodes": {"main": {"latitude": 55.824621, "longitude": -4.267853}, "roof": {"latitude": 55.824621, "longitude": -4.267853}}, "link": "/v3/places/51939472498e6951c3cb9485", "location": {"address": "130 Ledard Rd", "admin_region": "Scotland", "country": "GB", "cross_street": "", "formatted_address": "130 Ledard Rd, Glasgow, G42 9RA", "locality": "Glasgow", "post_town": "Glasgow", "postcode": "G42 9RA"}, "name": "The Ball Room", "related_places": {}, "timezone": "Europe/London"}, {"fsq_id": "4ba3c3b1f964a520c75c38e3", "categories": [{"id": 13003, "name": "Bar", "short_name": "Bar", "plural_name": "Bars", "icon": {"prefix": "https://ss3.4sqi.net/img/categories_v2/nightlife/pub_", "suffix": ".png"}}], "chains": [], "closed_bucket": "VeryLikelyOpen", "distance": 686, "geocodes": {"main": {"latitude": 55.82665, "longitude": -4.246169}, "roof": {"latitude": 55.82665, "longitude": -4.246169}}, "link": "/v3/places/4ba3c3b1f964a520c75c38e3", "location": {"country": "GB", "cross_street": "", "formatted_address": ""}, "name": "The Montford House", "related_places": {}, "timezone": "Europe/London"}, {"fsq_id": "ecdce768e2fd4f8964360dab", "categories": [{"id": 13065, "name": "Restaurant", "short_name": "Restaurant", "plural_name": "Restaurants", "icon": {"prefix": "https://ss3.4sqi.net/img/categories_v2/food/default_", "suffix": ".png"}}], "chains": [], "closed_bucket": "Unsure", "distance": 883, "geocodes": {"main": {"latitude": 55.817812, "longitude": -4.261587}, "roof": {"latitude": 55.817812, "longitude": -4.261587}}, "link": "/v3/places/ecdce768e2fd4f8964360dab", "location": {"address": "3-5 Clarkston Rd", "admin_region": "Scotland", "country": "GB", "formatted_address": "3-5 Clarkston Rd, Glasgow, Glasgow City, G44 4EF", "locality": "Glasgow", "post_town": "Glasgow", "postcode": "G44 4EF", "region": "Glasgow City"}, "name": "The Cellar Southside", "related_places": {}, "timezone": "Europe/London"}, {"fsq_id": "61e87190d6acc324e46b6f85", "categories": [{"id": 13065, "name": "Restaurant", "short_name": "Restaurant", "plural_name": "Restaurants", "icon": {"prefix": "https://ss3.4sqi.net/img/categories_v2/food/default_", "suffix": ".png"}}], "chains": [], "closed_bucket": "Unsure", "distance": 889, "geocodes": {"main": {"latitude": 55.817758, "longitude": -4.261621}, "roof": {"latitude": 55.817758, "longitude": -4.261621}}, "link": "/v3/places/61e87190d6acc324e46b6f85", "location": {"address": "3 Clarkston Rd", "admin_region": "Scotland", "country": "GB", "cross_street": "", "formatted_address": "3 Clarkston Rd, Glasgow, Glasgow City, G44 4EF", "locality": "Glasgow", "post_town": "Glasgow", "postcode": "G44 4EF", "region": "Glasgow City"}, "name": "Velvet Sparrow", "related_places": {}, "timezone": "Europe/London"}, {"fsq_id": "4ee8e23061afa438e1cbcf3d", "categories": [{"id": 13003, "name": "Bar", "short_name": "Bar", "plural_name": "Bars", "icon": {"prefix": "https://ss3.4sqi.net/img/categories_v2/nightlife/pub_", "suffix": ".png"}}], "chains": [], "closed_bucket": "VeryLikelyOpen", "distance": 929, "geocodes": {"main": {"latitude": 55.817394, "longitude": -4.26245}, "roof": {"latitude": 55.817394, "longitude": -4.26245}}, "link": "/v3/places/4ee8e23061afa438e1cbcf3d", "location": {"country": "GB", "cross_street": "", "formatted_address": "Glasgow, Glasgow City", "locality": "Glasgow", "post_town": "Glasgow", "region": "Glasgow City"}, "name": "Beechings", "related_places": {}, "timezone": "Europe/London"}, {"fsq_id": "53124e1911d2ef03eecedb37", "categories": [{"id": 13145, "name": "Fast Food Restaurant", "short_name": "Fast Food", "plural_name": "Fast Food Restaurants", "icon": {"prefix": "https://ss3.4sqi.net/img/categories_v2/food/fastfood_", "suffix": ".png"}}, {"id": 13199, "name": "Indian Restaurant", "short_name": "Indian", "plural_name": "Indian Restaurants", "icon": {"prefix": "https://ss3.4sqi.net/img/categories_v2/food/indian_", "suffix": ".png"}}], "chains": [], "closed_bucket": "Unsure", "distance": 954, "geocodes": {"main": {"latitude": 55.817882, "longitude": -4.249301}, "roof": {"latitude": 55.817882, "longitude": -4.249301}}, "link": "/v3/places/53124e1911d2ef03eecedb37", "location": {"address": "1117 Aikenhead Rd", "admin_region": "Scotland", "country": "GB", "cross_street": "", "formatted_address": "1117 Aikenhead Rd, Glasgow, Glasgow City, G44 5SL", "locality": "Glasgow", "post_town": "Glasgow", "postcode": "G44 5SL", "region": "Glasgow City"}, "name": "Natural Spice Fast Foods", "related_places": {}, "timezone": "Europe/London"}, {"fsq_id": "4dfa38ae2271faf21feed4a5", "categories": [{"id": 13051, "name": "Fish and Chips Shop", "short_name": "Fish and Chips Shop", "plural_name": "Fish and Chips Shops", "icon": {"prefix": "https://ss3.4sqi.net/img/categories_v2/food/fishandchips_", "suffix": ".png"}}, {"id": 13145, "name": "Fast Food Restaurant", "short_name": "Fast Food", "plural_name": "Fast Food Restaurants", "icon": {"prefix": "https://ss3.4sqi.net/img/categories_v2/food/fastfood_", "suffix": ".png"}}, {"id": 13338, "name": "Seafood Restaurant", "short_name": "Seafood", "plural_name": "Seafood Restaurants", "icon": {"prefix": "https://ss3.4sqi.net/img/categories_v2/food/seafood_", "suffix": ".png"}}], "chains": [], "closed_bucket": "LikelyOpen", "distance": 959, "geocodes": {"main": {"latitude": 55.817388, "longitude": -4.262555}, "roof": {"latitude": 55.817388, "longitude": -4.262555}}, "link": "/v3/places/4dfa38ae2271faf21feed4a5", "location": {"address": "243 Newlands Rd", "admin_region": "Scotland", "country": "GB", "cross_street": "", "formatted_address": "243 Newlands Rd, Glasgow, G44 4EJ", "locality": "Glasgow", "post_town": "Glasgow", "postcode": "G44 4EJ"}, "name": "White Cart Chippy", "related_places": {}, "timezone": "Europe/London"}, {"fsq_id": "54d60b69fda54f46668af376", "categories": [{"id": 13145, "name": "Fast Food Restaurant", "short_name": "Fast Food", "plural_name": "Fast Food Restaurants", "icon": {"prefix": "https://ss3.4sqi.net/img/categories_v2/food/fastfood_", "suffix": ".png"}}], "chains": [], "closed_bucket": "VeryLikelyOpen", "distance": 971, "geocodes": {"main": {"latitude": 55.834051, "longitude": -4.255918}, "roof": {"latitude": 55.834051, "longitude": -4.255918}}, "link": "/v3/places/54d60b69fda54f46668af376", "location": {"address": "661 Cathcart Rd", "admin_region": "Scotland", "country": "GB", "formatted_address": "661 Cathcart Rd, Glasgow, G42 8AP", "locality": "Glasgow", "post_town": "Glasgow", "postcode": "G42 8AP"}, "name": "Chicken Express", "related_places": {}, "timezone": "Europe/London"}, {"fsq_id": "4cb328b71168a093a3254023", "categories": [{"id": 13034, "name": "Caf\u00e9", "short_name": "Caf\u00e9", "plural_name": "Caf\u00e9s", "icon": {"prefix": "https://ss3.4sqi.net/img/categories_v2/food/cafe_", "suffix": ".png"}}, {"id": 13035, "name": "Coffee Shop", "short_name": "Coffee Shop", "plural_name": "Coffee Shops", "icon": {"prefix": "https://ss3.4sqi.net/img/categories_v2/food/coffeeshop_", "suffix": ".png"}}, {"id": 13334, "name": "Sandwich Spot", "short_name": "Sandwich Spot", "plural_name": "Sandwich Spots", "icon": {"prefix": "https://ss3.4sqi.net/img/categories_v2/food/deli_", "suffix": ".png"}}], "chains": [], "closed_bucket": "LikelyOpen", "distance": 975, "geocodes": {"drop_off": {"latitude": 55.81654, "longitude": -4.258269}, "main": {"latitude": 55.81659, "longitude": -4.258084}, "roof": {"latitude": 55.81659, "longitude": -4.258084}}, "link": "/v3/places/4cb328b71168a093a3254023", "location": {"address": "61 Old Castle Rd", "admin_region": "Scotland", "country": "GB", "cross_street": "", "formatted_address": "61 Old Castle Rd, Glasgow, Glasgow City, G44 5TG", "locality": "Glasgow", "post_town": "Glasgow", "postcode": "G44 5TG", "region": "Glasgow City"}, "name": "Cafe Castello", "related_places": {}, "timezone": "Europe/London"}, {"fsq_id": "921c9d8d67542d9364ca5d6b", "categories": [{"id": 11163, "name": "Shipping, Freight, and Material Transportation Service", "short_name": "Shipping Service", "plural_name": "Shipping, Freight, and Material Transportation Services", "icon": {"prefix": "https://ss3.4sqi.net/img/categories_v2/shops/default_", "suffix": ".png"}}, {"id": 13065, "name": "Restaurant", "short_name": "Restaurant", "plural_name": "Restaurants", "icon": {"prefix": "https://ss3.4sqi.net/img/categories_v2/food/default_", "suffix": ".png"}}], "chains": [], "closed_bucket": "LikelyOpen", "distance": 990, "geocodes": {"drop_off": {"latitude": 55.834147, "longitude": -4.256179}, "main": {"latitude": 55.834203, "longitude": -4.256028}, "roof": {"latitude": 55.834203, "longitude": -4.256028}}, "link": "/v3/places/921c9d8d67542d9364ca5d6b", "location": {"address": "651 Cathcart Rd", "admin_region": "Scotland", "country": "GB", "formatted_address": "651 Cathcart Rd, Glasgow, Glasgow City, G42 8AP", "locality": "Glasgow", "post_town": "Glasgow", "postcode": "G42 8AP", "region": "Glasgow City"}, "name": "DHL Express Service Point", "related_places": {}, "timezone": "Europe/London"}, {"fsq_id": "b7db5cf0a4a146d65e48b398", "categories": [{"id": 11076, "name": "Home Improvement Service", "short_name": "Home Improvement Service", "plural_name": "Home Improvement Services", "icon": {"prefix": "https://ss3.4sqi.net/img/categories_v2/shops/hardware_", "suffix": ".png"}}, {"id": 13046, "name": "Ice Cream Parlor", "short_name": "Ice Cream", "plural_name": "Ice Cream Parlors", "icon": {"prefix": "https://ss3.4sqi.net/img/categories_v2/food/icecream_", "suffix": ".png"}}, {"id": 13065, "name": "Restaurant", "short_name": "Restaurant", "plural_name": "Restaurants", "icon": {"prefix": "https://ss3.4sqi.net/img/categories_v2/food/default_", "suffix": ".png"}}, {"id": 17082, "name": "Furniture and Home Store", "short_name": "Furniture and Home Store", "plural_name": "Furniture and Home Stores", "icon": {"prefix": "https://ss3.4sqi.net/img/categories_v2/shops/furniture_", "suffix": ".png"}}], "chains": [], "closed_bucket": "LikelyOpen", "distance": 85, "geocodes": {"drop_off": {"latitude": 55.826012, "longitude": -4.257979}, "main": {"latitude": 55.825871, "longitude": -4.257981}, "roof": {"latitude": 55.825871, "longitude": -4.257981}}, "link": "/v3/places/b7db5cf0a4a146d65e48b398", "location": {"address": "7 Bolton Dr", "admin_region": "Scotland", "country": "GB", "formatted_address": "7 Bolton Dr, Glasgow, G42 9DX", "locality": "Glasgow", "post_town": "Glasgow", "postcode": "G42 9DX"}, "name": "Mount Florida Scoopalicious", "related_places": {}}], "context": {"geo_bounds": {"circle": {"center": {"latitude": 55.82533, "longitude": -4.257}, "radius": 1000}}}}