{"results": [{"fsq_id": "4bab4addf964a5204f9e3ae3", "categories": [{"id": 13102, "name": "Cantonese Restaurant", "short_name": "Cantonese", "plural_name": "Cantonese Restaurants", "icon": {"prefix": "https://ss3.4sqi.net/img/categories_v2/food/asian_", "suffix": ".png"}}, {"id": 13106, "name": "Dim Sum Restaurant", "short_name": "Dim Sum", "plural_name": "Dim Sum Restaurants", "icon": {"prefix": "https://ss3.4sqi.net/img/categories_v2/food/dimsum_", "suffix": ".png"}}], "chains": [], "closed_bucket": "VeryLikelyOpen", "distance": 94, "geocodes": {"main": {"latitude": 55.878664, "longitude": -4.255065}, "roof": {"latitude": 55.878664, "longitude": -4.255065}}, "link": "/v3/places/4bab4addf964a5204f9e3ae3", "location": {"address": "The Point, 29 Saracen St", "address_extended": "Unit 7", "admin_region": "Scotland", "country": "GB", "cross_street": "Saracen St at Possil Rd", "formatted_address": "The Point, 29 Saracen St (Saracen St at Possil Rd), Glasgow, Glasgow City, G22 5HT", "locality": "Glasgow", "post_town": "Glasgow", "postcode": "G22 5HT", "region": "Glasgow City"}, "name": "See Woo Restaurant", "related_places": {}, "timezone": "Europe/London"}, {"fsq_id": "4c5ea58a94fd0f4751b8ce45", "categories": [{"id": 13034, "name": "Caf\u00e9", "short_name": "Caf\u00e9", "plural_name": "Caf\u00e9s", "icon": {"prefix": "https://ss3.4sqi.net/img/categories_v2/food/cafe_", "suffix": ".png"}}, {"id": 13065, "name": "Restaurant", "short_name": "Restaurant", "plural_name": "Restaurants", "icon": {"prefix": "https://ss3.4sqi.net/img/categories_v2/food/default_", "suffix": ".png"}}], "chains": [], "closed_bucket": "VeryLikelyOpen", "distance": 657, "geocodes": {"main": {"latitude": 55.872206, "longitude": -4.257498}, "roof": {"latitude": 55.872206, "longitude": -4.257498}}, "link": "/v3/places/4c5ea58a94fd0f4751b8ce45", "location": {"address": "8 Speirs Wharf", "admin_region": "Scotland", "country": "GB", "cross_street": "", "formatted_address": "8 Speirs Wharf, Glasgow, G4 9TB", "locality": "Glasgow", "post_town": "Glasgow", "postcode": "G4 9TB"}, "name": "Ocho", "related_places": {}, "timezone": "Europe/London"}, {"fsq_id": "456b40e524de43f1395ed2e6", "categories": [{"id": 13003, "name": "Bar", "short_name": "Bar", "plural_name": "Bars", "icon": {"prefix": "https://ss3.4sqi.net/img/categories_v2/nightlife/pub_", "suffix": ".png"}}], "chains": [], "closed_bucket": "Unsure", "distance": 115, "geocodes": {"main": {"latitude": 55.876893, "longitude": -4.255642}, "roof": {"latitude": 55.876893, "longitude": -4.255642}}, "link": "/v3/places/456b40e524de43f1395ed2e6", "location": {"address": "302-306 Possil Rd, Port Dundas", "admin_region": "Scotland", "country": "GB", "formatted_address": "302-306 Possil Rd, Port Dundas, Glasgow, G4 9SX", "locality": "Glasgow", "post_town": "Glasgow", "postcode": "G4 9SX"}, "name": "The Rock Tavern", "related_places": {}, "timezone": "Europe/London"}, {"fsq_id": "50879688e4b0b6701decda02", "categories": [{"id": 13034, "name": "Caf\u00e9", "short_name": "Caf\u00e9", "plural_name": "Caf\u00e9s", "icon": {"prefix": "https://ss3.4sqi.net/img/categories_v2/food/cafe_", "suffix": ".png"}}, {"id": 13035, "name": "Coffee Shop", "short_name": "Coffee Shop", "plural_name": "Coffee Shops", "icon": {"prefix": "https://ss3.4sqi.net/img/categories_v2/food/coffeeshop_", "suffix": ".png"}}, {"id": 13065, "name": "Restaurant", "short_name": "Restaurant", "plural_name": "Restaurants", "icon": {"prefix": "https://ss3.4sqi.net/img/categories_v2/food/default_", "suffix": ".png"}}], "chains": [], "closed_bucket": "LikelyOpen", "distance": 371, "geocodes": {"main": {"latitude": 55.874667, "longitude": -4.25589}, "roof": {"latitude": 55.874667, "longitude": -4.25589}}, "link": "/v3/places/50879688e4b0b6701decda02", "location": {"address": "2b Eagle St", "admin_region": "Scotland", "country": "GB", "cross_street": "", "formatted_address": "2b Eagle St, Glasgow, G4 9XA", "locality": "Glasgow", "post_town": "Glasgow", "postcode": "G4 9XA"}, "name": "Up on the Hill", "related_places": {}, "timezone": "Europe/London"}, {"fsq_id": "506e24a8e4b0eefb578681b8", "categories": [{"id": 13018, "name": "Pub", "short_name": "Pub", "plural_name": "Pubs", "icon": {"prefix": "https://ss3.4sqi.net/img/categories_v2/nightlife/pub_", "suffix": ".png"}}], "chains": [], "closed_bucket": "VeryLikelyOpen", "distance": 394, "geocodes": {"drop_off": {"latitude": 55.876786, "longitude": -4.248642}, "main": {"latitude": 55.876923, "longitude": -4.248633}, "roof": {"latitude": 55.876923, "longitude": -4.248633}}, "link": "/v3/places/506e24a8e4b0eefb578681b8", "location": {"address": "480 Keppochhill Rd", "country": "GB", "cross_street": "", "formatted_address": "480 Keppochhill Rd, Glasgow, Glasgow City", "locality": "Glasgow", "post_town": "Glasgow", "region": "Glasgow City"}, "name": "Pinkston Bar", "related_places": {}, "timezone": "Europe/London"}, {"fsq_id": "6006cfe473a84d676725a518", "categories": [{"id": 13065, "name": "Restaurant", "short_name": "Restaurant", "plural_name": "Restaurants", "icon": {"prefix": "https://ss3.4sqi.net/img/categories_v2/food/default_", "suffix": ".png"}}], "chains": [], "closed_bucket": "LikelyOpen", "distance": 403, "geocodes": {"drop_off": {"latitude": 55.876781, "longitude": -4.248568}, "main": {"latitude": 55.876875, "longitude": -4.248562}, "roof": {"latitude": 55.876875, "longitude": -4.248562}}, "link": "/v3/places/6006cfe473a84d676725a518", "location": {"address": "476 Keppochhill Rd", "admin_region": "Scotland", "country": "GB", "formatted_address": "476 Keppochhill Rd, Glasgow, G21 1JE", "locality": "Glasgow", "post_town": "Glasgow", "postcode": "G21 1JE"}, "name": "Deli Darbar", "related_places": {}, "timezone": "Europe/London"}, {"fsq_id": "0f376404d2364df8ef029c44", "categories": [{"id": 13003, "name": "Bar", "short_name": "Bar", "plural_name": "Bars", "icon": {"prefix": "https://ss3.4sqi.net/img/categories_v2/nightlife/pub_", "suffix": ".png"}}], "chains": [], "closed_bucket": "LikelyOpen", "distance": 456, "geocodes": {"main": {"latitude": 55.876601, "longitude": -4.247817}, "roof": {"latitude": 55.876601, "longitude": -4.247817}}, "link": "/v3/places/0f376404d2364df8ef029c44", "location": {"address": "445 Keppochhill Rd", "admin_region": "Scotland", "country": "GB", "formatted_address": "445 Keppochhill Rd, Glasgow, G21 1HY", "locality": "Glasgow", "post_town": "Glasgow", "postcode": "G21 1HY"}, "name": "Bensons Bar", "related_places": {}, "timezone": "Europe/London"}, {"fsq_id": "4c993a52d14d4dfbb7d9ff02", "categories": [{"id": 13145, "name": "Fast Food Restaurant", "short_name": "Fast Food", "plural_name": "Fast Food Restaurants", "icon": {"prefix": "https://ss3.4sqi.net/img/categories_v2/food/fastfood_", "suffix": ".png"}}], "chains": [], "closed_bucket": "LikelyOpen", "distance": 476, "geocodes": {"main": {"latitude": 55.88209, "longitude": -4.254083}, "roof": {"latitude": 55.88209, "longitude": -4.254083}}, "link": "/v3/places/4c993a52d14d4dfbb7d9ff02", "location": {"address": "150 Saracen St", "admin_region": "Scotland", "country": "GB", "formatted_address": "150 Saracen St, Glasgow, G22 5AS", "locality": "Glasgow", "post_town": "Glasgow", "postcode": "G22 5AS"}, "name": "Happy Date", "related_places": {}, "timezone": "Europe/London"}, {"fsq_id": "5638ff9060b2753ece75b96f", "categories": [{"id": 13051, "name": "Fish and Chips Shop", "short_name": "Fish and Chips Shop", "plural_name": "Fish and Chips Shops", "icon": {"prefix": "https://ss3.4sqi.net/img/categories_v2/food/fishandchips_", "suffix": ".png"}}], "chains": [], "closed_bucket": "VeryLikelyOpen", "distance": 540, "geocodes": {"main": {"latitude": 55.882515, "longitude": -4.254025}, "roof": {"latitude": 55.882515, "longitude": -4.254025}}, "link": "/v3/places/5638ff9060b2753ece75b96f", "location": {"address": "174-176 Saracen St", "admin_region": "Scotland", "country": "GB", "formatted_address": "174-176 Saracen St, Glasgow, G22 5EP", "locality": "Glasgow", "post_town": "Glasgow", "postcode": "G22 5EP"}, "name": "The Flying Haggis", "related_places": {}, "timezone": "Europe/London"}, {"fsq_id": "00632108c4b64e80d4351588", "categories": [{"id": 13064, "name": "Pizzeria", "short_name": "Pizza", "plural_name": "Pizzerias", "icon": {"prefix": "https://ss3.4sqi.net/img/categories_v2/food/pizza_", "suffix": ".png"}}], "chains": [], "closed_bucket": "VeryLikelyOpen", "distance": 555, "geocodes": {"main": {"latitude": 55.874363, "longitude": -4.261243}, "roof": {"latitude": 55.874363, "longitude": -4.261243}}, "link": "/v3/places/00632108c4b64e80d4351588", "location": {"address": "6 Possil Rd", "admin_region": "Scotland", "country": "GB", "formatted_address": "6 Possil Rd, Glasgow, G4 9SY", "locality": "Glasgow", "post_town": "Glasgow", "postcode": "G4 9SY"}, "name": "Rockvilla Pizza", "related_places": {}, "timezone": "Europe/London"}, {"fsq_id": "5510a9ae8f06496ffec9c5de", "categories": [{"id": 13065, "name": "Restaurant", "short_name": "Restaurant", "plural_name": "Restaurants", "icon": {"prefix": "https://ss3.4sqi.net/img/categories_v2/food/default_", "suffix": ".png"}}], "chains": [], "closed_bucket": "VeryLikelyOpen", "distance": 563, "geocodes": {"drop_off": {"latitude": 55.872516, "longitude": -4.255658}, "main": {"latitude": 55.872781, "longitude": -4.255728}, "roof": {"latitude": 55.872781, "longitude": -4.255728}}, "link": "/v3/places/5510a9ae8f06496ffec9c5de", "location": {"address": "100 High Craighall Rd", "country": "GB", "formatted_address": "100 High Craighall Rd, Glasgow, Glasgow City", "locality": "Glasgow", "post_town": "Glasgow", "region": "Glasgow City"}, "name": "C7 Conference Centre", "related_places": {}, "timezone": "Europe/London"}, {"fsq_id": "958612a04b90407058b4bf44", "categories": [{"id": 13065, "name": "Restaurant", "short_name": "Restaurant", "plural_name": "Restaurants", "icon": {"prefix": "https://ss3.4sqi.net/img/categories_v2/food/default_", "suffix": ".png"}}], "chains": [], "closed_bucket": "VeryLikelyOpen", "distance": 606, "geocodes": {"drop_off": {"latitude": 55.883265, "longitude": -4.254254}, "main": {"latitude": 55.88328, "longitude": -4.254469}, "roof": {"latitude": 55.88328, "longitude": -4.254469}}, "link": "/v3/places/958612a04b90407058b4bf44", "location": {"address": "219 Saracen St", "admin_region": "Scotland", "country": "GB", "formatted_address": "219 Saracen St, Glasgow, G22 5JW", "locality": "Glasgow", "post_town": "Glasgow", "postcode": "G22 5JW"}, "name": "Star Curry House", "related_places": {}, "timezone": "Europe/London"}, {"fsq_id": "51758337498edd74ea9ed65e", "categories": [{"id": 13099, "name": "Chinese Restaurant", "short_name": "Chinese", "plural_name": "Chinese Restaurants", "icon": {"prefix": "https://ss3.4sqi.net/img/categories_v2/food/asian_", "suffix": ".png"}}], "chains": [], "closed_bucket": "VeryLikelyOpen", "distance": 614, "geocodes": {"main": {"latitude": 55.874472, "longitude": -4.261177}, "roof": {"latitude": 55.874472, "longitude": -4.261177}}, "link": "/v3/places/51758337498edd74ea9ed65e", "location": {"address": "6 Possil Rd", "admin_region": "Scotland", "country": "GB", "cross_street": "", "formatted_address": "6 Possil Rd, Glasgow, G4 9SY", "locality": "Glasgow", "post_town": "Glasgow", "postcode": "G4 9SY"}, "name": "Golden Palace Malaysian Chinese Restaurant", "related_places": {}, "timezone": "Europe/London"}, {"fsq_id": "1e93c55c6e1347e3b1ab70dc", "categories": [{"id": 13003, "name": "Bar", "short_name": "Bar", "plural_name": "Bars", "icon": {"prefix": "https://ss3.4sqi.net/img/categories_v2/nightlife/pub_", "suffix": ".png"}}], "chains": [], "closed_bucket": "Unsure", "distance": 618, "geocodes": {"main": {"latitude": 55.883364, "longitude": -4.253911}, "roof": {"latitude": 55.883364, "longitude": -4.253911}}, "link": "/v3/places/1e93c55c6e1347e3b1ab70dc", "location": {"address": "248 Saracen St", "admin_region": "Scotland", "country": "GB", "formatted_address": "248 Saracen St, Glasgow, G22 5ER", "locality": "Glasgow", "post_town": "Glasgow", "postcode": "G22 5ER"}, "name": "Strathmore Taverns", "related_places": {}, "timezone": "Europe/London"}, {"fsq_id": "c844d3b749e54af9127544e8", "categories": [{"id": 13145, "name": "Fast Food Restaurant", "short_name": "Fast Food", "plural_name": "Fast Food Restaurants", "icon": {"prefix": "https://ss3.4sqi.net/img/categories_v2/food/fastfood_", "suffix": ".png"}}], "chains": [], "closed_bucket": "LikelyOpen", "distance": 643, "geocodes": {"main": {"latitude": 55.883608, "longitude": -4.25518}, "roof": {"latitude": 55.883608, "longitude": -4.25518}}, "link": "/v3/places/c844d3b749e54af9127544e8", "location": {"address": "137 Bardowie St", "admin_region": "Scotland", "country": "GB", "formatted_address": "137 Bardowie St, Glasgow, G22 5QJ", "locality": "Glasgow", "post_town": "Glasgow", "postcode": "G22 5QJ"}, "name": "China Hut", "related_places": {}, "timezone": "Europe/London"}, {"fsq_id": "4eb92b06775b544c28daad25", "categories": [{"id": 13034, "name": "Caf\u00e9", "short_name": "Caf\u00e9", "plural_name": "Caf\u00e9s", "icon": {"prefix": "https://ss3.4sqi.net/img/categories_v2/food/cafe_", "suffix": ".png"}}, {"id": 13035, "name": "Coffee Shop", "short_name": "Coffee Shop", "plural_name": "Coffee Shops", "icon": {"prefix": "https://ss3.4sqi.net/img/categories_v2/food/coffeeshop_", "suffix": ".png"}}, {"id": 13065, "name": "Restaurant", "short_name": "Restaurant", "plural_name": "Restaurants", "icon": {"prefix": "https://ss3.4sqi.net/img/categories_v2/food/default_", "suffix": ".png"}}], "chains": [], "closed_bucket": "LikelyOpen", "distance": 654, "geocodes": {"drop_off": {"latitude": 55.872624, "longitude": -4.259854}, "main": {"latitude": 55.872663, "longitude": -4.259649}, "roof": {"latitude": 55.872663, "longitude": -4.259649}}, "link": "/v3/places/4eb92b06775b544c28daad25", "location": {"admin_region": "Scotland", "country": "GB", "cross_street": "", "formatted_address": "", "post_town": "Glasgow"}, "name": "Octavia Cafe", "related_places": {}, "timezone": "Europe/London"}, {"fsq_id": "56c07a36cd10a98e1199b1d2", "categories": [{"id": 13016, "name": "Lounge", "short_name": "Lounge", "plural_name": "Lounges", "icon": {"prefix": "https://ss3.4sqi.net/img/categories_v2/nightlife/default_", "suffix": ".png"}}], "chains": [], "closed_bucket": "LikelyOpen", "distance": 663, "geocodes": {"drop_off": {"latitude": 55.883774, "longitude": -4.252234}, "main": {"latitude": 55.883617, "longitude": -4.252236}, "roof": {"latitude": 55.883617, "longitude": -4.252236}}, "link": "/v3/places/56c07a36cd10a98e1199b1d2", "location": {"address": "83-85 Bardowie St", "admin_region": "Scotland", "country": "GB", "cross_street": "", "formatted_address": "83-85 Bardowie St, Glasgow, G22 5ET", "locality": "Glasgow", "post_town": "Glasgow", "postcode": "G22 5ET"}, "name": "Possilpark Masonic Social Club", "related_places": {}, "timezone": "Europe/London"}, {"fsq_id": "50bf5029e4b0a83667803d4a", "categories": [{"id": 13034, "name": "Caf\u00e9", "short_name": "Caf\u00e9", "plural_name": "Caf\u00e9s", "icon": {"prefix": "https://ss3.4sqi.net/img/categories_v2/food/cafe_", "suffix": ".png"}}, {"id": 13035, "name": "Coffee Shop", "short_name": "Coffee Shop", "plural_name": "Coffee Shops", "icon": {"prefix": "https://ss3.4sqi.net/img/categories_v2/food/coffeeshop_", "suffix": ".png"}}, {"id": 13065, "name": "Restaurant", "short_name": "Restaurant", "plural_name": "Restaurants", "icon": {"prefix": "https://ss3.4sqi.net/img/categories_v2/food/default_", "suffix": ".png"}}], "chains": [], "closed_bucket": "Unsure", "distance": 680, "geocodes": {"drop_off": {"latitude": 55.88395, "longitude": -4.254813}, "main": {"latitude": 55.884159, "longitude": -4.254741}, "roof": {"latitude": 55.884159, "longitude": -4.254741}}, "link": "/v3/places/50bf5029e4b0a83667803d4a", "location": {"address": "18 Balmore Rd", "admin_region": "Scotland", "country": "GB", "cross_street": "", "formatted_address": "18 Balmore Rd, Glasgow, G22 6RN", "locality": "Glasgow", "post_town": "Glasgow", "postcode": "G22 6RN"}, "name": "Ambers Cafe", "related_places": {}, "timezone": "Europe/London"}, {"fsq_id": "6314b1c9748c5836137f8a68", "categories": [{"id": 13029, "name": "Brewery", "short_name": "Brewery", "plural_name": "Breweries", "icon": {"prefix": "https://ss3.4sqi.net/img/categories_v2/food/brewery_", "suffix": ".png"}}], "chains": [], "closed_bucket": "VeryLikelyOpen", "distance": 717, "geocodes": {"drop_off": {"latitude": 55.871374, "longitude": -4.252052}, "main": {"latitude": 55.871564, "longitude": -4.252116}, "roof": {"latitude": 55.871564, "longitude": -4.252116}}, "link": "/v3/places/6314b1c9748c5836137f8a68", "location": {"address": "3A Payne St", "country": "GB", "cross_street": "", "formatted_address": "3A Payne St, Glasgow, Glasgow City", "locality": "Glasgow", "post_town": "Glasgow", "region": "Glasgow City"}, "name": "Epochal Barrel-Fermented Ales", "related_places": {}, "timezone": "Europe/London"}, {"fsq_id": "5a7e05579e3b65599a77df6a", "categories": [{"id": 13065, "name": "Restaurant", "short_name": "Restaurant", "plural_name": "Restaurants", "icon": {"prefix": "https://ss3.4sqi.net/img/categories_v2/food/default_", "suffix": ".png"}}], "chains": [], "closed_bucket": "LikelyOpen", "distance": 744, "geocodes": {"drop_off": {"latitude": 55.884463, "longitude": -4.256681}, "main": {"latitude": 55.884404, "longitude": -4.256922}, "roof": {"latitude": 55.884404, "longitude": -4.256922}}, "link": "/v3/places/5a7e05579e3b65599a77df6a", "location": {"address": "7 Sunny Law Pl", "admin_region": "Scotland", "country": "GB", "cross_street": "", "formatted_address": "7 Sunny Law Pl, Glasgow City, G22 6AF", "locality": "Glasgow City", "post_town": "Glasgow", "postcode": "G22 6AF", "region": "Glasgow City"}, "name": "Italiano and pizza restaurant", "related_places": {}, "timezone": "Europe/London"}, {"fsq_id": "5130c37fe4b08725f8b3b343", "categories": [{"id": 13065, "name": "Restaurant", "short_name": "Restaurant", "plural_name": "Restaurants", "icon": {"prefix": "https://ss3.4sqi.net/img/categories_v2/food/default_", "suffix": ".png"}}], "chains": [], "closed_bucket": "VeryLikelyOpen", "distance": 748, "geocodes": {"main": {"latitude": 55.872896, "longitude": -4.262951}, "roof": {"latitude": 55.872896, "longitude": -4.262951}}, "link": "/v3/places/5130c37fe4b08725f8b3b343", "location": {"country": "GB", "cross_street": "", "formatted_address": ""}, "name": "The Fraser Building", "related_places": {}, "timezone": "Europe/London"}, {"fsq_id": "5638ffa460b2753ece75bb3f", "categories": [{"id": 13065, "name": "Restaurant", "short_name": "Restaurant", "plural_name": "Restaurants", "icon": {"prefix": "https://ss3.4sqi.net/img/categories_v2/food/default_", "suffix": ".png"}}], "chains": [], "closed_bucket": "VeryLikelyOpen", "distance": 801, "geocodes": {"main": {"latitude": 55.884926, "longitude": -4.257008}, "roof": {"latitude": 55.884926, "longitude": -4.257008}}, "link": "/v3/places/5638ffa460b2753ece75bb3f", "location": {"address": "7 Sunny Law St", "admin_region": "Scotland", "country": "GB", "formatted_address": "7 Sunny Law St, Glasgow, G22 6AF", "locality": "Glasgow", "post_town": "Glasgow", "postcode": "G22 6AF"}, "name": "Sunny Law Tandoori", "related_places": {}, "timezone": "Europe/London"}, {"fsq_id": "8ba5c24ca1164a36c30833c1", "categories": [{"id": 10000, "name": "Arts and Entertainment", "short_name": "Arts & Entertainment", "plural_name": "Arts and Entertainment", "icon": {"prefix": "https://ss3.4sqi.net/img/categories_v2/arts_entertainment/default_", "suffix": ".png"}}, {"id": 13003, "name": "Bar", "short_name": "Bar", "plural_name": "Bars", "icon": {"prefix": "https://ss3.4sqi.net/img/categories_v2/nightlife/pub_", "suffix": ".png"}}], "chains": [], "closed_bucket": "Unsure", "distance": 805, "geocodes": {"main": {"latitude": 55.877996, "longitude": -4.267734}, "roof": {"latitude": 55.877996, "longitude": -4.267734}}, "link": "/v3/places/8ba5c24ca1164a36c30833c1", "location": {"address": "687 Garscube Rd", "admin_region": "Scotland", "country": "GB", "formatted_address": "687 Garscube Rd, Glasgow, G20 7JX", "locality": "Glasgow", "post_town": "Glasgow", "postcode": "G20 7JX"}, "name": "Tennants Taverns", "related_places": {}, "timezone": "Europe/London"}, {"fsq_id": "5db171e193417700084350c6", "categories": [{"id": 13145, "name": "Fast Food Restaurant", "short_name": "Fast Food", "plural_name": "Fast Food Restaurants", "icon": {"prefix": "https://ss3.4sqi.net/img/categories_v2/food/fastfood_", "suffix": ".png"}}, {"id": 13199, "name": "Indian Restaurant", "short_name": "Indian", "plural_name": "Indian Restaurants", "icon": {"prefix": "https://ss3.4sqi.net/img/categories_v2/food/indian_", "suffix": ".png"}}], "chains": [], "closed_bucket": "LikelyOpen", "distance": 820, "geocodes": {"drop_off": {"latitude": 55.873025, "longitude": -4.265723}, "main": {"latitude": 55.873154, "longitude": -4.265833}, "roof": {"latitude": 55.873154, "longitude": -4.265833}}, "link": "/v3/places/5db171e193417700084350c6", "location": {"address": "427 St. Georges Rd", "admin_region": "Scotland", "country": "GB", "cross_street": "", "formatted_address": "427 St. Georges Rd, Glasgow, Glasgow City, G3 6JX", "locality": "Glasgow", "post_town": "Glasgow", "postcode": "G3 6JX", "region": "Glasgow City"}, "name": "Panlasa", "related_places": {}, "timezone": "Europe/London"}, {"fsq_id": "4e6786a2b61cf40ed6ad9965", "categories": [{"id": 13072, "name": "Asian Restaurant", "short_name": "Asian", "plural_name": "Asian Restaurants", "icon": {"prefix": "https://ss3.4sqi.net/img/categories_v2/food/asian_", "suffix": ".png"}}], "chains": [], "closed_bucket": "VeryLikelyOpen", "distance": 947, "geocodes": {"main": {"latitude": 55.869965, "longitude": -4.248738}}, "link": "/v3/places/4e6786a2b61cf40ed6ad9965", "location": {"address": "Dobbies Loan", "country": "GB", "cross_street": "", "formatted_address": "Dobbies Loan, Glasgow, Glasgow City", "locality": "Glasgow", "post_town": "Glasgow", "region": "Glasgow City"}, "name": "Kusina de Filipinas", "related_places": {}, "timezone": "Europe/London"}, {"fsq_id": "4bfa65e1b182c9b626367a5a", "categories": [{"id": 16007, "name": "Structure", "short_name": "Structure", "plural_name": "Structures", "icon": {"prefix": "https://ss3.4sqi.net/img/categories_v2/building/default_", "suffix": ".png"}}, {"id": 13065, "name": "Restaurant", "short_name": "Restaurant", "plural_name": "Restaurants", "icon": {"prefix": "https://ss3.4sqi.net/img/categories_v2/food/default_", "suffix": ".png"}}], "chains": [], "closed_bucket": "VeryLikelyOpen", "distance": 973, "geocodes": {"main": {"latitude": 55.883128, "longitude": -4.242301}, "roof": {"latitude": 55.883128, "longitude": -4.242301}}, "link": "/v3/places/4bfa65e1b182c9b626367a5a", "location": {"country": "GB", "cross_street": "", "formatted_address": ""}, "name": "Morrison Bowmore", "related_places": {}, "timezone": "Europe/London"}, {"fsq_id": "31dc173544d74a5d3ca0e719", "categories": [{"id": 10039, "name": "Music Venue", "short_name": "Music Venue", "plural_name": "Music Venues", "icon": {"prefix": "https://ss3.4sqi.net/img/categories_v2/arts_entertainment/musicvenue_", "suffix": ".png"}}, {"id": 13003, "name": "Bar", "short_name": "Bar", "plural_name": "Bars", "icon": {"prefix": "https://ss3.4sqi.net/img/categories_v2/nightlife/pub_", "suffix": ".png"}}, {"id": 13065, "name": "Restaurant", "short_name": "Restaurant", "plural_name": "Restaurants", "icon": {"prefix": "https://ss3.4sqi.net/img/categories_v2/food/default_", "suffix": ".png"}}], "chains": [], "closed_bucket": "LikelyOpen", "distance": 290, "geocodes": {"main": {"latitude": 55.875822, "longitude": -4.257818}, "roof": {"latitude": 55.875822, "longitude": -4.257818}}, "link": "/v3/places/31dc173544d74a5d3ca0e719", "location": {"address": "125 Craighall Rd", "admin_region": "Scotland", "country": "GB", "formatted_address": "125 Craighall Rd, Glasgow, G4 9TL", "locality": "Glasgow", "post_town": "Glasgow", "postcode": "G4 9TL"}, "name": "National Theatre of Scotland", "related_places": {}}, {"fsq_id": "f4aebdd4a0c64c57c8b829df", "categories": [{"id": 13003, "name": "Bar", "short_name": "Bar", "plural_name": "Bars", "icon": {"prefix": "https://ss3.4sqi.net/img/categories_v2/nightlife/pub_", "suffix": ".png"}}], "chains": [], "closed_bucket": "Unsure", "distance": 469, "geocodes": {"drop_off": {"latitude": 55.876713, "longitude": -4.2476}, "main": {"latitude": 55.876613, "longitude": -4.247607}, "roof": {"latitude": 55.876613, "longitude": -4.247607}}, "link": "/v3/places/f4aebdd4a0c64c57c8b829df", "location": {"country": "GB", "formatted_address": "Glasgow", "locality": "Glasgow", "post_town": "Glasgow"}, "name": "Springpark Bar", "related_places": {}}, {"fsq_id": "69c925d8552941cd8b6e5abb", "categories": [{"id": 13145, "name": "Fast Food Restaurant", "short_name": "Fast Food", "plural_name": "Fast Food Restaurants", "icon": {"prefix": "https://ss3.4sqi.net/img/categories_v2/food/fastfood_", "suffix": ".png"}}], "chains": [], "closed_bucket": "LikelyOpen", "distance": 600, "geocodes": {"drop_off": {"latitude": 55.883208, "longitude": -4.254258}, "main": {"latitude": 55.883225, "longitude": -4.254503}, "roof": {"latitude": 55.883225, "longitude": -4.254503}}, "link": "/v3/places/69c925d8552941cd8b6e5abb", "location": {"address": "219 Saracen St", "admin_region": "Scotland", "country": "GB", "formatted_address": "219 Saracen St, Glasgow, G22 5JW", "locality": "Glasgow", "post_town": "Glasgow", "postcode": "G22 5JW"}, "name": "Spicy Bite", "related_places": {}}, {"fsq_id": "1333b267c337423f83412a63", "categories": [{"id": 13065, "name": "Restaurant", "short_name": "Restaurant", "plural_name": "Restaurants", "icon": {"prefix": "https://ss3.4sqi.net/img/categories_v2/food/default_", "suffix": ".png"}}], "chains": [], "closed_bucket": "LikelyOpen", "distance": 719, "geocodes": {"drop_off": {"latitude": 55.875309, "longitude": -4.244063}, "main": {"latitude": 55.875608, "longitude": -4.243967}, "roof": {"latitude": 55.875608, "longitude": -4.243967}}, "link": "/v3/places/1333b267c337423f83412a63", "location": {"address": "11 Keppochhill Pl", "address_extended": "Unit 2", "admin_region": "Scotland", "country": "GB", "formatted_address": "11 Keppochhill Pl, G21 1HS", "post_town": "Glasgow", "postcode": "G21 1HS"}, "name": "Homaydo", "related_places": {}}], "context": {"geo_bounds": {"circle": {"center": {"latitude": 55.877822, "longitude": -4.254817}, "radius": 1000}}}}