{"results": [{"fsq_id": "4b9b8c7cf964a520a80e36e3", "categories": [{"id": 13027, "name": "Bistro", "short_name": "Bistro", "plural_name": "Bistros", "icon": {"prefix": "https://ss3.4sqi.net/img/categories_v2/food/default_", "suffix": ".png"}}, {"id": 13032, "name": "Cafe, Coffee, and Tea House", "short_name": "Cafe, Coffee, and Tea House", "plural_name": "Cafes, Coffee, and Tea Houses", "icon": {"prefix": "https://ss3.4sqi.net/img/categories_v2/food/coffeeshop_", "suffix": ".png"}}, {"id": 13142, "name": "English Restaurant", "short_name": "English", "plural_name": "English Restaurants", "icon": {"prefix": "https://ss3.4sqi.net/img/categories_v2/food/default_", "suffix": ".png"}}], "chains": [], "closed_bucket": "VeryLikelyOpen", "distance": 447, "geocodes": {"main": {"latitude": 55.858488, "longitude": -4.22082}, "roof": {"latitude": 55.858488, "longitude": -4.22082}}, "link": "/v3/places/4b9b8c7cf964a520a80e36e3", "location": {"address": "443 Duke St", "admin_region": "Scotland", "country": "GB", "cross_street": "Hillfoot St", "formatted_address": "443 Duke St (Hillfoot St), Glasgow, Glasgow City, G31 1RY", "locality": "Glasgow", "post_town": "Glasgow", "postcode": "G31 1RY", "region": "Glasgow City"}, "name": "Tibo", "related_places": {}, "timezone": "Europe/London"}, {"fsq_id": "53dbc5b9498e95d9e033d82c", "categories": [{"id": 13018, "name": "Pub", "short_name": "Pub", "plural_name": "Pubs", "icon": {"prefix": "https://ss3.4sqi.net/img/categories_v2/nightlife/pub_", "suffix": ".png"}}, {"id": 13065, "name": "Restaurant", "short_name": "Restaurant", "plural_name": "Restaurants", "icon": {"prefix": "https://ss3.4sqi.net/img/categories_v2/food/default_", "suffix": ".png"}}], "chains": [], "closed_bucket": "VeryLikelyOpen", "distance": 614, "geocodes": {"drop_off": {"latitude": 55.858279, "longitude": -4.223371}, "main": {"latitude": 55.858133, "longitude": -4.223367}, "roof": {"latitude": 55.858133, "longitude": -4.223367}}, "link": "/v3/places/53dbc5b9498e95d9e033d82c", "location": {"address": "304 Duke St", "admin_region": "Scotland", "country": "GB", "cross_street": "", "formatted_address": "304 Duke St, Glasgow, Glasgow City, G31 1RZ", "locality": "Glasgow", "post_town": "Glasgow", "postcode": "G31 1RZ", "region": "Glasgow City"}, "name": "Redmond's", "related_places": {}, "timezone": "Europe/London"}, {"fsq_id": "4bd09e83caff9521ef31cff0", "categories": [{"id": 13034, "name": "Caf\u00e9", "short_name": "Caf\u00e9", "plural_name": "Caf\u00e9s", "icon": {"prefix": "https://ss3.4sqi.net/img/categories_v2/food/cafe_", "suffix": ".png"}}, {"id": 13035, "name": "Coffee Shop", "short_name": "Coffee Shop", "plural_name": "Coffee Shops", "icon": {"prefix": "https://ss3.4sqi.net/img/categories_v2/food/coffeeshop_", "suffix": ".png"}}, {"id": 13236, "name": "Italian Restaurant", "short_name": "Italian", "plural_name": "Italian Restaurants", "icon": {"prefix": "https://ss3.4sqi.net/img/categories_v2/food/italian_", "suffix": ".png"}}], "chains": [], "closed_bucket": "LikelyOpen", "distance": 366, "geocodes": {"main": {"latitude": 55.858517, "longitude": -4.219385}, "roof": {"latitude": 55.858517, "longitude": -4.219385}}, "link": "/v3/places/4bd09e83caff9521ef31cff0", "location": {"address": "473 Duke St", "admin_region": "Scotland", "country": "GB", "formatted_address": "473 Duke St, Glasgow, Glasgow City, G31 1RD", "locality": "Glasgow", "post_town": "Glasgow", "postcode": "G31 1RD", "region": "Glasgow City"}, "name": "Coia's Cafe", "related_places": {}, "timezone": "Europe/London"}, {"fsq_id": "4bc9ae3ecc8cd13a94f1bbcf", "categories": [{"id": 13039, "name": "Deli", "short_name": "Deli", "plural_name": "Delis", "icon": {"prefix": "https://ss3.4sqi.net/img/categories_v2/food/deli_", "suffix": ".png"}}, {"id": 13236, "name": "Italian Restaurant", "short_name": "Italian", "plural_name": "Italian Restaurants", "icon": {"prefix": "https://ss3.4sqi.net/img/categories_v2/food/italian_", "suffix": ".png"}}], "chains": [], "closed_bucket": "VeryLikelyOpen", "distance": 555, "geocodes": {"main": {"latitude": 55.863071, "longitude": -4.212444}, "roof": {"latitude": 55.863071, "longitude": -4.212444}}, "link": "/v3/places/4bc9ae3ecc8cd13a94f1bbcf", "location": {"address": "622 Alexandra Parade", "admin_region": "Scotland", "country": "GB", "cross_street": "", "formatted_address": "622 Alexandra Parade, Glasgow, Glasgow City, G31 3BT", "locality": "Glasgow", "post_town": "Glasgow", "postcode": "G31 3BT", "region": "Glasgow City"}, "name": "Celino's", "related_places": {}, "timezone": "Europe/London"}, {"fsq_id": "52b6efdb498eb22aa441b53a", "categories": [{"id": 13026, "name": "BBQ Joint", "short_name": "BBQ", "plural_name": "BBQ Joints", "icon": {"prefix": "https://ss3.4sqi.net/img/categories_v2/food/bbqalt_", "suffix": ".png"}}, {"id": 13031, "name": "Burger Joint", "short_name": "Burgers", "plural_name": "Burger Joints", "icon": {"prefix": "https://ss3.4sqi.net/img/categories_v2/food/burger_", "suffix": ".png"}}, {"id": 13068, "name": "American Restaurant", "short_name": "American", "plural_name": "American Restaurants", "icon": {"prefix": "https://ss3.4sqi.net/img/categories_v2/food/default_", "suffix": ".png"}}], "chains": [], "closed_bucket": "LikelyOpen", "distance": 141, "geocodes": {"drop_off": {"latitude": 55.858449, "longitude": -4.215817}, "main": {"latitude": 55.858561, "longitude": -4.215813}, "roof": {"latitude": 55.858561, "longitude": -4.215813}}, "link": "/v3/places/52b6efdb498eb22aa441b53a", "location": {"address": "585 Duke St", "admin_region": "Scotland", "country": "GB", "cross_street": "", "formatted_address": "585 Duke St, Glasgow, Glasgow City, G31 1PY", "locality": "Glasgow", "post_town": "Glasgow", "postcode": "G31 1PY", "region": "Glasgow City"}, "name": "Dennistoun Bar-B-Que", "related_places": {}, "timezone": "Europe/London"}, {"fsq_id": "53ac4ba4498e7605c5e57023", "categories": [{"id": 13018, "name": "Pub", "short_name": "Pub", "plural_name": "Pubs", "icon": {"prefix": "https://ss3.4sqi.net/img/categories_v2/nightlife/pub_", "suffix": ".png"}}, {"id": 13065, "name": "Restaurant", "short_name": "Restaurant", "plural_name": "Restaurants", "icon": {"prefix": "https://ss3.4sqi.net/img/categories_v2/food/default_", "suffix": ".png"}}], "chains": [], "closed_bucket": "VeryLikelyOpen", "distance": 323, "geocodes": {"main": {"latitude": 55.85831, "longitude": -4.218398}, "roof": {"latitude": 55.85831, "longitude": -4.218398}}, "link": "/v3/places/53ac4ba4498e7605c5e57023", "location": {"address": "380 Duke St", "admin_region": "Scotland", "country": "GB", "cross_street": "", "formatted_address": "380 Duke St, Glasgow, Glasgow City, G31 1DN", "locality": "Glasgow", "post_town": "Glasgow", "postcode": "G31 1DN", "region": "Glasgow City"}, "name": "The Duchess of Duke Street", "related_places": {}, "timezone": "Europe/London"}, {"fsq_id": "4bd2ae30a8b3a5932063685f", "categories": [{"id": 13064, "name": "Pizzeria", "short_name": "Pizza", "plural_name": "Pizzerias", "icon": {"prefix": "https://ss3.4sqi.net/img/categories_v2/food/pizza_", "suffix": ".png"}}, {"id": 13145, "name": "Fast Food Restaurant", "short_name": "Fast Food", "plural_name": "Fast Food Restaurants", "icon": {"prefix": "https://ss3.4sqi.net/img/categories_v2/food/fastfood_", "suffix": ".png"}}], "chains": [{"id": "ab4afc60-d68a-012e-5619-003048cad9da", "name": "Domino's Pizza"}], "closed_bucket": "VeryLikelyOpen", "distance": 808, "geocodes": {"main": {"latitude": 55.864233, "longitude": -4.220746}, "roof": {"latitude": 55.864233, "longitude": -4.220746}}, "link": "/v3/places/4bd2ae30a8b3a5932063685f", "location": {"address": "433 Alexandra Parade", "admin_region": "Scotland", "country": "GB", "formatted_address": "433 Alexandra Parade, Glasgow, Glasgow City, G31 3AD", "locality": "Glasgow", "post_town": "Glasgow", "postcode": "G31 3AD", "region": "Glasgow City"}, "name": "Domino's Pizza", "related_places": {}, "timezone": "Europe/London"}, {"fsq_id": "4b7400abf964a5204ec32de3", "categories": [{"id": 13039, "name": "Deli", "short_name": "Deli", "plural_name": "Delis", "icon": {"prefix": "https://ss3.4sqi.net/img/categories_v2/food/deli_", "suffix": ".png"}}, {"id": 13145, "name": "Fast Food Restaurant", "short_name": "Fast Food", "plural_name": "Fast Food Restaurants", "icon": {"prefix": "https://ss3.4sqi.net/img/categories_v2/food/fastfood_", "suffix": ".png"}}, {"id": 13334, "name": "Sandwich Spot", "short_name": "Sandwich Spot", "plural_name": "Sandwich Spots", "icon": {"prefix": "https://ss3.4sqi.net/img/categories_v2/food/deli_", "suffix": ".png"}}], "chains": [{"id": "ab4bee40-d68a-012e-5619-003048cad9da", "name": "Subway"}], "closed_bucket": "VeryLikelyOpen", "distance": 805, "geocodes": {"main": {"latitude": 55.864239, "longitude": -4.220641}, "roof": {"latitude": 55.864239, "longitude": -4.220641}}, "link": "/v3/places/4b7400abf964a5204ec32de3", "location": {"address": "433 Alexandra Parade", "admin_region": "Scotland", "country": "GB", "formatted_address": "433 Alexandra Parade, Glasgow, G31 3AD", "locality": "Glasgow", "post_town": "Glasgow", "postcode": "G31 3AD"}, "name": "Subway", "related_places": {}, "timezone": "Europe/London"}, {"fsq_id": "6012f9703952083ba290bc6c", "categories": [{"id": 13031, "name": "Burger Joint", "short_name": "Burgers", "plural_name": "Burger Joints", "icon": {"prefix": "https://ss3.4sqi.net/img/categories_v2/food/burger_", "suffix": ".png"}}, {"id": 13145, "name": "Fast Food Restaurant", "short_name": "Fast Food", "plural_name": "Fast Food Restaurants", "icon": {"prefix": "https://ss3.4sqi.net/img/categories_v2/food/fastfood_", "suffix": ".png"}}], "chains": [{"id": "ab4a9b10-d68a-012e-5619-003048cad9da", "name": "Burger King"}], "closed_bucket": "LikelyOpen", "distance": 428, "geocodes": {"main": {"latitude": 55.854812, "longitude": -4.210414}, "roof": {"latitude": 55.854812, "longitude": -4.210414}}, "link": "/v3/places/6012f9703952083ba290bc6c", "location": {"address": "5 Biggar St", "admin_region": "Scotland", "country": "GB", "cross_street": "", "formatted_address": "5 Biggar St, Glasgow, Glasgow City, G31 4BH", "locality": "Glasgow", "post_town": "Glasgow", "postcode": "G31 4BH", "region": "Glasgow City"}, "name": "Burger King", "related_places": {}, "timezone": "Europe/London"}, {"fsq_id": "4c931e23d2e1a1431d47d026", "categories": [{"id": 13031, "name": "Burger Joint", "short_name": "Burgers", "plural_name": "Burger Joints", "icon": {"prefix": "https://ss3.4sqi.net/img/categories_v2/food/burger_", "suffix": ".png"}}, {"id": 13145, "name": "Fast Food Restaurant", "short_name": "Fast Food", "plural_name": "Fast Food Restaurants", "icon": {"prefix": "https://ss3.4sqi.net/img/categories_v2/food/fastfood_", "suffix": ".png"}}], "chains": [{"id": "ab4a3530-d68a-012e-5619-003048cad9da", "name": "McDonald's"}], "closed_bucket": "VeryLikelyOpen", "distance": 743, "geocodes": {"main": {"latitude": 55.854549, "longitude": -4.203892}, "roof": {"latitude": 55.854549, "longitude": -4.203892}}, "link": "/v3/places/4c931e23d2e1a1431d47d026", "location": {"address": "The Forge Shopping Centre", "admin_region": "Scotland", "country": "GB", "cross_street": "1221 Gallowgate", "formatted_address": "The Forge Shopping Centre (1221 Gallowgate), Glasgow, Glasgow City, G31 4EB", "locality": "Glasgow", "post_town": "Glasgow", "postcode": "G31 4EB", "region": "Glasgow City"}, "name": "McDonald's", "related_places": {"parent": {"fsq_id": "4b8e9615f964a5205a2a33e3", "categories": [{"id": 17115, "name": "Shopping Plaza", "short_name": "Shopping Plaza", "plural_name": "Shopping Plazas", "icon": {"prefix": "https://ss3.4sqi.net/img/categories_v2/shops/mall_", "suffix": ".png"}}], "name": "The Forge Shopping Centre"}}, "timezone": "Europe/London"}, {"fsq_id": "5ccf37c095a722002c7feb7a", "categories": [{"id": 13199, "name": "Indian Restaurant", "short_name": "Indian", "plural_name": "Indian Restaurants", "icon": {"prefix": "https://ss3.4sqi.net/img/categories_v2/food/indian_", "suffix": ".png"}}], "chains": [], "closed_bucket": "VeryLikelyOpen", "distance": 56, "geocodes": {"main": {"latitude": 55.85822, "longitude": -4.214402}, "roof": {"latitude": 55.85822, "longitude": -4.214402}}, "link": "/v3/places/5ccf37c095a722002c7feb7a", "location": {"admin_region": "Scotland", "country": "GB", "cross_street": "", "formatted_address": "Glasgow, Glasgow City, G31 1QG", "locality": "Glasgow", "post_town": "Glasgow", "postcode": "G31 1QG", "region": "Glasgow City"}, "name": "The Red Tiffin", "related_places": {}, "timezone": "Europe/London"}, {"fsq_id": "4f521259e4b092980d6b21df", "categories": [{"id": 13018, "name": "Pub", "short_name": "Pub", "plural_name": "Pubs", "icon": {"prefix": "https://ss3.4sqi.net/img/categories_v2/nightlife/pub_", "suffix": ".png"}}], "chains": [], "closed_bucket": "VeryLikelyOpen", "distance": 60, "geocodes": {"drop_off": {"latitude": 55.858323, "longitude": -4.212501}, "main": {"latitude": 55.858169, "longitude": -4.212509}, "roof": {"latitude": 55.858169, "longitude": -4.212509}}, "link": "/v3/places/4f521259e4b092980d6b21df", "location": {"country": "GB", "cross_street": "", "formatted_address": ""}, "name": "Louden Tavern Limited", "related_places": {}, "timezone": "Europe/London"}, {"fsq_id": "4b944081f964a520427134e3", "categories": [{"id": 13003, "name": "Bar", "short_name": "Bar", "plural_name": "Bars", "icon": {"prefix": "https://ss3.4sqi.net/img/categories_v2/nightlife/pub_", "suffix": ".png"}}], "chains": [], "closed_bucket": "LikelyOpen", "distance": 65, "geocodes": {"main": {"latitude": 55.858269, "longitude": -4.214474}, "roof": {"latitude": 55.858269, "longitude": -4.214474}}, "link": "/v3/places/4b944081f964a520427134e3", "location": {"address": "476-480 Duke St", "admin_region": "Scotland", "country": "GB", "cross_street": "", "formatted_address": "476-480 Duke St, Glasgow, Glasgow City, G31 1QF", "locality": "Glasgow", "post_town": "Glasgow", "postcode": "G31 1QF", "region": "Glasgow City"}, "name": "The Crown Creighton", "related_places": {}, "timezone": "Europe/London"}, {"fsq_id": "4bc77c3f8b7c9c74008c36cf", "categories": [{"id": 13018, "name": "Pub", "short_name": "Pub", "plural_name": "Pubs", "icon": {"prefix": "https://ss3.4sqi.net/img/categories_v2/nightlife/pub_", "suffix": ".png"}}], "chains": [], "closed_bucket": "LikelyOpen", "distance": 94, "geocodes": {"main": {"latitude": 55.858516, "longitude": -4.213815}, "roof": {"latitude": 55.858516, "longitude": -4.213815}}, "link": "/v3/places/4bc77c3f8b7c9c74008c36cf", "location": {"address": "631 Duke St", "admin_region": "Scotland", "country": "GB", "cross_street": "", "formatted_address": "631 Duke St, Glasgow, Glasgow City, G31 1QA", "locality": "Glasgow", "post_town": "Glasgow", "postcode": "G31 1QA", "region": "Glasgow City"}, "name": "Duke Bar", "related_places": {}, "timezone": "Europe/London"}, {"fsq_id": "62124f6c6923226d9893fea5", "categories": [{"id": 13034, "name": "Caf\u00e9", "short_name": "Caf\u00e9", "plural_name": "Caf\u00e9s", "icon": {"prefix": "https://ss3.4sqi.net/img/categories_v2/food/cafe_", "suffix": ".png"}}, {"id": 13145, "name": "Fast Food Restaurant", "short_name": "Fast Food", "plural_name": "Fast Food Restaurants", "icon": {"prefix": "https://ss3.4sqi.net/img/categories_v2/food/fastfood_", "suffix": ".png"}}], "chains": [], "closed_bucket": "LikelyOpen", "distance": 127, "geocodes": {"drop_off": {"latitude": 55.858436, "longitude": -4.215452}, "main": {"latitude": 55.858318, "longitude": -4.215456}, "roof": {"latitude": 55.858318, "longitude": -4.215456}}, "link": "/v3/places/62124f6c6923226d9893fea5", "location": {"address": "460 Duke St", "admin_region": "Scotland", "country": "GB", "cross_street": "", "formatted_address": "460 Duke St, Glasgow, G31 1QN", "locality": "Glasgow", "post_town": "Glasgow", "postcode": "G31 1QN"}, "name": "Fork n Knife Cafe", "related_places": {}, "timezone": "Europe/London"}, {"fsq_id": "dfccfb82293a4bf892e30f95", "categories": [{"id": 13065, "name": "Restaurant", "short_name": "Restaurant", "plural_name": "Restaurants", "icon": {"prefix": "https://ss3.4sqi.net/img/categories_v2/food/default_", "suffix": ".png"}}], "chains": [], "closed_bucket": "LikelyOpen", "distance": 163, "geocodes": {"drop_off": {"latitude": 55.858459, "longitude": -4.2161}, "main": {"latitude": 55.858598, "longitude": -4.216095}, "roof": {"latitude": 55.858598, "longitude": -4.216095}}, "link": "/v3/places/dfccfb82293a4bf892e30f95", "location": {"address": "575 Duke St", "admin_region": "Scotland", "country": "GB", "formatted_address": "575 Duke St, Glasgow, Glasgow City, G31 1PY", "locality": "Glasgow", "post_town": "Glasgow", "postcode": "G31 1PY", "region": "Glasgow City"}, "name": "East End Caffe", "related_places": {}, "timezone": "Europe/London"}, {"fsq_id": "4c93c21a72dd224b97a29391", "categories": [{"id": 13010, "name": "Dive Bar", "short_name": "Dive Bar", "plural_name": "Dive Bars", "icon": {"prefix": "https://ss3.4sqi.net/img/categories_v2/nightlife/divebar_", "suffix": ".png"}}, {"id": 13018, "name": "Pub", "short_name": "Pub", "plural_name": "Pubs", "icon": {"prefix": "https://ss3.4sqi.net/img/categories_v2/nightlife/pub_", "suffix": ".png"}}, {"id": 13022, "name": "Sports Bar", "short_name": "Sports Bar", "plural_name": "Sports Bars", "icon": {"prefix": "https://ss3.4sqi.net/img/categories_v2/nightlife/sportsbar_", "suffix": ".png"}}], "chains": [], "closed_bucket": "Unsure", "distance": 180, "geocodes": {"main": {"latitude": 55.858093, "longitude": -4.210125}, "roof": {"latitude": 55.858093, "longitude": -4.210125}}, "link": "/v3/places/4c93c21a72dd224b97a29391", "location": {"address": "600 Duke St", "admin_region": "Scotland", "country": "GB", "cross_street": "", "formatted_address": "600 Duke St, Glasgow, G31 1JX", "locality": "Glasgow", "post_town": "Glasgow", "postcode": "G31 1JX"}, "name": "The Bristol Bar", "related_places": {}, "timezone": "Europe/London"}, {"fsq_id": "5c938677a35f460025794d48", "categories": [{"id": 13035, "name": "Coffee Shop", "short_name": "Coffee Shop", "plural_name": "Coffee Shops", "icon": {"prefix": "https://ss3.4sqi.net/img/categories_v2/food/coffeeshop_", "suffix": ".png"}}, {"id": 13065, "name": "Restaurant", "short_name": "Restaurant", "plural_name": "Restaurants", "icon": {"prefix": "https://ss3.4sqi.net/img/categories_v2/food/default_", "suffix": ".png"}}], "chains": [], "closed_bucket": "LikelyOpen", "distance": 182, "geocodes": {"drop_off": {"latitude": 55.858462, "longitude": -4.216204}, "main": {"latitude": 55.858592, "longitude": -4.2162}, "roof": {"latitude": 55.858592, "longitude": -4.2162}}, "link": "/v3/places/5c938677a35f460025794d48", "location": {"address": "567 Duke St", "admin_region": "Scotland", "country": "GB", "cross_street": "", "formatted_address": "567 Duke St, Glasgow, Glasgow City, G31 1PY", "locality": "Glasgow", "post_town": "Glasgow", "postcode": "G31 1PY", "region": "Glasgow City"}, "name": "Mesa", "related_places": {}, "timezone": "Europe/London"}, {"fsq_id": "4bdc6a35afe8c9b6a04e4f85", "categories": [{"id": 13145, "name": "Fast Food Restaurant", "short_name": "Fast Food", "plural_name": "Fast Food Restaurants", "icon": {"prefix": "https://ss3.4sqi.net/img/categories_v2/food/fastfood_", "suffix": ".png"}}], "chains": [], "closed_bucket": "VeryLikelyOpen", "distance": 220, "geocodes": {"main": {"latitude": 55.858332, "longitude": -4.217068}, "roof": {"latitude": 55.858332, "longitude": -4.217068}}, "link": "/v3/places/4bdc6a35afe8c9b6a04e4f85", "location": {"country": "GB", "cross_street": "", "formatted_address": "Glasgow, Glasgow City", "locality": "Glasgow", "post_town": "Glasgow", "region": "Glasgow City"}, "name": "Claudio's Chip Shop", "related_places": {}, "timezone": "Europe/London"}, {"fsq_id": "579104ae498ed332e09a3393", "categories": [{"id": 13046, "name": "Ice Cream Parlor", "short_name": "Ice Cream", "plural_name": "Ice Cream Parlors", "icon": {"prefix": "https://ss3.4sqi.net/img/categories_v2/food/icecream_", "suffix": ".png"}}, {"id": 13065, "name": "Restaurant", "short_name": "Restaurant", "plural_name": "Restaurants", "icon": {"prefix": "https://ss3.4sqi.net/img/categories_v2/food/default_", "suffix": ".png"}}], "chains": [], "closed_bucket": "LikelyOpen", "distance": 226, "geocodes": {"drop_off": {"latitude": 55.858473, "longitude": -4.216898}, "main": {"latitude": 55.858605, "longitude": -4.216901}, "roof": {"latitude": 55.858605, "longitude": -4.216901}}, "link": "/v3/places/579104ae498ed332e09a3393", "location": {"address": "553 Duke St", "admin_region": "Scotland", "country": "GB", "cross_street": "", "formatted_address": "553 Duke St, Glasgow, Glasgow City, G31 1DL", "locality": "Glasgow", "post_town": "Glasgow", "postcode": "G31 1DL", "region": "Glasgow City"}, "name": "Black Vanilla", "related_places": {}, "timezone": "Europe/London"}, {"fsq_id": "49e702d4b6124784f1461470", "categories": [{"id": 13002, "name": "Bakery", "short_name": "Bakery", "plural_name": "Bakeries", "icon": {"prefix": "https://ss3.4sqi.net/img/categories_v2/food/bakery_", "suffix": ".png"}}, {"id": 13065, "name": "Restaurant", "short_name": "Restaurant", "plural_name": "Restaurants", "icon": {"prefix": "https://ss3.4sqi.net/img/categories_v2/food/default_", "suffix": ".png"}}], "chains": [], "closed_bucket": "Unsure", "distance": 228, "geocodes": {"main": {"latitude": 55.85853, "longitude": -4.209858}, "roof": {"latitude": 55.85853, "longitude": -4.209858}}, "link": "/v3/places/49e702d4b6124784f1461470", "location": {"address": "783 Duke St", "admin_region": "Scotland", "country": "GB", "formatted_address": "783 Duke St, Glasgow, G31 1LL", "locality": "Glasgow", "post_town": "Glasgow", "postcode": "G31 1LL"}, "name": "British Bakeries", "related_places": {}, "timezone": "Europe/London"}, {"fsq_id": "a74a7327f381472593c01157", "categories": [{"id": 13352, "name": "Thai Restaurant", "short_name": "Thai", "plural_name": "Thai Restaurants", "icon": {"prefix": "https://ss3.4sqi.net/img/categories_v2/food/thai_", "suffix": ".png"}}], "chains": [], "closed_bucket": "LikelyOpen", "distance": 288, "geocodes": {"main": {"latitude": 55.858007, "longitude": -4.208862}, "roof": {"latitude": 55.858007, "longitude": -4.208862}}, "link": "/v3/places/a74a7327f381472593c01157", "location": {"address": "636 Duke St", "admin_region": "Scotland", "country": "GB", "formatted_address": "636 Duke St, Glasgow, Glasgow City, G31 1JY", "locality": "Glasgow", "post_town": "Glasgow", "postcode": "G31 1JY", "region": "Glasgow City"}, "name": "Hungry Sumo", "related_places": {}, "timezone": "Europe/London"}, {"fsq_id": "5c9fab4e872f7d002c938ad7", "categories": [{"id": 13018, "name": "Pub", "short_name": "Pub", "plural_name": "Pubs", "icon": {"prefix": "https://ss3.4sqi.net/img/categories_v2/nightlife/pub_", "suffix": ".png"}}, {"id": 13065, "name": "Restaurant", "short_name": "Restaurant", "plural_name": "Restaurants", "icon": {"prefix": "https://ss3.4sqi.net/img/categories_v2/food/default_", "suffix": ".png"}}], "chains": [], "closed_bucket": "LikelyOpen", "distance": 313, "geocodes": {"drop_off": {"latitude": 55.858434, "longitude": -4.218506}, "main": {"latitude": 55.858304, "longitude": -4.218503}, "roof": {"latitude": 55.858304, "longitude": -4.218503}}, "link": "/v3/places/5c9fab4e872f7d002c938ad7", "location": {"address": "380 Duke St", "admin_region": "Scotland", "country": "GB", "cross_street": "", "formatted_address": "380 Duke St, Glasgow, Glasgow City, G31 1DN", "locality": "Glasgow", "post_town": "Glasgow", "postcode": "G31 1DN", "region": "Glasgow City"}, "name": "The Palais Bar", "related_places": {}, "timezone": "Europe/London"}, {"fsq_id": "63c3f89a966a8041ba10b036", "categories": [{"id": 13337, "name": "Scottish Restaurant", "short_name": "Scottish", "plural_name": "Scottish Restaurants", "icon": {"prefix": "https://ss3.4sqi.net/img/categories_v2/food/default_", "suffix": ".png"}}], "chains": [], "closed_bucket": "Unsure", "distance": 346, "geocodes": {"drop_off": {"latitude": 55.858704, "longitude": -4.219155}, "main": {"latitude": 55.858699, "longitude": -4.21897}, "roof": {"latitude": 55.858699, "longitude": -4.21897}}, "link": "/v3/places/63c3f89a966a8041ba10b036", "location": {"address": "10 Whitehill St", "admin_region": "Scotland", "country": "GB", "cross_street": "", "formatted_address": "10 Whitehill St, Glasgow, Glasgow City, G31 2LJ", "locality": "Glasgow", "post_town": "Glasgow", "postcode": "G31 2LJ", "region": "Glasgow City"}, "name": "The Loveable Rogue East End", "related_places": {}, "timezone": "Europe/London"}, {"fsq_id": "4bd0b05eb221c9b60e35d4d0", "categories": [{"id": 13099, "name": "Chinese Restaurant", "short_name": "Chinese", "plural_name": "Chinese Restaurants", "icon": {"prefix": "https://ss3.4sqi.net/img/categories_v2/food/asian_", "suffix": ".png"}}], "chains": [], "closed_bucket": "VeryLikelyOpen", "distance": 394, "geocodes": {"main": {"latitude": 55.861383, "longitude": -4.216212}, "roof": {"latitude": 55.861383, "longitude": -4.216212}}, "link": "/v3/places/4bd0b05eb221c9b60e35d4d0", "location": {"country": "GB", "cross_street": "", "formatted_address": ""}, "name": "The Famous Wok", "related_places": {}, "timezone": "Europe/London"}, {"fsq_id": "503e4f3ce4b0c2b80fb6da69", "categories": [{"id": 13003, "name": "Bar", "short_name": "Bar", "plural_name": "Bars", "icon": {"prefix": "https://ss3.4sqi.net/img/categories_v2/nightlife/pub_", "suffix": ".png"}}], "chains": [], "closed_bucket": "VeryLikelyOpen", "distance": 401, "geocodes": {"main": {"latitude": 55.85853, "longitude": -4.220086}, "roof": {"latitude": 55.85853, "longitude": -4.220086}}, "link": "/v3/places/503e4f3ce4b0c2b80fb6da69", "location": {"country": "GB", "cross_street": "", "formatted_address": ""}, "name": "Haggies", "related_places": {}, "timezone": "Europe/London"}, {"fsq_id": "5002dc7ae4b07ecf51a34b4f", "categories": [{"id": 13145, "name": "Fast Food Restaurant", "short_name": "Fast Food", "plural_name": "Fast Food Restaurants", "icon": {"prefix": "https://ss3.4sqi.net/img/categories_v2/food/fastfood_", "suffix": ".png"}}], "chains": [], "closed_bucket": "VeryLikelyOpen", "distance": 499, "geocodes": {"main": {"latitude": 55.858234, "longitude": -4.221583}, "roof": {"latitude": 55.858234, "longitude": -4.221583}}, "link": "/v3/places/5002dc7ae4b07ecf51a34b4f", "location": {"country": "GB", "cross_street": "", "formatted_address": ""}, "name": "PIA`s", "related_places": {}, "timezone": "Europe/London"}, {"fsq_id": "4d80ed586bd8b60c5b7a527c", "categories": [{"id": 13003, "name": "Bar", "short_name": "Bar", "plural_name": "Bars", "icon": {"prefix": "https://ss3.4sqi.net/img/categories_v2/nightlife/pub_", "suffix": ".png"}}], "chains": [], "closed_bucket": "VeryLikelyOpen", "distance": 518, "geocodes": {"main": {"latitude": 55.858182, "longitude": -4.223438}, "roof": {"latitude": 55.858182, "longitude": -4.223438}}, "link": "/v3/places/4d80ed586bd8b60c5b7a527c", "location": {"address": "288 Duke St", "country": "GB", "cross_street": "", "formatted_address": "288 Duke St, Glasgow, Glasgow City", "locality": "Glasgow", "post_town": "Glasgow", "region": "Glasgow City"}, "name": "The New Variety Bar", "related_places": {}, "timezone": "Europe/London"}, {"fsq_id": "6477a24f15d846d1afc820f2", "categories": [{"id": 13065, "name": "Restaurant", "short_name": "Restaurant", "plural_name": "Restaurants", "icon": {"prefix": "https://ss3.4sqi.net/img/categories_v2/food/default_", "suffix": ".png"}}], "chains": [], "closed_bucket": "VeryLikelyOpen", "distance": 532, "geocodes": {"drop_off": {"latitude": 55.85771, "longitude": -4.222102}, "main": {"latitude": 55.857634, "longitude": -4.221951}, "roof": {"latitude": 55.857634, "longitude": -4.221951}}, "link": "/v3/places/6477a24f15d846d1afc820f2", "location": {"address": "140 Sword St", "admin_region": "Scotland", "country": "GB", "formatted_address": "140 Sword St, Glasgow, Glasgow City, G31 1SF", "locality": "Glasgow", "post_town": "Glasgow", "postcode": "G31 1SF", "region": "Glasgow City"}, "name": "The Winners Take Away", "related_places": {}, "timezone": "Europe/London"}, {"fsq_id": "5b198e232a7ab60039418405", "categories": [{"id": 13099, "name": "Chinese Restaurant", "short_name": "Chinese", "plural_name": "Chinese Restaurants", "icon": {"prefix": "https://ss3.4sqi.net/img/categories_v2/food/asian_", "suffix": ".png"}}], "chains": [], "closed_bucket": "VeryLikelyOpen", "distance": 545, "geocodes": {"main": {"latitude": 55.863022, "longitude": -4.212372}, "roof": {"latitude": 55.863022, "longitude": -4.212372}}, "link": "/v3/places/5b198e232a7ab60039418405", "location": {"admin_region": "Scotland", "country": "GB", "cross_street": "", "formatted_address": "Glasgow, Glasgow City, G31 3BT", "locality": "Glasgow", "post_town": "Glasgow", "postcode": "G31 3BT", "region": "Glasgow City"}, "name": "Zen Chinese Takeaway & Home Delivery", "related_places": {}, "timezone": "Europe/London"}, {"fsq_id": "55a788d9498e189cc53ec2f2", "categories": [{"id": 13040, "name": "Dessert Shop", "short_name": "Desserts", "plural_name": "Dessert Shops", "icon": {"prefix": "https://ss3.4sqi.net/img/categories_v2/food/dessert_", "suffix": ".png"}}, {"id": 13065, "name": "Restaurant", "short_name": "Restaurant", "plural_name": "Restaurants", "icon": {"prefix": "https://ss3.4sqi.net/img/categories_v2/food/default_", "suffix": ".png"}}], "chains": [], "closed_bucket": "LikelyOpen", "distance": 545, "geocodes": {"drop_off": {"latitude": 55.858321, "longitude": -4.222218}, "main": {"latitude": 55.858199, "longitude": -4.222213}, "roof": {"latitude": 55.858199, "longitude": -4.222213}}, "link": "/v3/places/55a788d9498e189cc53ec2f2", "location": {"address": "330 Duke St", "admin_region": "Scotland", "country": "GB", "cross_street": "", "formatted_address": "330 Duke St, Glasgow, Glasgow City", "locality": "Glasgow", "post_town": "Glasgow", "region": "Glasgow City"}, "name": "Cheesecake Deli", "related_places": {}, "timezone": "Europe/London"}, {"fsq_id": "623cd17e98c5dc74ef808fe8", "categories": [{"id": 13145, "name": "Fast Food Restaurant", "short_name": "Fast Food", "plural_name": "Fast Food Restaurants", "icon": {"prefix": "https://ss3.4sqi.net/img/categories_v2/food/fastfood_", "suffix": ".png"}}, {"id": 13055, "name": "Fried Chicken Joint", "short_name": "Fried Chicken", "plural_name": "Fried Chicken Joints", "icon": {"prefix": "https://ss3.4sqi.net/img/categories_v2/food/friedchicken_", "suffix": ".png"}}], "chains": [], "closed_bucket": "Unsure", "distance": 548, "geocodes": {"drop_off": {"latitude": 55.8631, "longitude": -4.211483}, "main": {"latitude": 55.862966, "longitude": -4.211495}, "roof": {"latitude": 55.862966, "longitude": -4.211495}}, "link": "/v3/places/623cd17e98c5dc74ef808fe8", "location": {"address": "652 Alexandra Parade", "admin_region": "Scotland", "country": "GB", "cross_street": "", "formatted_address": "652 Alexandra Parade, Glasgow, G31 3BU", "locality": "Glasgow", "post_town": "Glasgow", "postcode": "G31 3BU"}, "name": "Rio\u2019s Piri Piri", "related_places": {}, "timezone": "Europe/London"}, {"fsq_id": "607c0d1b8212a7179a5a51c6", "categories": [{"id": 13002, "name": "Bakery", "short_name": "Bakery", "plural_name": "Bakeries", "icon": {"prefix": "https://ss3.4sqi.net/img/categories_v2/food/bakery_", "suffix": ".png"}}, {"id": 13065, "name": "Restaurant", "short_name": "Restaurant", "plural_name": "Restaurants", "icon": {"prefix": "https://ss3.4sqi.net/img/categories_v2/food/default_", "suffix": ".png"}}], "chains": [], "closed_bucket": "Unsure", "distance": 561, "geocodes": {"drop_off": {"latitude": 55.862549, "longitude": -4.208547}, "main": {"latitude": 55.862398, "longitude": -4.208501}, "roof": {"latitude": 55.862398, "longitude": -4.208501}}, "link": "/v3/places/607c0d1b8212a7179a5a51c6", "location": {"address": "276 Cumbernauld Rd", "admin_region": "Scotland", "country": "GB", "cross_street": "", "formatted_address": "276 Cumbernauld Rd, Glasgow, Glasgow City, G31 2UL", "locality": "Glasgow", "post_town": "Glasgow", "postcode": "G31 2UL", "region": "Glasgow City"}, "name": "Full Circle Bakes", "related_places": {}, "timezone": "Europe/London"}, {"fsq_id": "4bc06baaabf495216e31bf93", "categories": [{"id": 13002, "name": "Bakery", "short_name": "Bakery", "plural_name": "Bakeries", "icon": {"prefix": "https://ss3.4sqi.net/img/categories_v2/food/bakery_", "suffix": ".png"}}, {"id": 13039, "name": "Deli", "short_name": "Deli", "plural_name": "Delis", "icon": {"prefix": "https://ss3.4sqi.net/img/categories_v2/food/deli_", "suffix": ".png"}}, {"id": 13334, "name": "Sandwich Spot", "short_name": "Sandwich Spot", "plural_name": "Sandwich Spots", "icon": {"prefix": "https://ss3.4sqi.net/img/categories_v2/food/deli_", "suffix": ".png"}}], "chains": [], "closed_bucket": "VeryLikelyOpen", "distance": 622, "geocodes": {"main": {"latitude": 55.858133, "longitude": -4.223367}, "roof": {"latitude": 55.858133, "longitude": -4.223367}}, "link": "/v3/places/4bc06baaabf495216e31bf93", "location": {"address": "302 Duke St", "admin_region": "Scotland", "country": "GB", "cross_street": "", "formatted_address": "302 Duke St, Glasgow, Glasgow City, G31 1RZ", "locality": "Glasgow", "post_town": "Glasgow", "postcode": "G31 1RZ", "region": "Glasgow City"}, "name": "Miau Espresso & Sandwich Bar", "related_places": {}, "timezone": "Europe/London"}, {"fsq_id": "4c705204b5a5236ae6ff4f52", "categories": [{"id": 13034, "name": "Caf\u00e9", "short_name": "Caf\u00e9", "plural_name": "Caf\u00e9s", "icon": {"prefix": "https://ss3.4sqi.net/img/categories_v2/food/cafe_", "suffix": ".png"}}, {"id": 13145, "name": "Fast Food Restaurant", "short_name": "Fast Food", "plural_name": "Fast Food Restaurants", "icon": {"prefix": "https://ss3.4sqi.net/img/categories_v2/food/fastfood_", "suffix": ".png"}}, {"id": 13236, "name": "Italian Restaurant", "short_name": "Italian", "plural_name": "Italian Restaurants", "icon": {"prefix": "https://ss3.4sqi.net/img/categories_v2/food/italian_", "suffix": ".png"}}], "chains": [], "closed_bucket": "LikelyOpen", "distance": 656, "geocodes": {"main": {"latitude": 55.862832, "longitude": -4.206412}, "roof": {"latitude": 55.862832, "longitude": -4.206412}}, "link": "/v3/places/4c705204b5a5236ae6ff4f52", "location": {"address": "331-335 Cumbernauld Rd", "admin_region": "Scotland", "country": "GB", "cross_street": "", "formatted_address": "331-335 Cumbernauld Rd, Glasgow, G31 3LP", "locality": "Glasgow", "post_town": "Glasgow", "postcode": "G31 3LP"}, "name": "Cafe Zecchino", "related_places": {}, "timezone": "Europe/London"}, {"fsq_id": "4b681df9f964a520e2672be3", "categories": [{"id": 13032, "name": "Cafe, Coffee, and Tea House", "short_name": "Cafe, Coffee, and Tea House", "plural_name": "Cafes, Coffee, and Tea Houses", "icon": {"prefix": "https://ss3.4sqi.net/img/categories_v2/food/coffeeshop_", "suffix": ".png"}}, {"id": 13334, "name": "Sandwich Spot", "short_name": "Sandwich Spot", "plural_name": "Sandwich Spots", "icon": {"prefix": "https://ss3.4sqi.net/img/categories_v2/food/deli_", "suffix": ".png"}}], "chains": [], "closed_bucket": "VeryLikelyOpen", "distance": 672, "geocodes": {"main": {"latitude": 55.864392, "longitude": -4.221661}, "roof": {"latitude": 55.864392, "longitude": -4.221661}}, "link": "/v3/places/4b681df9f964a520e2672be3", "location": {"address": "417 Alexandra Parade", "admin_region": "Scotland", "country": "GB", "formatted_address": "417 Alexandra Parade, Glasgow, Glasgow City, G31 3AD", "locality": "Glasgow", "post_town": "Glasgow", "postcode": "G31 3AD", "region": "Glasgow City"}, "name": "Food on Parade", "related_places": {}, "timezone": "Europe/London"}, {"fsq_id": "5638ff6c60b2753ece75b668", "categories": [{"id": 13051, "name": "Fish and Chips Shop", "short_name": "Fish and Chips Shop", "plural_name": "Fish and Chips Shops", "icon": {"prefix": "https://ss3.4sqi.net/img/categories_v2/food/fishandchips_", "suffix": ".png"}}, {"id": 17057, "name": "Food and Beverage Retail", "short_name": "Food & Beverage", "plural_name": "Food and Beverage Retail", "icon": {"prefix": "https://ss3.4sqi.net/img/categories_v2/shops/foodanddrink_", "suffix": ".png"}}], "chains": [], "closed_bucket": "VeryLikelyOpen", "distance": 683, "geocodes": {"drop_off": {"latitude": 55.854868, "longitude": -4.222665}, "main": {"latitude": 55.855014, "longitude": -4.222644}, "roof": {"latitude": 55.855014, "longitude": -4.222644}}, "link": "/v3/places/5638ff6c60b2753ece75b668", "location": {"address": "591 Gallowgate", "admin_region": "Scotland", "country": "GB", "formatted_address": "591 Gallowgate, Glasgow, G40 2PE", "locality": "Glasgow", "post_town": "Glasgow", "postcode": "G40 2PE"}, "name": "Atlantis", "related_places": {}, "timezone": "Europe/London"}, {"fsq_id": "4c51ff1099ecc9b69342315a", "categories": [{"id": 13099, "name": "Chinese Restaurant", "short_name": "Chinese", "plural_name": "Chinese Restaurants", "icon": {"prefix": "https://ss3.4sqi.net/img/categories_v2/food/asian_", "suffix": ".png"}}], "chains": [], "closed_bucket": "VeryLikelyOpen", "distance": 766, "geocodes": {"main": {"latitude": 55.862398, "longitude": -4.203842}, "roof": {"latitude": 55.862398, "longitude": -4.203842}}, "link": "/v3/places/4c51ff1099ecc9b69342315a", "location": {"address": "402 Cumbernauld Rd", "admin_region": "Scotland", "country": "GB", "cross_street": "haghill", "formatted_address": "402 Cumbernauld Rd (haghill), Glasgow, Glasgow City, G31 3NN", "locality": "Glasgow", "post_town": "Glasgow", "postcode": "G31 3NN", "region": "Glasgow City"}, "name": "Poa San", "related_places": {}, "timezone": "Europe/London"}, {"fsq_id": "5dc805ba70733c0008486c50", "categories": [{"id": 13165, "name": "German Restaurant", "short_name": "German", "plural_name": "German Restaurants", "icon": {"prefix": "https://ss3.4sqi.net/img/categories_v2/food/german_", "suffix": ".png"}}], "chains": [], "closed_bucket": "VeryLikelyOpen", "distance": 896, "geocodes": {"main": {"latitude": 55.852951, "longitude": -4.202339}}, "link": "/v3/places/5dc805ba70733c0008486c50", "location": {"admin_region": "Scotland", "country": "GB", "cross_street": "", "formatted_address": "G31 4DX", "post_town": "Glasgow", "postcode": "G31 4DX"}, "name": "Cafe Deja Vu", "related_places": {"parent": {"fsq_id": "4b8e9615f964a5205a2a33e3", "categories": [{"id": 17115, "name": "Shopping Plaza", "short_name": "Shopping Plaza", "plural_name": "Shopping Plazas", "icon": {"prefix": "https://ss3.4sqi.net/img/categories_v2/shops/mall_", "suffix": ".png"}}], "name": "The Forge Shopping Centre"}}, "timezone": "Europe/London"}, {"fsq_id": "510fea3fe4b04cfd4113597d", "categories": [{"id": 13099, "name": "Chinese Restaurant", "short_name": "Chinese", "plural_name": "Chinese Restaurants", "icon": {"prefix": "https://ss3.4sqi.net/img/categories_v2/food/asian_", "suffix": ".png"}}], "chains": [], "closed_bucket": "VeryLikelyOpen", "distance": 978, "geocodes": {"main": {"latitude": 55.85344, "longitude": -4.200217}, "roof": {"latitude": 55.85344, "longitude": -4.200217}}, "link": "/v3/places/510fea3fe4b04cfd4113597d", "location": {"address": "Forge Shopping Centre", "address_extended": "Unit 55", "admin_region": "Scotland", "country": "GB", "cross_street": "", "formatted_address": "Forge Shopping Centre, Glasgow, Glasgow City, G31 4EB", "locality": "Glasgow", "post_town": "Glasgow", "postcode": "G31 4EB", "region": "Glasgow City"}, "name": "McChans", "related_places": {"parent": {"fsq_id": "4b8e9615f964a5205a2a33e3", "categories": [{"id": 17115, "name": "Shopping Plaza", "short_name": "Shopping Plaza", "plural_name": "Shopping Plazas", "icon": {"prefix": "https://ss3.4sqi.net/img/categories_v2/shops/mall_", "suffix": ".png"}}], "name": "The Forge Shopping Centre"}}, "timezone": "Europe/London"}, {"fsq_id": "4cc8f7b2b3f5224bfa2ef220", "categories": [{"id": 13022, "name": "Sports Bar", "short_name": "Sports Bar", "plural_name": "Sports Bars", "icon": {"prefix": "https://ss3.4sqi.net/img/categories_v2/nightlife/sportsbar_", "suffix": ".png"}}], "chains": [], "closed_bucket": "VeryLikelyOpen", "distance": 980, "geocodes": {"drop_off": {"latitude": 55.851049, "longitude": -4.221582}, "main": {"latitude": 55.850833, "longitude": -4.222064}, "roof": {"latitude": 55.850833, "longitude": -4.222064}}, "link": "/v3/places/4cc8f7b2b3f5224bfa2ef220", "location": {"address": "Duke St", "country": "GB", "cross_street": "", "formatted_address": "Duke St, Glasgow, Glasgow City", "locality": "Glasgow", "post_town": "Glasgow", "region": "Glasgow City"}, "name": "The the Louden Tavern", "related_places": {}, "timezone": "Europe/London"}, {"fsq_id": "1228b4380b5a4e078c94cad7", "categories": [{"id": 13003, "name": "Bar", "short_name": "Bar", "plural_name": "Bars", "icon": {"prefix": "https://ss3.4sqi.net/img/categories_v2/nightlife/pub_", "suffix": ".png"}}, {"id": 13065, "name": "Restaurant", "short_name": "Restaurant", "plural_name": "Restaurants", "icon": {"prefix": "https://ss3.4sqi.net/img/categories_v2/food/default_", "suffix": ".png"}}], "chains": [], "closed_bucket": "Unsure", "distance": 119, "geocodes": {"main": {"latitude": 55.85827, "longitude": -4.215384}, "roof": {"latitude": 55.85827, "longitude": -4.215384}}, "link": "/v3/places/1228b4380b5a4e078c94cad7", "location": {"address": "468 Duke St", "admin_region": "Scotland", "country": "GB", "formatted_address": "468 Duke St, Glasgow, G31 1QN", "locality": "Glasgow", "post_town": "Glasgow", "postcode": "G31 1QN"}, "name": "The Alexander", "related_places": {}}, {"fsq_id": "382f70bd9c599e777890ec61", "categories": [{"id": 13002, "name": "Bakery", "short_name": "Bakery", "plural_name": "Bakeries", "icon": {"prefix": "https://ss3.4sqi.net/img/categories_v2/food/bakery_", "suffix": ".png"}}, {"id": 13065, "name": "Restaurant", "short_name": "Restaurant", "plural_name": "Restaurants", "icon": {"prefix": "https://ss3.4sqi.net/img/categories_v2/food/default_", "suffix": ".png"}}], "chains": [], "closed_bucket": "VeryLikelyOpen", "distance": 191, "geocodes": {"drop_off": {"latitude": 55.858219, "longitude": -4.21047}, "main": {"latitude": 55.858549, "longitude": -4.210454}, "roof": {"latitude": 55.858549, "longitude": -4.210454}}, "link": "/v3/places/382f70bd9c599e777890ec61", "location": {"country": "GB", "formatted_address": "Glasgow", "locality": "Glasgow", "post_town": "Glasgow"}, "name": "Hovis Bakery", "related_places": {}}, {"fsq_id": "b446f4d6e08a4818b9d2cb34", "categories": [{"id": 13051, "name": "Fish and Chips Shop", "short_name": "Fish and Chips Shop", "plural_name": "Fish and Chips Shops", "icon": {"prefix": "https://ss3.4sqi.net/img/categories_v2/food/fishandchips_", "suffix": ".png"}}], "chains": [], "closed_bucket": "Unsure", "distance": 211, "geocodes": {"main": {"latitude": 55.858344, "longitude": -4.216858}, "roof": {"latitude": 55.858344, "longitude": -4.216858}}, "link": "/v3/places/b446f4d6e08a4818b9d2cb34", "location": {"address": "416 Duke St", "admin_region": "Scotland", "country": "GB", "formatted_address": "416 Duke St, Glasgow, G31 1PX", "locality": "Glasgow", "post_town": "Glasgow", "postcode": "G31 1PX"}, "name": "Claudio's", "related_places": {}}, {"fsq_id": "93668994a4f3402dddfd9a96", "categories": [{"id": 13051, "name": "Fish and Chips Shop", "short_name": "Fish and Chips Shop", "plural_name": "Fish and Chips Shops", "icon": {"prefix": "https://ss3.4sqi.net/img/categories_v2/food/fishandchips_", "suffix": ".png"}}], "chains": [], "closed_bucket": "LikelyOpen", "distance": 340, "geocodes": {"drop_off": {"latitude": 55.858713, "longitude": -4.219154}, "main": {"latitude": 55.858705, "longitude": -4.218865}, "roof": {"latitude": 55.858705, "longitude": -4.218865}}, "link": "/v3/places/93668994a4f3402dddfd9a96", "location": {"address": "6 Whitehill St", "admin_region": "Scotland", "country": "GB", "formatted_address": "6 Whitehill St, Glasgow, G31 2LJ", "locality": "Glasgow", "post_town": "Glasgow", "postcode": "G31 2LJ"}, "name": "Coias 2", "related_places": {}}, {"fsq_id": "4b2cfd8b80606aee2d73a34b", "categories": [{"id": 13035, "name": "Coffee Shop", "short_name": "Coffee Shop", "plural_name": "Coffee Shops", "icon": {"prefix": "https://ss3.4sqi.net/img/categories_v2/food/coffeeshop_", "suffix": ".png"}}, {"id": 13145, "name": "Fast Food Restaurant", "short_name": "Fast Food", "plural_name": "Fast Food Restaurants", "icon": {"prefix": "https://ss3.4sqi.net/img/categories_v2/food/fastfood_", "suffix": ".png"}}], "chains": [], "closed_bucket": "LikelyOpen", "distance": 510, "geocodes": {"drop_off": {"latitude": 55.858099, "longitude": -4.221906}, "main": {"latitude": 55.857968, "longitude": -4.221646}, "roof": {"latitude": 55.857968, "longitude": -4.221646}}, "link": "/v3/places/4b2cfd8b80606aee2d73a34b", "location": {"address": "172 Sword St", "admin_region": "Scotland", "country": "GB", "formatted_address": "172 Sword St, Glasgow, G31 1SE", "locality": "Glasgow", "post_town": "Glasgow", "postcode": "G31 1SE"}, "name": "Munchies Cafe Sword Street", "related_places": {}}, {"fsq_id": "54c27d71b0824fd75fd1b16f", "categories": [{"id": 13034, "name": "Caf\u00e9", "short_name": "Caf\u00e9", "plural_name": "Caf\u00e9s", "icon": {"prefix": "https://ss3.4sqi.net/img/categories_v2/food/cafe_", "suffix": ".png"}}, {"id": 13065, "name": "Restaurant", "short_name": "Restaurant", "plural_name": "Restaurants", "icon": {"prefix": "https://ss3.4sqi.net/img/categories_v2/food/default_", "suffix": ".png"}}], "chains": [], "closed_bucket": "LikelyOpen", "distance": 729, "geocodes": {"drop_off": {"latitude": 55.864631, "longitude": -4.212434}, "main": {"latitude": 55.864757, "longitude": -4.212423}, "roof": {"latitude": 55.864757, "longitude": -4.212423}}, "link": "/v3/places/54c27d71b0824fd75fd1b16f", "location": {"address": "110 Roebank St", "country": "GB", "formatted_address": "110 Roebank St, Glasgow", "locality": "Glasgow", "post_town": "Glasgow"}, "name": "Millie's Cafe", "related_places": {}}, {"fsq_id": "88f1bf75b7ef46da60e63ef5", "categories": [{"id": 13065, "name": "Restaurant", "short_name": "Restaurant", "plural_name": "Restaurants", "icon": {"prefix": "https://ss3.4sqi.net/img/categories_v2/food/default_", "suffix": ".png"}}], "chains": [], "closed_bucket": "LikelyOpen", "distance": 759, "geocodes": {"drop_off": {"latitude": 55.862505, "longitude": -4.203833}, "main": {"latitude": 55.862398, "longitude": -4.203842}, "roof": {"latitude": 55.862398, "longitude": -4.203842}}, "link": "/v3/places/88f1bf75b7ef46da60e63ef5", "location": {"address": "Cumbernauld Rd. Muirhead", "country": "GB", "formatted_address": "Cumbernauld Rd. Muirhead, Glasgow", "locality": "Glasgow", "post_town": "Glasgow"}, "name": "Orchid Lane", "related_places": {}}, {"fsq_id": "fa80f524be9f44df673153b6", "categories": [{"id": 13065, "name": "Restaurant", "short_name": "Restaurant", "plural_name": "Restaurants", "icon": {"prefix": "https://ss3.4sqi.net/img/categories_v2/food/default_", "suffix": ".png"}}], "chains": [], "closed_bucket": "Unsure", "distance": 778, "geocodes": {"main": {"latitude": 55.861578, "longitude": -4.202522}, "roof": {"latitude": 55.861578, "longitude": -4.202522}}, "link": "/v3/places/fa80f524be9f44df673153b6", "location": {"address": "3-5 Dukes Cour", "country": "GB", "formatted_address": "3-5 Dukes Cour"}, "name": "Aberfolyle Delicatessen and Trossachs Butcher", "related_places": {}}, {"fsq_id": "2f52b404126f4b182789eade", "categories": [{"id": 13032, "name": "Cafe, Coffee, and Tea House", "short_name": "Cafe, Coffee, and Tea House", "plural_name": "Cafes, Coffee, and Tea Houses", "icon": {"prefix": "https://ss3.4sqi.net/img/categories_v2/food/coffeeshop_", "suffix": ".png"}}, {"id": 13334, "name": "Sandwich Spot", "short_name": "Sandwich Spot", "plural_name": "Sandwich Spots", "icon": {"prefix": "https://ss3.4sqi.net/img/categories_v2/food/deli_", "suffix": ".png"}}], "chains": [], "closed_bucket": "Unsure", "distance": 996, "geocodes": {"main": {"latitude": 55.853512, "longitude": -4.199869}, "roof": {"latitude": 55.853512, "longitude": -4.199869}}, "link": "/v3/places/2f52b404126f4b182789eade", "location": {"address": "Forge Shopping Centre, 1179, Gallowgate", "address_extended": "Unit 45c", "admin_region": "Scotland", "country": "GB", "formatted_address": "Forge Shopping Centre, 1179, Gallowgate, Glasgow, G31 4EB", "locality": "Glasgow", "post_town": "Glasgow", "postcode": "G31 4EB"}, "name": "Baguette Express", "related_places": {}}], "context": {"geo_bounds": {"circle": {"center": {"latitude": 55.858222, "longitude": -4.213473}, "radius": 1000}}}}