{"results": [{"fsq_id": "4d876a90651041bddd329b30", "categories": [{"id": 13039, "name": "Deli", "short_name": "Deli", "plural_name": "Delis", "icon": {"prefix": "https://ss3.4sqi.net/img/categories_v2/food/deli_", "suffix": ".png"}}, {"id": 13145, "name": "Fast Food Restaurant", "short_name": "Fast Food", "plural_name": "Fast Food Restaurants", "icon": {"prefix": "https://ss3.4sqi.net/img/categories_v2/food/fastfood_", "suffix": ".png"}}, {"id": 13334, "name": "Sandwich Spot", "short_name": "Sandwich Spot", "plural_name": "Sandwich Spots", "icon": {"prefix": "https://ss3.4sqi.net/img/categories_v2/food/deli_", "suffix": ".png"}}], "chains": [{"id": "ab4bee40-d68a-012e-5619-003048cad9da", "name": "Subway"}], "closed_bucket": "VeryLikelyOpen", "distance": 973, "geocodes": {"main": {"latitude": 55.851375, "longitude": -4.299401}, "roof": {"latitude": 55.851375, "longitude": -4.299401}}, "link": "/v3/places/4d876a90651041bddd329b30", "location": {"address": "468/470 Paisley Rd West", "admin_region": "Scotland", "country": "GB", "formatted_address": "468/470 Paisley Rd West, Glasgow, G51 1PX", "locality": "Glasgow", "post_town": "Glasgow", "postcode": "G51 1PX"}, "name": "Subway", "related_places": {}, "timezone": "Europe/London"}, {"fsq_id": "4f6f44c2e4b08a0bbbd5164a", "categories": [{"id": 10000, "name": "Arts and Entertainment", "short_name": "Arts & Entertainment", "plural_name": "Arts and Entertainment", "icon": {"prefix": "https://ss3.4sqi.net/img/categories_v2/arts_entertainment/default_", "suffix": ".png"}}, {"id": 13003, "name": "Bar", "short_name": "Bar", "plural_name": "Bars", "icon": {"prefix": "https://ss3.4sqi.net/img/categories_v2/nightlife/pub_", "suffix": ".png"}}, {"id": 13065, "name": "Restaurant", "short_name": "Restaurant", "plural_name": "Restaurants", "icon": {"prefix": "https://ss3.4sqi.net/img/categories_v2/food/default_", "suffix": ".png"}}], "chains": [], "closed_bucket": "Unsure", "distance": 876, "geocodes": {"main": {"latitude": 55.854485, "longitude": -4.303984}, "roof": {"latitude": 55.854485, "longitude": -4.303984}}, "link": "/v3/places/4f6f44c2e4b08a0bbbd5164a", "location": {"address": "111 Copland Rd", "admin_region": "Scotland", "country": "GB", "cross_street": "at Woodville St", "formatted_address": "111 Copland Rd (at Woodville St), Glasgow, Glasgow City, G51 2SL", "locality": "Glasgow", "post_town": "Glasgow", "postcode": "G51 2SL", "region": "Glasgow City"}, "name": "The Louden Tavern", "related_places": {}, "timezone": "Europe/London"}, {"fsq_id": "4c1a62ae55e4c9b6c5a84723", "categories": [{"id": 13055, "name": "Fried Chicken Joint", "short_name": "Fried Chicken", "plural_name": "Fried Chicken Joints", "icon": {"prefix": "https://ss3.4sqi.net/img/categories_v2/food/friedchicken_", "suffix": ".png"}}, {"id": 13145, "name": "Fast Food Restaurant", "short_name": "Fast Food", "plural_name": "Fast Food Restaurants", "icon": {"prefix": "https://ss3.4sqi.net/img/categories_v2/food/fastfood_", "suffix": ".png"}}], "chains": [{"id": "ab4beec0-d68a-012e-5619-003048cad9da", "name": "KFC"}], "closed_bucket": "VeryLikelyOpen", "distance": 588, "geocodes": {"main": {"latitude": 55.853623, "longitude": -4.318993}, "roof": {"latitude": 55.853623, "longitude": -4.318993}}, "link": "/v3/places/4c1a62ae55e4c9b6c5a84723", "location": {"address": "382 Helen St", "admin_region": "Scotland", "country": "GB", "formatted_address": "382 Helen St, Glasgow, Glasgow City, G51 3RN", "locality": "Glasgow", "post_town": "Glasgow", "postcode": "G51 3RN", "region": "Glasgow City"}, "name": "KFC", "related_places": {}, "timezone": "Europe/London"}, {"fsq_id": "4bb770e3941ad13a43aa20e3", "categories": [{"id": 13199, "name": "Indian Restaurant", "short_name": "Indian", "plural_name": "Indian Restaurants", "icon": {"prefix": "https://ss3.4sqi.net/img/categories_v2/food/indian_", "suffix": ".png"}}], "chains": [], "closed_bucket": "VeryLikelyOpen", "distance": 259, "geocodes": {"main": {"latitude": 55.848215, "longitude": -4.317735}, "roof": {"latitude": 55.848215, "longitude": -4.317735}}, "link": "/v3/places/4bb770e3941ad13a43aa20e3", "location": {"address": "Bellahouston Cottage", "admin_region": "Scotland", "country": "GB", "formatted_address": "Bellahouston Cottage, Glasgow, Glasgow City, G52 1EQ", "locality": "Glasgow", "post_town": "Glasgow", "postcode": "G52 1EQ", "region": "Glasgow City"}, "name": "Village in the Park", "related_places": {}, "timezone": "Europe/London"}, {"fsq_id": "4d977232c19fb60c67139765", "categories": [{"id": 13003, "name": "Bar", "short_name": "Bar", "plural_name": "Bars", "icon": {"prefix": "https://ss3.4sqi.net/img/categories_v2/nightlife/pub_", "suffix": ".png"}}], "chains": [], "closed_bucket": "VeryLikelyOpen", "distance": 353, "geocodes": {"main": {"latitude": 55.849359, "longitude": -4.308835}}, "link": "/v3/places/4d977232c19fb60c67139765", "location": {"country": "GB", "cross_street": "", "formatted_address": ""}, "name": "The Fairfield Club", "related_places": {}, "timezone": "Europe/London"}, {"fsq_id": "5cfa4a4ee679bc002c8cfeb5", "categories": [{"id": 13002, "name": "Bakery", "short_name": "Bakery", "plural_name": "Bakeries", "icon": {"prefix": "https://ss3.4sqi.net/img/categories_v2/food/bakery_", "suffix": ".png"}}, {"id": 13046, "name": "Ice Cream Parlor", "short_name": "Ice Cream", "plural_name": "Ice Cream Parlors", "icon": {"prefix": "https://ss3.4sqi.net/img/categories_v2/food/icecream_", "suffix": ".png"}}, {"id": 13065, "name": "Restaurant", "short_name": "Restaurant", "plural_name": "Restaurants", "icon": {"prefix": "https://ss3.4sqi.net/img/categories_v2/food/default_", "suffix": ".png"}}], "chains": [], "closed_bucket": "LikelyOpen", "distance": 357, "geocodes": {"main": {"latitude": 55.849911, "longitude": -4.308397}, "roof": {"latitude": 55.849911, "longitude": -4.308397}}, "link": "/v3/places/5cfa4a4ee679bc002c8cfeb5", "location": {"address": "675 Paisley Rd West", "admin_region": "Scotland", "country": "GB", "cross_street": "", "formatted_address": "675 Paisley Rd West, Glasgow, Glasgow City, G51 1RP", "locality": "Glasgow", "post_town": "Glasgow", "postcode": "G51 1RP", "region": "Glasgow City"}, "name": "Tubbees Desserts", "related_places": {}, "timezone": "Europe/London"}, {"fsq_id": "21466194e85a4db25323f2ec", "categories": [{"id": 13199, "name": "Indian Restaurant", "short_name": "Indian", "plural_name": "Indian Restaurants", "icon": {"prefix": "https://ss3.4sqi.net/img/categories_v2/food/indian_", "suffix": ".png"}}], "chains": [], "closed_bucket": "VeryLikelyOpen", "distance": 425, "geocodes": {"main": {"latitude": 55.850408, "longitude": -4.307992}, "roof": {"latitude": 55.850408, "longitude": -4.307992}}, "link": "/v3/places/21466194e85a4db25323f2ec", "location": {"address": "Paisley Rd West", "admin_region": "Scotland", "country": "GB", "formatted_address": "Paisley Rd West, Glasgow, G51 1RF", "locality": "Glasgow", "post_town": "Glasgow", "postcode": "G51 1RF"}, "name": "Punjab Indian Restaurant", "related_places": {}, "timezone": "Europe/London"}, {"fsq_id": "4dc82fda18387d1bd5816e2c", "categories": [{"id": 13199, "name": "Indian Restaurant", "short_name": "Indian", "plural_name": "Indian Restaurants", "icon": {"prefix": "https://ss3.4sqi.net/img/categories_v2/food/indian_", "suffix": ".png"}}], "chains": [], "closed_bucket": "VeryLikelyOpen", "distance": 435, "geocodes": {"drop_off": {"latitude": 55.850288, "longitude": -4.307769}, "main": {"latitude": 55.85042, "longitude": -4.307782}, "roof": {"latitude": 55.85042, "longitude": -4.307782}}, "link": "/v3/places/4dc82fda18387d1bd5816e2c", "location": {"address": "560 Paisley Rd West", "admin_region": "Scotland", "country": "GB", "cross_street": "Copland Rd.", "formatted_address": "560 Paisley Rd West (Copland Rd.), Glasgow, Glasgow City, G51 1RF", "locality": "Glasgow", "post_town": "Glasgow", "postcode": "G51 1RF", "region": "Glasgow City"}, "name": "Modern Punjabi", "related_places": {}, "timezone": "Europe/London"}, {"fsq_id": "4e287b83fa762797e59dd6aa", "categories": [{"id": 13099, "name": "Chinese Restaurant", "short_name": "Chinese", "plural_name": "Chinese Restaurants", "icon": {"prefix": "https://ss3.4sqi.net/img/categories_v2/food/asian_", "suffix": ".png"}}], "chains": [], "closed_bucket": "LikelyOpen", "distance": 437, "geocodes": {"drop_off": {"latitude": 55.850298, "longitude": -4.307664}, "main": {"latitude": 55.850426, "longitude": -4.307677}, "roof": {"latitude": 55.850426, "longitude": -4.307677}}, "link": "/v3/places/4e287b83fa762797e59dd6aa", "location": {"address": "558 Paisley Rd West", "admin_region": "Scotland", "country": "GB", "cross_street": "Copland Road", "formatted_address": "558 Paisley Rd West (Copland Road), Glasgow, Glasgow City, G51 1RF", "locality": "Glasgow", "post_town": "Glasgow", "postcode": "G51 1RF", "region": "Glasgow City"}, "name": "Sunflower", "related_places": {}, "timezone": "Europe/London"}, {"fsq_id": "989659953c664cee6b8793c6", "categories": [{"id": 13065, "name": "Restaurant", "short_name": "Restaurant", "plural_name": "Restaurants", "icon": {"prefix": "https://ss3.4sqi.net/img/categories_v2/food/default_", "suffix": ".png"}}], "chains": [], "closed_bucket": "VeryLikelyOpen", "distance": 444, "geocodes": {"drop_off": {"latitude": 55.850298, "longitude": -4.307664}, "main": {"latitude": 55.850426, "longitude": -4.307677}, "roof": {"latitude": 55.850426, "longitude": -4.307677}}, "link": "/v3/places/989659953c664cee6b8793c6", "location": {"address": "560 Paisley Rd W", "admin_region": "Scotland", "country": "GB", "formatted_address": "560 Paisley Rd W, Glasgow, Glasgow City, G51 1RF", "locality": "Glasgow", "post_town": "Glasgow", "postcode": "G51 1RF", "region": "Glasgow City"}, "name": "Indian Brasserie", "related_places": {}, "timezone": "Europe/London"}, {"fsq_id": "5da2e7bdde8f3c0008bb83b6", "categories": [{"id": 13034, "name": "Caf\u00e9", "short_name": "Caf\u00e9", "plural_name": "Caf\u00e9s", "icon": {"prefix": "https://ss3.4sqi.net/img/categories_v2/food/cafe_", "suffix": ".png"}}, {"id": 13145, "name": "Fast Food Restaurant", "short_name": "Fast Food", "plural_name": "Fast Food Restaurants", "icon": {"prefix": "https://ss3.4sqi.net/img/categories_v2/food/fastfood_", "suffix": ".png"}}], "chains": [], "closed_bucket": "LikelyOpen", "distance": 468, "geocodes": {"main": {"latitude": 55.850554, "longitude": -4.307295}, "roof": {"latitude": 55.850554, "longitude": -4.307295}}, "link": "/v3/places/5da2e7bdde8f3c0008bb83b6", "location": {"address": "208 Copland Rd", "admin_region": "Scotland", "country": "GB", "cross_street": "", "formatted_address": "208 Copland Rd, Glasgow, Glasgow City, G51 2LB", "locality": "Glasgow", "post_town": "Glasgow", "postcode": "G51 2LB", "region": "Glasgow City"}, "name": "Good Times Roll", "related_places": {}, "timezone": "Europe/London"}, {"fsq_id": "527f81cc498e7b9abc909a09", "categories": [{"id": 13065, "name": "Restaurant", "short_name": "Restaurant", "plural_name": "Restaurants", "icon": {"prefix": "https://ss3.4sqi.net/img/categories_v2/food/default_", "suffix": ".png"}}], "chains": [], "closed_bucket": "VeryLikelyOpen", "distance": 583, "geocodes": {"main": {"latitude": 55.853995, "longitude": -4.30884}, "roof": {"latitude": 55.853995, "longitude": -4.30884}}, "link": "/v3/places/527f81cc498e7b9abc909a09", "location": {"address": "150 Edmiston Dr", "admin_region": "Scotland", "country": "GB", "cross_street": "", "formatted_address": "150 Edmiston Dr, Glasgow, G51 2XD", "locality": "Glasgow", "post_town": "Glasgow", "postcode": "G51 2XD"}, "name": "Argyle House Restaurant", "related_places": {}, "timezone": "Europe/London"}, {"fsq_id": "4eeb75b5775b1d481314a2df", "categories": [{"id": 13051, "name": "Fish and Chips Shop", "short_name": "Fish and Chips Shop", "plural_name": "Fish and Chips Shops", "icon": {"prefix": "https://ss3.4sqi.net/img/categories_v2/food/fishandchips_", "suffix": ".png"}}], "chains": [], "closed_bucket": "VeryLikelyOpen", "distance": 586, "geocodes": {"drop_off": {"latitude": 55.851625, "longitude": -4.306535}, "main": {"latitude": 55.851506, "longitude": -4.306309}, "roof": {"latitude": 55.851506, "longitude": -4.306309}}, "link": "/v3/places/4eeb75b5775b1d481314a2df", "location": {"address": "Caldon Rd", "country": "GB", "cross_street": "", "formatted_address": "Caldon Rd, Irvine, North Ayrshire", "locality": "Irvine", "post_town": "Irvine", "region": "North Ayrshire"}, "name": "Marcos Chippy Caldon Road", "related_places": {}, "timezone": "Europe/London"}, {"fsq_id": "4d206977756e8cfa030d6c54", "categories": [{"id": 13022, "name": "Sports Bar", "short_name": "Sports Bar", "plural_name": "Sports Bars", "icon": {"prefix": "https://ss3.4sqi.net/img/categories_v2/nightlife/sportsbar_", "suffix": ".png"}}], "chains": [], "closed_bucket": "VeryLikelyOpen", "distance": 671, "geocodes": {"main": {"latitude": 55.853922, "longitude": -4.308277}, "roof": {"latitude": 55.853922, "longitude": -4.308277}}, "link": "/v3/places/4d206977756e8cfa030d6c54", "location": {"country": "GB", "cross_street": "", "formatted_address": "Glasgow, Glasgow City", "locality": "Glasgow", "post_town": "Glasgow", "region": "Glasgow City"}, "name": "Bar 72", "related_places": {}, "timezone": "Europe/London"}, {"fsq_id": "c9d8a28c6f1248933f6367a8", "categories": [{"id": 13065, "name": "Restaurant", "short_name": "Restaurant", "plural_name": "Restaurants", "icon": {"prefix": "https://ss3.4sqi.net/img/categories_v2/food/default_", "suffix": ".png"}}], "chains": [], "closed_bucket": "VeryLikelyOpen", "distance": 672, "geocodes": {"drop_off": {"latitude": 55.850572, "longitude": -4.303845}, "main": {"latitude": 55.850279, "longitude": -4.303817}, "roof": {"latitude": 55.850279, "longitude": -4.303817}}, "link": "/v3/places/c9d8a28c6f1248933f6367a8", "location": {"address": "517 Paisley Rd West", "admin_region": "Scotland", "country": "GB", "formatted_address": "517 Paisley Rd West, Glasgow, Glasgow City, G51 1RW", "locality": "Glasgow", "post_town": "Glasgow", "postcode": "G51 1RW", "region": "Glasgow City"}, "name": "GoGrill Restaurant & Bar", "related_places": {}, "timezone": "Europe/London"}, {"fsq_id": "50a75c7ae4b00340960871f1", "categories": [{"id": 13039, "name": "Deli", "short_name": "Deli", "plural_name": "Delis", "icon": {"prefix": "https://ss3.4sqi.net/img/categories_v2/food/deli_", "suffix": ".png"}}], "chains": [], "closed_bucket": "VeryLikelyOpen", "distance": 697, "geocodes": {"main": {"latitude": 55.848758, "longitude": -4.325708}, "roof": {"latitude": 55.848758, "longitude": -4.325708}}, "link": "/v3/places/50a75c7ae4b00340960871f1", "location": {"country": "GB", "cross_street": "", "formatted_address": ""}, "name": "Macphee's Sandwich Bar & Deli", "related_places": {}, "timezone": "Europe/London"}, {"fsq_id": "4bc08624461576b087397a32", "categories": [{"id": 13003, "name": "Bar", "short_name": "Bar", "plural_name": "Bars", "icon": {"prefix": "https://ss3.4sqi.net/img/categories_v2/nightlife/pub_", "suffix": ".png"}}], "chains": [], "closed_bucket": "VeryLikelyOpen", "distance": 871, "geocodes": {"main": {"latitude": 55.854424, "longitude": -4.304122}, "roof": {"latitude": 55.854424, "longitude": -4.304122}}, "link": "/v3/places/4bc08624461576b087397a32", "location": {"country": "GB", "cross_street": "", "formatted_address": ""}, "name": "Stadium Bar", "related_places": {}, "timezone": "Europe/London"}, {"fsq_id": "4d0b3b28109d6dcb5dd18d8d", "categories": [{"id": 13145, "name": "Fast Food Restaurant", "short_name": "Fast Food", "plural_name": "Fast Food Restaurants", "icon": {"prefix": "https://ss3.4sqi.net/img/categories_v2/food/fastfood_", "suffix": ".png"}}], "chains": [], "closed_bucket": "VeryLikelyOpen", "distance": 943, "geocodes": {"main": {"latitude": 55.857451, "longitude": -4.314732}, "roof": {"latitude": 55.857451, "longitude": -4.314732}}, "link": "/v3/places/4d0b3b28109d6dcb5dd18d8d", "location": {"address": "125-133 Helen St", "country": "GB", "cross_street": "", "formatted_address": "125-133 Helen St, Glasgow, Glasgow City", "locality": "Glasgow", "post_town": "Glasgow", "region": "Glasgow City"}, "name": "Gorgeous George's Snacks", "related_places": {}, "timezone": "Europe/London"}, {"fsq_id": "269f129e3c0b4b536b228725", "categories": [{"id": 11024, "name": "Chemicals and Gasses Manufacturer", "short_name": "Chemicals and Gasses Manufacturer", "plural_name": "Chemicals and Gasses Manufacturers", "icon": {"prefix": "https://ss3.4sqi.net/img/categories_v2/building/default_", "suffix": ".png"}}, {"id": 13065, "name": "Restaurant", "short_name": "Restaurant", "plural_name": "Restaurants", "icon": {"prefix": "https://ss3.4sqi.net/img/categories_v2/food/default_", "suffix": ".png"}}, {"id": 17035, "name": "Drugstore", "short_name": "Drugstore", "plural_name": "Drugstores", "icon": {"prefix": "https://ss3.4sqi.net/img/categories_v2/shops/pharmacy_", "suffix": ".png"}}], "chains": [], "closed_bucket": "LikelyOpen", "distance": 968, "geocodes": {"drop_off": {"latitude": 55.851181, "longitude": -4.29937}, "main": {"latitude": 55.851375, "longitude": -4.299401}, "roof": {"latitude": 55.851375, "longitude": -4.299401}}, "link": "/v3/places/269f129e3c0b4b536b228725", "location": {"address": "456 Paisley Rd West", "admin_region": "Scotland", "country": "GB", "formatted_address": "456 Paisley Rd West, Glasgow, G51 1PX", "locality": "Glasgow", "post_town": "Glasgow", "postcode": "G51 1PX"}, "name": "Rowlands Pharmacy Paisley Road West", "related_places": {}, "timezone": "Europe/London"}, {"fsq_id": "036383a499314fddcbf8751b", "categories": [{"id": 13035, "name": "Coffee Shop", "short_name": "Coffee Shop", "plural_name": "Coffee Shops", "icon": {"prefix": "https://ss3.4sqi.net/img/categories_v2/food/coffeeshop_", "suffix": ".png"}}, {"id": 13065, "name": "Restaurant", "short_name": "Restaurant", "plural_name": "Restaurants", "icon": {"prefix": "https://ss3.4sqi.net/img/categories_v2/food/default_", "suffix": ".png"}}], "chains": [], "closed_bucket": "LikelyOpen", "distance": 267, "geocodes": {"drop_off": {"latitude": 55.848484, "longitude": -4.318563}, "main": {"latitude": 55.84864, "longitude": -4.31859}, "roof": {"latitude": 55.84864, "longitude": -4.31859}}, "link": "/v3/places/036383a499314fddcbf8751b", "location": {"address": "1005 Paisley Rd West", "admin_region": "Scotland", "country": "GB", "formatted_address": "1005 Paisley Rd West, Glasgow, G52 1EQ", "locality": "Glasgow", "post_town": "Glasgow", "postcode": "G52 1EQ"}, "name": "Exhale Launch", "related_places": {}}, {"fsq_id": "7717d7611082438ba35650e0", "categories": [{"id": 13065, "name": "Restaurant", "short_name": "Restaurant", "plural_name": "Restaurants", "icon": {"prefix": "https://ss3.4sqi.net/img/categories_v2/food/default_", "suffix": ".png"}}], "chains": [], "closed_bucket": "LikelyOpen", "distance": 412, "geocodes": {"drop_off": {"latitude": 55.850247, "longitude": -4.308187}, "main": {"latitude": 55.850396, "longitude": -4.308202}, "roof": {"latitude": 55.850396, "longitude": -4.308202}}, "link": "/v3/places/7717d7611082438ba35650e0", "location": {"address": "560 Paisley Rd West", "admin_region": "Scotland", "country": "GB", "formatted_address": "560 Paisley Rd West, Glasgow, G51 1RF", "locality": "Glasgow", "post_town": "Glasgow", "postcode": "G51 1RF"}, "name": "Indian Brasserie - Glasgow", "related_places": {}}, {"fsq_id": "3a40a459ebbb481cea1fffb9", "categories": [{"id": 13031, "name": "Burger Joint", "short_name": "Burgers", "plural_name": "Burger Joints", "icon": {"prefix": "https://ss3.4sqi.net/img/categories_v2/food/burger_", "suffix": ".png"}}, {"id": 13145, "name": "Fast Food Restaurant", "short_name": "Fast Food", "plural_name": "Fast Food Restaurants", "icon": {"prefix": "https://ss3.4sqi.net/img/categories_v2/food/fastfood_", "suffix": ".png"}}], "chains": [{"id": "ab4a3530-d68a-012e-5619-003048cad9da", "name": "McDonald's"}], "closed_bucket": "VeryLikelyOpen", "distance": 419, "geocodes": {"main": {"latitude": 55.851426, "longitude": -4.319624}, "roof": {"latitude": 55.851426, "longitude": -4.319624}}, "link": "/v3/places/3a40a459ebbb481cea1fffb9", "location": {"address": "530 Helen St", "admin_region": "Scotland", "country": "GB", "formatted_address": "530 Helen St, Glasgow, G51 3HR", "locality": "Glasgow", "post_town": "Glasgow", "postcode": "G51 3HR"}, "name": "McDonald's", "related_places": {}}, {"fsq_id": "95e3c465267f4f1bdae15182", "categories": [{"id": 13065, "name": "Restaurant", "short_name": "Restaurant", "plural_name": "Restaurants", "icon": {"prefix": "https://ss3.4sqi.net/img/categories_v2/food/default_", "suffix": ".png"}}], "chains": [], "closed_bucket": "LikelyOpen", "distance": 539, "geocodes": {"main": {"latitude": 55.853018, "longitude": -4.309335}, "roof": {"latitude": 55.853018, "longitude": -4.309335}}, "link": "/v3/places/95e3c465267f4f1bdae15182", "location": {"address": "Rangers Football Club Sandy Jardine Stand, Ibrox Stadium", "admin_region": "Scotland", "country": "GB", "formatted_address": "Rangers Football Club Sandy Jardine Stand, Ibrox Stadium, Glasgow, G51 2XD", "locality": "Glasgow", "post_town": "Glasgow", "postcode": "G51 2XD"}, "name": "Argyle House Restaurant", "related_places": {}}, {"fsq_id": "f053a60790fe4da50a12f6b9", "categories": [{"id": 13032, "name": "Cafe, Coffee, and Tea House", "short_name": "Cafe, Coffee, and Tea House", "plural_name": "Cafes, Coffee, and Tea Houses", "icon": {"prefix": "https://ss3.4sqi.net/img/categories_v2/food/coffeeshop_", "suffix": ".png"}}, {"id": 13065, "name": "Restaurant", "short_name": "Restaurant", "plural_name": "Restaurants", "icon": {"prefix": "https://ss3.4sqi.net/img/categories_v2/food/default_", "suffix": ".png"}}], "chains": [], "closed_bucket": "LikelyOpen", "distance": 733, "geocodes": {"drop_off": {"latitude": 55.855479, "longitude": -4.311154}, "main": {"latitude": 55.855398, "longitude": -4.311022}, "roof": {"latitude": 55.855398, "longitude": -4.311022}}, "link": "/v3/places/f053a60790fe4da50a12f6b9", "location": {"address": "322 Broomloan Rd", "admin_region": "Scotland", "country": "GB", "formatted_address": "322 Broomloan Rd, Glasgow, G51 2JQ", "locality": "Glasgow", "post_town": "Glasgow", "postcode": "G51 2JQ"}, "name": "Glasgow Truck Stop Cafe", "related_places": {}}, {"fsq_id": "92e0f28cde9147e2ab219a20", "categories": [{"id": 13022, "name": "Sports Bar", "short_name": "Sports Bar", "plural_name": "Sports Bars", "icon": {"prefix": "https://ss3.4sqi.net/img/categories_v2/nightlife/sportsbar_", "suffix": ".png"}}], "chains": [], "closed_bucket": "LikelyOpen", "distance": 879, "geocodes": {"drop_off": {"latitude": 55.854631, "longitude": -4.304287}, "main": {"latitude": 55.854479, "longitude": -4.304089}, "roof": {"latitude": 55.854479, "longitude": -4.304089}}, "link": "/v3/places/92e0f28cde9147e2ab219a20", "location": {"address": "111 Copland Rd", "admin_region": "Scotland", "country": "GB", "formatted_address": "111 Copland Rd, Glasgow, G51 2SL", "locality": "Glasgow", "post_town": "Glasgow", "postcode": "G51 2SL"}, "name": "Ibrox Stadium - More Than a Pub", "related_places": {}}], "context": {"geo_bounds": {"circle": {"center": {"latitude": 55.849072, "longitude": -4.314376}, "radius": 1000}}}}