{"results": [{"fsq_id": "55ca18f2498e89eef195151d", "categories": [{"id": 13064, "name": "Pizzeria", "short_name": "Pizza", "plural_name": "Pizzerias", "icon": {"prefix": "https://ss3.4sqi.net/img/categories_v2/food/pizza_", "suffix": ".png"}}, {"id": 13236, "name": "Italian Restaurant", "short_name": "Italian", "plural_name": "Italian Restaurants", "icon": {"prefix": "https://ss3.4sqi.net/img/categories_v2/food/italian_", "suffix": ".png"}}], "chains": [], "closed_bucket": "LikelyOpen", "distance": 580, "geocodes": {"main": {"latitude": 55.859642, "longitude": -4.250598}, "roof": {"latitude": 55.859642, "longitude": -4.250598}}, "link": "/v3/places/55ca18f2498e89eef195151d", "location": {"address": "94 Miller St", "admin_region": "Scotland", "country": "GB", "cross_street": "Ingram St", "formatted_address": "94 Miller St (Ingram St), Glasgow, Glasgow City, G1 1DT", "locality": "Glasgow", "post_town": "Glasgow", "postcode": "G1 1DT", "region": "Glasgow City"}, "name": "Paesano Pizza", "related_places": {}, "timezone": "Europe/London"}, {"fsq_id": "4bb7a8451261d13a09a7e798", "categories": [{"id": 13024, "name": "Whisky Bar", "short_name": "Whisky Bar", "plural_name": "Whisky Bars", "icon": {"prefix": "https://ss3.4sqi.net/img/categories_v2/nightlife/whiskey_", "suffix": ".png"}}, {"id": 13025, "name": "Wine Bar", "short_name": "Wine Bar", "plural_name": "Wine Bars", "icon": {"prefix": "https://ss3.4sqi.net/img/categories_v2/food/winery_", "suffix": ".png"}}, {"id": 13065, "name": "Restaurant", "short_name": "Restaurant", "plural_name": "Restaurants", "icon": {"prefix": "https://ss3.4sqi.net/img/categories_v2/food/default_", "suffix": ".png"}}], "chains": [], "closed_bucket": "Unsure", "distance": 497, "geocodes": {"main": {"latitude": 55.862979, "longitude": -4.257673}, "roof": {"latitude": 55.862979, "longitude": -4.257673}}, "link": "/v3/places/4bb7a8451261d13a09a7e798", "location": {"address": "154 Hope St", "admin_region": "Scotland", "country": "GB", "cross_street": "W Regent St", "formatted_address": "154 Hope St (W Regent St), Glasgow, Glasgow City, G2 2TH", "locality": "Glasgow", "post_town": "Glasgow", "postcode": "G2 2TH", "region": "Glasgow City"}, "name": "The Pot Still", "related_places": {}, "timezone": "Europe/London"}, {"fsq_id": "4b1fe8d7f964a520a32a24e3", "categories": [{"id": 13003, "name": "Bar", "short_name": "Bar", "plural_name": "Bars", "icon": {"prefix": "https://ss3.4sqi.net/img/categories_v2/nightlife/pub_", "suffix": ".png"}}, {"id": 13057, "name": "Gastropub", "short_name": "Gastropub", "plural_name": "Gastropubs", "icon": {"prefix": "https://ss3.4sqi.net/img/categories_v2/food/gastropub_", "suffix": ".png"}}], "chains": [], "closed_bucket": "Unsure", "distance": 649, "geocodes": {"main": {"latitude": 55.864262, "longitude": -4.261041}, "roof": {"latitude": 55.864262, "longitude": -4.261041}}, "link": "/v3/places/4b1fe8d7f964a520a32a24e3", "location": {"address": "153 Bath St", "admin_region": "Scotland", "country": "GB", "formatted_address": "153 Bath St, Glasgow, Glasgow City, G2 4SQ", "locality": "Glasgow", "post_town": "Glasgow", "postcode": "G2 4SQ", "region": "Glasgow City"}, "name": "The Butterfly & the Pig", "related_places": {}, "timezone": "Europe/London"}, {"fsq_id": "54c7cade498e300defb0985f", "categories": [{"id": 13034, "name": "Caf\u00e9", "short_name": "Caf\u00e9", "plural_name": "Caf\u00e9s", "icon": {"prefix": "https://ss3.4sqi.net/img/categories_v2/food/cafe_", "suffix": ".png"}}, {"id": 13065, "name": "Restaurant", "short_name": "Restaurant", "plural_name": "Restaurants", "icon": {"prefix": "https://ss3.4sqi.net/img/categories_v2/food/default_", "suffix": ".png"}}], "chains": [], "closed_bucket": "Unsure", "distance": 866, "geocodes": {"main": {"latitude": 55.858485, "longitude": -4.245939}, "roof": {"latitude": 55.858485, "longitude": -4.245939}}, "link": "/v3/places/54c7cade498e300defb0985f", "location": {"address": "6 Wilson St", "admin_region": "Scotland", "country": "GB", "cross_street": "", "formatted_address": "6 Wilson St, Glasgow, Glasgow City, G1 1SS", "locality": "Glasgow", "post_town": "Glasgow", "postcode": "G1 1SS", "region": "Glasgow City"}, "name": "Wilson Street Pantry", "related_places": {}, "timezone": "Europe/London"}, {"fsq_id": "53e52950498ee2c0974731b8", "categories": [{"id": 10000, "name": "Arts and Entertainment", "short_name": "Arts & Entertainment", "plural_name": "Arts and Entertainment", "icon": {"prefix": "https://ss3.4sqi.net/img/categories_v2/arts_entertainment/default_", "suffix": ".png"}}, {"id": 13006, "name": "Beer Bar", "short_name": "Beer Bar", "plural_name": "Beer Bars", "icon": {"prefix": "https://ss3.4sqi.net/img/categories_v2/nightlife/pub_", "suffix": ".png"}}, {"id": 13026, "name": "BBQ Joint", "short_name": "BBQ", "plural_name": "BBQ Joints", "icon": {"prefix": "https://ss3.4sqi.net/img/categories_v2/food/bbqalt_", "suffix": ".png"}}], "chains": [], "closed_bucket": "Unsure", "distance": 753, "geocodes": {"drop_off": {"latitude": 55.859269, "longitude": -4.247825}, "main": {"latitude": 55.859318, "longitude": -4.247961}, "roof": {"latitude": 55.859318, "longitude": -4.247961}}, "link": "/v3/places/53e52950498ee2c0974731b8", "location": {"address": "99 Hutcheson St", "admin_region": "Scotland", "country": "GB", "cross_street": "", "formatted_address": "99 Hutcheson St, Glasgow, Glasgow City, G1 1SN", "locality": "Glasgow", "post_town": "Glasgow", "postcode": "G1 1SN", "region": "Glasgow City"}, "name": "DogHouse Merchant City", "related_places": {}, "timezone": "Europe/London"}, {"fsq_id": "4b852d7bf964a5207d4f31e3", "categories": [{"id": 13024, "name": "Whisky Bar", "short_name": "Whisky Bar", "plural_name": "Whisky Bars", "icon": {"prefix": "https://ss3.4sqi.net/img/categories_v2/nightlife/whiskey_", "suffix": ".png"}}], "chains": [], "closed_bucket": "Unsure", "distance": 931, "geocodes": {"main": {"latitude": 55.864143, "longitude": -4.271445}, "roof": {"latitude": 55.864143, "longitude": -4.271445}}, "link": "/v3/places/4b852d7bf964a5207d4f31e3", "location": {"address": "153 North St", "admin_region": "Scotland", "country": "GB", "formatted_address": "153 North St, Glasgow, Glasgow City, G3 7DA", "locality": "Glasgow", "post_town": "Glasgow", "postcode": "G3 7DA", "region": "Glasgow City"}, "name": "Bon Accord", "related_places": {}, "timezone": "Europe/London"}, {"fsq_id": "4c54b19ea724e21e442cc8f6", "categories": [{"id": 10032, "name": "Night Club", "short_name": "Night Club", "plural_name": "Night Clubs", "icon": {"prefix": "https://ss3.4sqi.net/img/categories_v2/nightlife/nightclub_", "suffix": ".png"}}, {"id": 13003, "name": "Bar", "short_name": "Bar", "plural_name": "Bars", "icon": {"prefix": "https://ss3.4sqi.net/img/categories_v2/nightlife/pub_", "suffix": ".png"}}], "chains": [], "closed_bucket": "Unsure", "distance": 204, "geocodes": {"main": {"latitude": 55.858106, "longitude": -4.257209}, "roof": {"latitude": 55.858106, "longitude": -4.257209}}, "link": "/v3/places/4c54b19ea724e21e442cc8f6", "location": {"address": "22 Jamaica St", "admin_region": "Scotland", "country": "GB", "formatted_address": "22 Jamaica St, Glasgow, Glasgow City, G1 4QD", "locality": "Glasgow", "post_town": "Glasgow", "postcode": "G1 4QD", "region": "Glasgow City"}, "name": "Sub Club", "related_places": {}, "timezone": "Europe/London"}, {"fsq_id": "55ba4ae6498e9ddd9b04f40f", "categories": [{"id": 13006, "name": "Beer Bar", "short_name": "Beer Bar", "plural_name": "Beer Bars", "icon": {"prefix": "https://ss3.4sqi.net/img/categories_v2/nightlife/pub_", "suffix": ".png"}}, {"id": 13018, "name": "Pub", "short_name": "Pub", "plural_name": "Pubs", "icon": {"prefix": "https://ss3.4sqi.net/img/categories_v2/nightlife/pub_", "suffix": ".png"}}, {"id": 13065, "name": "Restaurant", "short_name": "Restaurant", "plural_name": "Restaurants", "icon": {"prefix": "https://ss3.4sqi.net/img/categories_v2/food/default_", "suffix": ".png"}}], "chains": [], "closed_bucket": "VeryLikelyOpen", "distance": 765, "geocodes": {"drop_off": {"latitude": 55.85458, "longitude": -4.250334}, "main": {"latitude": 55.85446, "longitude": -4.250021}, "roof": {"latitude": 55.85446, "longitude": -4.250021}}, "link": "/v3/places/55ba4ae6498e9ddd9b04f40f", "location": {"address": "167-169 Stockwell St", "admin_region": "Scotland", "country": "GB", "cross_street": "", "formatted_address": "167-169 Stockwell St, Glasgow, Glasgow City, G1 4SP", "locality": "Glasgow", "post_town": "Glasgow", "postcode": "G1 4SP", "region": "Glasgow City"}, "name": "The Clutha Bar", "related_places": {}, "timezone": "Europe/London"}, {"fsq_id": "53c583cf498e63ea4da3718c", "categories": [{"id": 13303, "name": "Mexican Restaurant", "short_name": "Mexican", "plural_name": "Mexican Restaurants", "icon": {"prefix": "https://ss3.4sqi.net/img/categories_v2/food/mexican_", "suffix": ".png"}}, {"id": 13347, "name": "Tapas Restaurant", "short_name": "Tapas", "plural_name": "Tapas Restaurants", "icon": {"prefix": "https://ss3.4sqi.net/img/categories_v2/food/tapas_", "suffix": ".png"}}], "chains": [], "closed_bucket": "Unsure", "distance": 377, "geocodes": {"main": {"latitude": 55.861321, "longitude": -4.256256}, "roof": {"latitude": 55.861321, "longitude": -4.256256}}, "link": "/v3/places/53c583cf498e63ea4da3718c", "location": {"address": "89 St Vincent St", "admin_region": "Scotland", "country": "GB", "cross_street": "", "formatted_address": "89 St Vincent St, Glasgow, G2 5TF", "locality": "Glasgow", "post_town": "Glasgow", "postcode": "G2 5TF"}, "name": "Topolabamba", "related_places": {}, "timezone": "Europe/London"}, {"fsq_id": "543d3e26498e1b6b7dc59538", "categories": [{"id": 13009, "name": "Cocktail Bar", "short_name": "Cocktail", "plural_name": "Cocktail Bars", "icon": {"prefix": "https://ss3.4sqi.net/img/categories_v2/nightlife/cocktails_", "suffix": ".png"}}, {"id": 13025, "name": "Wine Bar", "short_name": "Wine Bar", "plural_name": "Wine Bars", "icon": {"prefix": "https://ss3.4sqi.net/img/categories_v2/food/winery_", "suffix": ".png"}}, {"id": 13049, "name": "Diner", "short_name": "Diner", "plural_name": "Diners", "icon": {"prefix": "https://ss3.4sqi.net/img/categories_v2/food/diner_", "suffix": ".png"}}], "chains": [], "closed_bucket": "Unsure", "distance": 545, "geocodes": {"main": {"latitude": 55.861172, "longitude": -4.252397}, "roof": {"latitude": 55.861172, "longitude": -4.252397}}, "link": "/v3/places/543d3e26498e1b6b7dc59538", "location": {"address": "12-16 St Vincent Pl", "admin_region": "Scotland", "country": "GB", "cross_street": "", "formatted_address": "12-16 St Vincent Pl, Glasgow, G1 2DH", "locality": "Glasgow", "post_town": "Glasgow", "postcode": "G1 2DH"}, "name": "Anchor Line", "related_places": {}, "timezone": "Europe/London"}, {"fsq_id": "4b4c7ebcf964a52074b426e3", "categories": [{"id": 13003, "name": "Bar", "short_name": "Bar", "plural_name": "Bars", "icon": {"prefix": "https://ss3.4sqi.net/img/categories_v2/nightlife/pub_", "suffix": ".png"}}, {"id": 13338, "name": "Seafood Restaurant", "short_name": "Seafood", "plural_name": "Seafood Restaurants", "icon": {"prefix": "https://ss3.4sqi.net/img/categories_v2/food/seafood_", "suffix": ".png"}}], "chains": [], "closed_bucket": "VeryLikelyOpen", "distance": 665, "geocodes": {"main": {"latitude": 55.86114, "longitude": -4.250188}, "roof": {"latitude": 55.86114, "longitude": -4.250188}}, "link": "/v3/places/4b4c7ebcf964a52074b426e3", "location": {"address": "40 George Square", "admin_region": "Scotland", "country": "GB", "formatted_address": "40 George Square, Glasgow, Glasgow City, G2 1DS", "locality": "Glasgow", "post_town": "Glasgow", "postcode": "G2 1DS", "region": "Glasgow City"}, "name": "George Square", "related_places": {"children": []}, "timezone": "Europe/London"}, {"fsq_id": "57b3526b498ef25faac11255", "categories": [{"id": 13177, "name": "Greek Restaurant", "short_name": "Greek", "plural_name": "Greek Restaurants", "icon": {"prefix": "https://ss3.4sqi.net/img/categories_v2/food/greek_", "suffix": ".png"}}], "chains": [], "closed_bucket": "LikelyOpen", "distance": 416, "geocodes": {"main": {"latitude": 55.862257, "longitude": -4.258316}, "roof": {"latitude": 55.862257, "longitude": -4.258316}}, "link": "/v3/places/57b3526b498ef25faac11255", "location": {"address": "161 Hope St", "admin_region": "Scotland", "country": "GB", "cross_street": "", "formatted_address": "161 Hope St, Glasgow, Glasgow City, G2 2UQ", "locality": "Glasgow", "post_town": "Glasgow", "postcode": "G2 2UQ", "region": "Glasgow City"}, "name": "Halloumi", "related_places": {}, "timezone": "Europe/London"}, {"fsq_id": "58037931d67cf45e38f69da8", "categories": [{"id": 13199, "name": "Indian Restaurant", "short_name": "Indian", "plural_name": "Indian Restaurants", "icon": {"prefix": "https://ss3.4sqi.net/img/categories_v2/food/indian_", "suffix": ".png"}}], "chains": [], "closed_bucket": "VeryLikelyOpen", "distance": 392, "geocodes": {"drop_off": {"latitude": 55.861395, "longitude": -4.255884}, "main": {"latitude": 55.861236, "longitude": -4.255903}, "roof": {"latitude": 55.861236, "longitude": -4.255903}}, "link": "/v3/places/58037931d67cf45e38f69da8", "location": {"address": "79 St Vincent St", "admin_region": "Scotland", "country": "GB", "cross_street": "", "formatted_address": "79 St Vincent St, Glasgow, Glasgow City, G2 5TF", "locality": "Glasgow", "post_town": "Glasgow", "postcode": "G2 5TF", "region": "Glasgow City"}, "name": "Chaakoo Bombay Cafe", "related_places": {}, "timezone": "Europe/London"}, {"fsq_id": "59b2e2a647f8761788a16b5f", "categories": [{"id": 13009, "name": "Cocktail Bar", "short_name": "Cocktail", "plural_name": "Cocktail Bars", "icon": {"prefix": "https://ss3.4sqi.net/img/categories_v2/nightlife/cocktails_", "suffix": ".png"}}, {"id": 13065, "name": "Restaurant", "short_name": "Restaurant", "plural_name": "Restaurants", "icon": {"prefix": "https://ss3.4sqi.net/img/categories_v2/food/default_", "suffix": ".png"}}], "chains": [], "closed_bucket": "Unsure", "distance": 525, "geocodes": {"drop_off": {"latitude": 55.861034, "longitude": -4.252725}, "main": {"latitude": 55.861154, "longitude": -4.252712}, "roof": {"latitude": 55.861154, "longitude": -4.252712}}, "link": "/v3/places/59b2e2a647f8761788a16b5f", "location": {"address": "24 St Vincent Pl", "admin_region": "Scotland", "country": "GB", "cross_street": "", "formatted_address": "24 St Vincent Pl, Glasgow, Glasgow City, G1 2EU", "locality": "Glasgow", "post_town": "Glasgow", "postcode": "G1 2EU", "region": "Glasgow City"}, "name": "The Citizen Bar & Dining Rooms", "related_places": {}, "timezone": "Europe/London"}, {"fsq_id": "5180eb5a498e2b4ff6c7ab2f", "categories": [{"id": 13013, "name": "Hotel Bar", "short_name": "Hotel Bar", "plural_name": "Hotel Bars", "icon": {"prefix": "https://ss3.4sqi.net/img/categories_v2/travel/hotel_bar_", "suffix": ".png"}}], "chains": [], "closed_bucket": "VeryLikelyOpen", "distance": 46, "geocodes": {"main": {"latitude": 55.858813, "longitude": -4.260524}, "roof": {"latitude": 55.858813, "longitude": -4.260524}}, "link": "/v3/places/5180eb5a498e2b4ff6c7ab2f", "location": {"country": "GB", "cross_street": "", "formatted_address": ""}, "name": "The Atrium, Radisson Blu", "related_places": {"parent": {"fsq_id": "4b6385b5f964a5208f802ae3", "categories": [{"id": 19014, "name": "Hotel", "short_name": "Hotel", "plural_name": "Hotels", "icon": {"prefix": "https://ss3.4sqi.net/img/categories_v2/travel/hotel_", "suffix": ".png"}}], "name": "Radisson Blu Hotel, Glasgow"}}, "timezone": "Europe/London"}, {"fsq_id": "536e50f2498e80034a00e575", "categories": [{"id": 10000, "name": "Arts and Entertainment", "short_name": "Arts & Entertainment", "plural_name": "Arts and Entertainment", "icon": {"prefix": "https://ss3.4sqi.net/img/categories_v2/arts_entertainment/default_", "suffix": ".png"}}, {"id": 13018, "name": "Pub", "short_name": "Pub", "plural_name": "Pubs", "icon": {"prefix": "https://ss3.4sqi.net/img/categories_v2/nightlife/pub_", "suffix": ".png"}}, {"id": 13065, "name": "Restaurant", "short_name": "Restaurant", "plural_name": "Restaurants", "icon": {"prefix": "https://ss3.4sqi.net/img/categories_v2/food/default_", "suffix": ".png"}}], "chains": [], "closed_bucket": "VeryLikelyOpen", "distance": 657, "geocodes": {"main": {"latitude": 55.864532, "longitude": -4.25814}, "roof": {"latitude": 55.864532, "longitude": -4.25814}}, "link": "/v3/places/536e50f2498e80034a00e575", "location": {"address": "57-59 Sauchiehall Lane", "admin_region": "Scotland", "country": "GB", "cross_street": "", "formatted_address": "57-59 Sauchiehall Lane, Glasgow, G2 4AB", "locality": "Glasgow", "post_town": "Glasgow", "postcode": "G2 4AB"}, "name": "Malones Irish Bar", "related_places": {}, "timezone": "Europe/London"}, {"fsq_id": "5de800781a9c7d0008fa7469", "categories": [{"id": 13236, "name": "Italian Restaurant", "short_name": "Italian", "plural_name": "Italian Restaurants", "icon": {"prefix": "https://ss3.4sqi.net/img/categories_v2/food/italian_", "suffix": ".png"}}], "chains": [], "closed_bucket": "Unsure", "distance": 292, "geocodes": {"drop_off": {"latitude": 55.859744, "longitude": -4.255787}, "main": {"latitude": 55.859725, "longitude": -4.255611}, "roof": {"latitude": 55.859725, "longitude": -4.255611}}, "link": "/v3/places/5de800781a9c7d0008fa7469", "location": {"address": "60-70 Mitchell St", "admin_region": "Scotland", "country": "GB", "cross_street": "Mitchell Lane", "formatted_address": "60-70 Mitchell St (Mitchell Lane), Glasgow, Glasgow City", "locality": "Glasgow", "post_town": "Glasgow", "region": "Glasgow City"}, "name": "Sugo", "related_places": {}, "timezone": "Europe/London"}, {"fsq_id": "4b2cfd42f964a520e2cb24e3", "categories": [{"id": 13034, "name": "Caf\u00e9", "short_name": "Caf\u00e9", "plural_name": "Caf\u00e9s", "icon": {"prefix": "https://ss3.4sqi.net/img/categories_v2/food/cafe_", "suffix": ".png"}}, {"id": 13035, "name": "Coffee Shop", "short_name": "Coffee Shop", "plural_name": "Coffee Shops", "icon": {"prefix": "https://ss3.4sqi.net/img/categories_v2/food/coffeeshop_", "suffix": ".png"}}, {"id": 13065, "name": "Restaurant", "short_name": "Restaurant", "plural_name": "Restaurants", "icon": {"prefix": "https://ss3.4sqi.net/img/categories_v2/food/default_", "suffix": ".png"}}], "chains": [], "closed_bucket": "Unsure", "distance": 863, "geocodes": {"main": {"latitude": 55.859735, "longitude": -4.246187}, "roof": {"latitude": 55.859735, "longitude": -4.246187}}, "link": "/v3/places/4b2cfd42f964a520e2cb24e3", "location": {"address": "118 Ingram St", "address_extended": "Unit 4", "admin_region": "Scotland", "country": "GB", "formatted_address": "118 Ingram St, Glasgow, Glasgow City, G1 1EJ", "locality": "Glasgow", "post_town": "Glasgow", "postcode": "G1 1EJ", "region": "Glasgow City"}, "name": "Tinderbox", "related_places": {}, "timezone": "Europe/London"}, {"fsq_id": "5b3ce578bed48300393b04e7", "categories": [{"id": 13065, "name": "Restaurant", "short_name": "Restaurant", "plural_name": "Restaurants", "icon": {"prefix": "https://ss3.4sqi.net/img/categories_v2/food/default_", "suffix": ".png"}}], "chains": [], "closed_bucket": "VeryLikelyOpen", "distance": 729, "geocodes": {"drop_off": {"latitude": 55.865139, "longitude": -4.26108}, "main": {"latitude": 55.864996, "longitude": -4.261098}, "roof": {"latitude": 55.864996, "longitude": -4.261098}}, "link": "/v3/places/5b3ce578bed48300393b04e7", "location": {"address": "217 Sauchiehall St", "admin_region": "Scotland", "country": "GB", "cross_street": "", "formatted_address": "217 Sauchiehall St, Glasgow, Glasgow City, G2 3EX", "locality": "Glasgow", "post_town": "Glasgow", "postcode": "G2 3EX", "region": "Glasgow City"}, "name": "Mackintosh at the Willow", "related_places": {}, "timezone": "Europe/London"}, {"fsq_id": "4d1e398e6e8c3704d4cee49f", "categories": [{"id": 13009, "name": "Cocktail Bar", "short_name": "Cocktail", "plural_name": "Cocktail Bars", "icon": {"prefix": "https://ss3.4sqi.net/img/categories_v2/nightlife/cocktails_", "suffix": ".png"}}, {"id": 13352, "name": "Thai Restaurant", "short_name": "Thai", "plural_name": "Thai Restaurants", "icon": {"prefix": "https://ss3.4sqi.net/img/categories_v2/food/thai_", "suffix": ".png"}}], "chains": [], "closed_bucket": "LikelyOpen", "distance": 746, "geocodes": {"main": {"latitude": 55.864914, "longitude": -4.26439}, "roof": {"latitude": 55.864914, "longitude": -4.26439}}, "link": "/v3/places/4d1e398e6e8c3704d4cee49f", "location": {"address": "214 Bath St", "admin_region": "Scotland", "country": "GB", "formatted_address": "214 Bath St, Glasgow, Glasgow City, G2 4HW", "locality": "Glasgow", "post_town": "Glasgow", "postcode": "G2 4HW", "region": "Glasgow City"}, "name": "Tiki Bar & Kitsch Inn", "related_places": {}, "timezone": "Europe/London"}, {"fsq_id": "5371be2f498e5399f8fc2010", "categories": [{"id": 13034, "name": "Caf\u00e9", "short_name": "Caf\u00e9", "plural_name": "Caf\u00e9s", "icon": {"prefix": "https://ss3.4sqi.net/img/categories_v2/food/cafe_", "suffix": ".png"}}, {"id": 13035, "name": "Coffee Shop", "short_name": "Coffee Shop", "plural_name": "Coffee Shops", "icon": {"prefix": "https://ss3.4sqi.net/img/categories_v2/food/coffeeshop_", "suffix": ".png"}}, {"id": 13065, "name": "Restaurant", "short_name": "Restaurant", "plural_name": "Restaurants", "icon": {"prefix": "https://ss3.4sqi.net/img/categories_v2/food/default_", "suffix": ".png"}}], "chains": [], "closed_bucket": "Unsure", "distance": 247, "geocodes": {"main": {"latitude": 55.8604, "longitude": -4.257629}, "roof": {"latitude": 55.8604, "longitude": -4.257629}}, "link": "/v3/places/5371be2f498e5399f8fc2010", "location": {"address": "79 Gordon St", "admin_region": "Scotland", "country": "GB", "cross_street": "", "formatted_address": "79 Gordon St, Glasgow, Glasgow City, G1 3SQ", "locality": "Glasgow", "post_town": "Glasgow", "postcode": "G1 3SQ", "region": "Glasgow City"}, "name": "Gordon Street Coffee", "related_places": {}, "timezone": "Europe/London"}, {"fsq_id": "5758817d498eee35ef6c2d0d", "categories": [{"id": 13003, "name": "Bar", "short_name": "Bar", "plural_name": "Bars", "icon": {"prefix": "https://ss3.4sqi.net/img/categories_v2/nightlife/pub_", "suffix": ".png"}}, {"id": 13029, "name": "Brewery", "short_name": "Brewery", "plural_name": "Breweries", "icon": {"prefix": "https://ss3.4sqi.net/img/categories_v2/food/brewery_", "suffix": ".png"}}, {"id": 13065, "name": "Restaurant", "short_name": "Restaurant", "plural_name": "Restaurants", "icon": {"prefix": "https://ss3.4sqi.net/img/categories_v2/food/default_", "suffix": ".png"}}], "chains": [], "closed_bucket": "Unsure", "distance": 500, "geocodes": {"drop_off": {"latitude": 55.86217, "longitude": -4.25515}, "main": {"latitude": 55.862333, "longitude": -4.25513}, "roof": {"latitude": 55.862333, "longitude": -4.25513}}, "link": "/v3/places/5758817d498eee35ef6c2d0d", "location": {"address": "92 West George St", "admin_region": "Scotland", "country": "GB", "cross_street": "", "formatted_address": "92 West George St, Glasgow, G2 1PJ", "locality": "Glasgow", "post_town": "Glasgow", "postcode": "G2 1PJ"}, "name": "Shilling Brewing Co", "related_places": {}, "timezone": "Europe/London"}, {"fsq_id": "4b4df610f964a52050dc26e3", "categories": [{"id": 13007, "name": "Beer Garden", "short_name": "Beer Garden", "plural_name": "Beer Gardens", "icon": {"prefix": "https://ss3.4sqi.net/img/categories_v2/nightlife/beergarden_", "suffix": ".png"}}, {"id": 13018, "name": "Pub", "short_name": "Pub", "plural_name": "Pubs", "icon": {"prefix": "https://ss3.4sqi.net/img/categories_v2/nightlife/pub_", "suffix": ".png"}}, {"id": 13064, "name": "Pizzeria", "short_name": "Pizza", "plural_name": "Pizzerias", "icon": {"prefix": "https://ss3.4sqi.net/img/categories_v2/food/pizza_", "suffix": ".png"}}], "chains": [], "closed_bucket": "Unsure", "distance": 381, "geocodes": {"main": {"latitude": 55.860258, "longitude": -4.254576}, "roof": {"latitude": 55.860258, "longitude": -4.254576}}, "link": "/v3/places/4b4df610f964a52050dc26e3", "location": {"address": "9 Gordon St", "admin_region": "Scotland", "country": "GB", "cross_street": "", "formatted_address": "9 Gordon St, Glasgow, Glasgow City, G1 3PL", "locality": "Glasgow", "post_town": "Glasgow", "postcode": "G1 3PL", "region": "Glasgow City"}, "name": "Republic Bier Halle", "related_places": {}, "timezone": "Europe/London"}, {"fsq_id": "53220210498e48f21ce03d27", "categories": [{"id": 13018, "name": "Pub", "short_name": "Pub", "plural_name": "Pubs", "icon": {"prefix": "https://ss3.4sqi.net/img/categories_v2/nightlife/pub_", "suffix": ".png"}}, {"id": 10041, "name": "Rock Club", "short_name": "Rock Club", "plural_name": "Rock Clubs", "icon": {"prefix": "https://ss3.4sqi.net/img/categories_v2/arts_entertainment/musicvenue_rockclub_", "suffix": ".png"}}], "chains": [], "closed_bucket": "LikelyOpen", "distance": 613, "geocodes": {"drop_off": {"latitude": 55.864044, "longitude": -4.258178}, "main": {"latitude": 55.864162, "longitude": -4.258164}, "roof": {"latitude": 55.864162, "longitude": -4.258164}}, "link": "/v3/places/53220210498e48f21ce03d27", "location": {"address": "100 Bath St", "admin_region": "Scotland", "country": "GB", "cross_street": "", "formatted_address": "100 Bath St, Glasgow, Glasgow City, G2 2EN", "locality": "Glasgow", "post_town": "Glasgow", "postcode": "G2 2EN", "region": "Glasgow City"}, "name": "The Howlin' Wolf", "related_places": {}, "timezone": "Europe/London"}, {"fsq_id": "4b2bc508f964a52095ba24e3", "categories": [{"id": 10032, "name": "Night Club", "short_name": "Night Club", "plural_name": "Night Clubs", "icon": {"prefix": "https://ss3.4sqi.net/img/categories_v2/nightlife/nightclub_", "suffix": ".png"}}, {"id": 13003, "name": "Bar", "short_name": "Bar", "plural_name": "Bars", "icon": {"prefix": "https://ss3.4sqi.net/img/categories_v2/nightlife/pub_", "suffix": ".png"}}, {"id": 13065, "name": "Restaurant", "short_name": "Restaurant", "plural_name": "Restaurants", "icon": {"prefix": "https://ss3.4sqi.net/img/categories_v2/food/default_", "suffix": ".png"}}], "chains": [], "closed_bucket": "Unsure", "distance": 1006, "geocodes": {"main": {"latitude": 55.865913, "longitude": -4.269046}, "roof": {"latitude": 55.865913, "longitude": -4.269046}}, "link": "/v3/places/4b2bc508f964a52095ba24e3", "location": {"address": "421 Sauchiehall St", "admin_region": "Scotland", "country": "GB", "formatted_address": "421 Sauchiehall St, Glasgow, G2 3LG", "locality": "Glasgow", "post_town": "Glasgow", "postcode": "G2 3LG"}, "name": "Nice N Sleazy", "related_places": {"children": []}, "timezone": "Europe/London"}, {"fsq_id": "5644eccf498e44610759212b", "categories": [{"id": 13006, "name": "Beer Bar", "short_name": "Beer Bar", "plural_name": "Beer Bars", "icon": {"prefix": "https://ss3.4sqi.net/img/categories_v2/nightlife/pub_", "suffix": ".png"}}, {"id": 13065, "name": "Restaurant", "short_name": "Restaurant", "plural_name": "Restaurants", "icon": {"prefix": "https://ss3.4sqi.net/img/categories_v2/food/default_", "suffix": ".png"}}], "chains": [], "closed_bucket": "VeryLikelyOpen", "distance": 285, "geocodes": {"main": {"latitude": 55.861276, "longitude": -4.259828}, "roof": {"latitude": 55.861276, "longitude": -4.259828}}, "link": "/v3/places/5644eccf498e44610759212b", "location": {"address": "30 Bothwell St", "admin_region": "Scotland", "country": "GB", "cross_street": "", "formatted_address": "30 Bothwell St, Glasgow, Glasgow City, G2 6NU", "locality": "Glasgow", "post_town": "Glasgow", "postcode": "G2 6NU", "region": "Glasgow City"}, "name": "Bavaria Brauhaus", "related_places": {}, "timezone": "Europe/London"}, {"fsq_id": "57e32fed498e1b7a265a1ad2", "categories": [{"id": 13064, "name": "Pizzeria", "short_name": "Pizza", "plural_name": "Pizzerias", "icon": {"prefix": "https://ss3.4sqi.net/img/categories_v2/food/pizza_", "suffix": ".png"}}], "chains": [], "closed_bucket": "LikelyOpen", "distance": 399, "geocodes": {"main": {"latitude": 55.861503, "longitude": -4.255841}, "roof": {"latitude": 55.861503, "longitude": -4.255841}}, "link": "/v3/places/57e32fed498e1b7a265a1ad2", "location": {"address": "90 St Vincent St", "admin_region": "Scotland", "country": "GB", "cross_street": "", "formatted_address": "90 St Vincent St, Glasgow, G2 5UB", "locality": "Glasgow", "post_town": "Glasgow", "postcode": "G2 5UB"}, "name": "Pizza Punks", "related_places": {}, "timezone": "Europe/London"}, {"fsq_id": "4b684fb0f964a52011712be3", "categories": [{"id": 13263, "name": "Japanese Restaurant", "short_name": "Japanese", "plural_name": "Japanese Restaurants", "icon": {"prefix": "https://ss3.4sqi.net/img/categories_v2/food/japanese_", "suffix": ".png"}}], "chains": [], "closed_bucket": "VeryLikelyOpen", "distance": 476, "geocodes": {"main": {"latitude": 55.862103, "longitude": -4.255473}, "roof": {"latitude": 55.862103, "longitude": -4.255473}}, "link": "/v3/places/4b684fb0f964a52011712be3", "location": {"address": "97 West George St", "admin_region": "Scotland", "country": "GB", "formatted_address": "97 West George St, Glasgow, Glasgow City, G2 1PB", "locality": "Glasgow", "post_town": "Glasgow", "postcode": "G2 1PB", "region": "Glasgow City"}, "name": "Wagamama Glasgow City Centre", "related_places": {}, "timezone": "Europe/London"}, {"fsq_id": "5d472f2606251200087766db", "categories": [{"id": 13065, "name": "Restaurant", "short_name": "Restaurant", "plural_name": "Restaurants", "icon": {"prefix": "https://ss3.4sqi.net/img/categories_v2/food/default_", "suffix": ".png"}}], "chains": [], "closed_bucket": "VeryLikelyOpen", "distance": 420, "geocodes": {"drop_off": {"latitude": 55.860614, "longitude": -4.254093}, "main": {"latitude": 55.860512, "longitude": -4.253813}, "roof": {"latitude": 55.860512, "longitude": -4.253813}}, "link": "/v3/places/5d472f2606251200087766db", "location": {"address": "106 Buchanan St", "admin_region": "Scotland", "country": "GB", "cross_street": "", "formatted_address": "106 Buchanan St, Glasgow, Glasgow City, G1 2NB", "locality": "Glasgow", "post_town": "Glasgow", "postcode": "G1 2NB", "region": "Glasgow City"}, "name": "The Ivy Buchanan Street, Glasgow", "related_places": {}, "timezone": "Europe/London"}, {"fsq_id": "4eecb82346907303be234128", "categories": [{"id": 13034, "name": "Caf\u00e9", "short_name": "Caf\u00e9", "plural_name": "Caf\u00e9s", "icon": {"prefix": "https://ss3.4sqi.net/img/categories_v2/food/cafe_", "suffix": ".png"}}, {"id": 13035, "name": "Coffee Shop", "short_name": "Coffee Shop", "plural_name": "Coffee Shops", "icon": {"prefix": "https://ss3.4sqi.net/img/categories_v2/food/coffeeshop_", "suffix": ".png"}}, {"id": 13065, "name": "Restaurant", "short_name": "Restaurant", "plural_name": "Restaurants", "icon": {"prefix": "https://ss3.4sqi.net/img/categories_v2/food/default_", "suffix": ".png"}}], "chains": [], "closed_bucket": "VeryLikelyOpen", "distance": 974, "geocodes": {"main": {"latitude": 55.856657, "longitude": -4.244727}, "roof": {"latitude": 55.856657, "longitude": -4.244727}}, "link": "/v3/places/4eecb82346907303be234128", "location": {"address": "27 Trongate", "admin_region": "Scotland", "country": "GB", "cross_street": "", "formatted_address": "27 Trongate, Glasgow, G1 5EZ", "locality": "Glasgow", "post_town": "Glasgow", "postcode": "G1 5EZ"}, "name": "Rose & Grants", "related_places": {}, "timezone": "Europe/London"}, {"fsq_id": "594969cbd8fe7a1ba460161c", "categories": [{"id": 13288, "name": "Kebab Restaurant", "short_name": "Kebab", "plural_name": "Kebab Restaurants", "icon": {"prefix": "https://ss3.4sqi.net/img/categories_v2/food/middleeastern_", "suffix": ".png"}}, {"id": 13302, "name": "Mediterranean Restaurant", "short_name": "Mediterranean", "plural_name": "Mediterranean Restaurants", "icon": {"prefix": "https://ss3.4sqi.net/img/categories_v2/food/mediterranean_", "suffix": ".png"}}], "chains": [], "closed_bucket": "VeryLikelyOpen", "distance": 461, "geocodes": {"drop_off": {"latitude": 55.861804, "longitude": -4.255079}, "main": {"latitude": 55.861854, "longitude": -4.255221}, "roof": {"latitude": 55.861854, "longitude": -4.255221}}, "link": "/v3/places/594969cbd8fe7a1ba460161c", "location": {"address": "49 West Nile St", "admin_region": "Scotland", "country": "GB", "cross_street": "", "formatted_address": "49 West Nile St, Glasgow, Glasgow City, G1 2PT", "locality": "Glasgow", "post_town": "Glasgow", "postcode": "G1 2PT", "region": "Glasgow City"}, "name": "\u2019Babs", "related_places": {}, "timezone": "Europe/London"}, {"fsq_id": "5308d0cf498ed47c6be2359f", "categories": [{"id": 13065, "name": "Restaurant", "short_name": "Restaurant", "plural_name": "Restaurants", "icon": {"prefix": "https://ss3.4sqi.net/img/categories_v2/food/default_", "suffix": ".png"}}], "chains": [{"id": "2fceefe0-9c63-0132-6632-3c15c2dde6c8", "name": "Nando's"}], "closed_bucket": "VeryLikelyOpen", "distance": 760, "geocodes": {"main": {"latitude": 55.865258, "longitude": -4.262963}, "roof": {"latitude": 55.865258, "longitude": -4.262963}}, "link": "/v3/places/5308d0cf498ed47c6be2359f", "location": {"address": "263 Sauchiehall St", "admin_region": "Scotland", "country": "GB", "cross_street": "", "formatted_address": "263 Sauchiehall St, Glasgow, Glasgow City, G2 3EZ", "locality": "Glasgow", "post_town": "Glasgow", "postcode": "G2 3EZ", "region": "Glasgow City"}, "name": "Nando's", "related_places": {}, "timezone": "Europe/London"}, {"fsq_id": "4b9cecbcf964a520bd8236e3", "categories": [{"id": 13003, "name": "Bar", "short_name": "Bar", "plural_name": "Bars", "icon": {"prefix": "https://ss3.4sqi.net/img/categories_v2/nightlife/pub_", "suffix": ".png"}}, {"id": 13065, "name": "Restaurant", "short_name": "Restaurant", "plural_name": "Restaurants", "icon": {"prefix": "https://ss3.4sqi.net/img/categories_v2/food/default_", "suffix": ".png"}}], "chains": [], "closed_bucket": "VeryLikelyOpen", "distance": 926, "geocodes": {"main": {"latitude": 55.858429, "longitude": -4.245061}, "roof": {"latitude": 55.858429, "longitude": -4.245061}}, "link": "/v3/places/4b9cecbcf964a520bd8236e3", "location": {"address": "71-73 Albion St", "admin_region": "Scotland", "country": "GB", "formatted_address": "71-73 Albion St, Glasgow, Glasgow City, G1 1NY", "locality": "Glasgow", "post_town": "Glasgow", "postcode": "G1 1NY", "region": "Glasgow City"}, "name": "Merchant Square", "related_places": {"children": [{"fsq_id": "595f841bf79faa623f93bd17", "categories": [{"id": 13031, "name": "Burger Joint", "short_name": "Burgers", "plural_name": "Burger Joints", "icon": {"prefix": "https://ss3.4sqi.net/img/categories_v2/food/burger_", "suffix": ".png"}}, {"id": 13068, "name": "American Restaurant", "short_name": "American", "plural_name": "American Restaurants", "icon": {"prefix": "https://ss3.4sqi.net/img/categories_v2/food/default_", "suffix": ".png"}}], "name": "Steak Cattle & Roll"}, {"fsq_id": "5c44b02ea8eb60002c7f69b5", "categories": [{"id": 13031, "name": "Burger Joint", "short_name": "Burgers", "plural_name": "Burger Joints", "icon": {"prefix": "https://ss3.4sqi.net/img/categories_v2/food/burger_", "suffix": ".png"}}, {"id": 13068, "name": "American Restaurant", "short_name": "American", "plural_name": "American Restaurants", "icon": {"prefix": "https://ss3.4sqi.net/img/categories_v2/food/default_", "suffix": ".png"}}], "name": "Monterey Jack's"}, {"fsq_id": "5dfbf5ae17653b0007afa486", "categories": [{"id": 13025, "name": "Wine Bar", "short_name": "Wine Bar", "plural_name": "Wine Bars", "icon": {"prefix": "https://ss3.4sqi.net/img/categories_v2/food/winery_", "suffix": ".png"}}], "name": "Naked Wine"}, {"fsq_id": "61f5a6de63f5ba30cd5dbff0", "categories": [{"id": 13064, "name": "Pizzeria", "short_name": "Pizza", "plural_name": "Pizzerias", "icon": {"prefix": "https://ss3.4sqi.net/img/categories_v2/food/pizza_", "suffix": ".png"}}], "name": "Badabing"}, {"fsq_id": "4b5b73e4f964a5201bff28e3", "categories": [{"id": 13006, "name": "Beer Bar", "short_name": "Beer Bar", "plural_name": "Beer Bars", "icon": {"prefix": "https://ss3.4sqi.net/img/categories_v2/nightlife/pub_", "suffix": ".png"}}, {"id": 13018, "name": "Pub", "short_name": "Pub", "plural_name": "Pubs", "icon": {"prefix": "https://ss3.4sqi.net/img/categories_v2/nightlife/pub_", "suffix": ".png"}}, {"id": 13065, "name": "Restaurant", "short_name": "Restaurant", "plural_name": "Restaurants", "icon": {"prefix": "https://ss3.4sqi.net/img/categories_v2/food/default_", "suffix": ".png"}}], "name": "O'Neill's"}]}, "timezone": "Europe/London"}, {"fsq_id": "4c3dba31a9509c74a39b395b", "categories": [{"id": 13018, "name": "Pub", "short_name": "Pub", "plural_name": "Pubs", "icon": {"prefix": "https://ss3.4sqi.net/img/categories_v2/nightlife/pub_", "suffix": ".png"}}, {"id": 16020, "name": "Historic and Protected Site", "short_name": "Historic and Protected Site", "plural_name": "Historic and Protected Sites", "icon": {"prefix": "https://ss3.4sqi.net/img/categories_v2/arts_entertainment/historicsite_", "suffix": ".png"}}], "chains": [], "closed_bucket": "VeryLikelyOpen", "distance": 701, "geocodes": {"main": {"latitude": 55.855449, "longitude": -4.250226}, "roof": {"latitude": 55.855449, "longitude": -4.250226}}, "link": "/v3/places/4c3dba31a9509c74a39b395b", "location": {"address": "112-114 Stockwell St", "admin_region": "Scotland", "country": "GB", "formatted_address": "112-114 Stockwell St, Glasgow, Glasgow City, G1 4LW", "locality": "Glasgow", "post_town": "Glasgow", "postcode": "G1 4LW", "region": "Glasgow City"}, "name": "Scotia Bar", "related_places": {}, "timezone": "Europe/London"}, {"fsq_id": "4be5726b910020a1ecf0d214", "categories": [{"id": 13064, "name": "Pizzeria", "short_name": "Pizza", "plural_name": "Pizzerias", "icon": {"prefix": "https://ss3.4sqi.net/img/categories_v2/food/pizza_", "suffix": ".png"}}, {"id": 13236, "name": "Italian Restaurant", "short_name": "Italian", "plural_name": "Italian Restaurants", "icon": {"prefix": "https://ss3.4sqi.net/img/categories_v2/food/italian_", "suffix": ".png"}}], "chains": [], "closed_bucket": "Unsure", "distance": 582, "geocodes": {"main": {"latitude": 55.860783, "longitude": -4.251824}, "roof": {"latitude": 55.860783, "longitude": -4.251824}}, "link": "/v3/places/4be5726b910020a1ecf0d214", "location": {"address": "161 Queen St", "admin_region": "Scotland", "country": "GB", "formatted_address": "161 Queen St, Glasgow, Glasgow City, G1 3BJ", "locality": "Glasgow", "post_town": "Glasgow", "postcode": "G1 3BJ", "region": "Glasgow City"}, "name": "La Vita", "related_places": {}, "timezone": "Europe/London"}, {"fsq_id": "4db2d7b65da3a76f441ad601", "categories": [{"id": 13034, "name": "Caf\u00e9", "short_name": "Caf\u00e9", "plural_name": "Caf\u00e9s", "icon": {"prefix": "https://ss3.4sqi.net/img/categories_v2/food/cafe_", "suffix": ".png"}}, {"id": 13036, "name": "Tea Room", "short_name": "Tea Room", "plural_name": "Tea Rooms", "icon": {"prefix": "https://ss3.4sqi.net/img/categories_v2/food/tearoom_", "suffix": ".png"}}, {"id": 13065, "name": "Restaurant", "short_name": "Restaurant", "plural_name": "Restaurants", "icon": {"prefix": "https://ss3.4sqi.net/img/categories_v2/food/default_", "suffix": ".png"}}], "chains": [], "closed_bucket": "Unsure", "distance": 379, "geocodes": {"main": {"latitude": 55.860052, "longitude": -4.2545}, "roof": {"latitude": 55.860052, "longitude": -4.2545}}, "link": "/v3/places/4db2d7b65da3a76f441ad601", "location": {"address": "97 Buchanan St", "admin_region": "Scotland", "country": "GB", "formatted_address": "97 Buchanan St, Glasgow, Glasgow City, G1 3HF", "locality": "Glasgow", "post_town": "Glasgow", "postcode": "G1 3HF", "region": "Glasgow City"}, "name": "Willow Tea Rooms", "related_places": {"children": []}, "timezone": "Europe/London"}, {"fsq_id": "4b37d796f964a520464725e3", "categories": [{"id": 13011, "name": "Gay Bar", "short_name": "Gay Bar", "plural_name": "Gay Bars", "icon": {"prefix": "https://ss3.4sqi.net/img/categories_v2/nightlife/gaybar_", "suffix": ".png"}}, {"id": 13015, "name": "Karaoke Bar", "short_name": "Karaoke", "plural_name": "Karaoke Bars", "icon": {"prefix": "https://ss3.4sqi.net/img/categories_v2/nightlife/karaoke_", "suffix": ".png"}}, {"id": 13025, "name": "Wine Bar", "short_name": "Wine Bar", "plural_name": "Wine Bars", "icon": {"prefix": "https://ss3.4sqi.net/img/categories_v2/food/winery_", "suffix": ".png"}}], "chains": [], "closed_bucket": "Unsure", "distance": 632, "geocodes": {"main": {"latitude": 55.859064, "longitude": -4.249635}, "roof": {"latitude": 55.859064, "longitude": -4.249635}}, "link": "/v3/places/4b37d796f964a520464725e3", "location": {"address": "68 Virginia St", "admin_region": "Scotland", "country": "GB", "formatted_address": "68 Virginia St, Merchant City, Glasgow City, G1 1TX", "locality": "Merchant City", "post_town": "Glasgow", "postcode": "G1 1TX", "region": "Glasgow City"}, "name": "Delmonicas", "related_places": {}, "timezone": "Europe/London"}, {"fsq_id": "4b48a913f964a520ee5126e3", "categories": [{"id": 13236, "name": "Italian Restaurant", "short_name": "Italian", "plural_name": "Italian Restaurants", "icon": {"prefix": "https://ss3.4sqi.net/img/categories_v2/food/italian_", "suffix": ".png"}}], "chains": [], "closed_bucket": "Unsure", "distance": 454, "geocodes": {"main": {"latitude": 55.859929, "longitude": -4.252955}, "roof": {"latitude": 55.859929, "longitude": -4.252955}}, "link": "/v3/places/4b48a913f964a520ee5126e3", "location": {"address": "21 Royal Exchange Square", "admin_region": "Scotland", "country": "GB", "formatted_address": "21 Royal Exchange Square, Glasgow, Glasgow City, G1 3AJ", "locality": "Glasgow", "post_town": "Glasgow", "postcode": "G1 3AJ", "region": "Glasgow City"}, "name": "Di Maggio's", "related_places": {}, "timezone": "Europe/London"}, {"fsq_id": "5849c7c116f00008d58bf116", "categories": [{"id": 13345, "name": "Spanish Restaurant", "short_name": "Spanish", "plural_name": "Spanish Restaurants", "icon": {"prefix": "https://ss3.4sqi.net/img/categories_v2/food/spanish_", "suffix": ".png"}}, {"id": 13383, "name": "Steakhouse", "short_name": "Steakhouse", "plural_name": "Steakhouses", "icon": {"prefix": "https://ss3.4sqi.net/img/categories_v2/food/steakhouse_", "suffix": ".png"}}], "chains": [], "closed_bucket": "LikelyOpen", "distance": 566, "geocodes": {"main": {"latitude": 55.859375, "longitude": -4.25066}, "roof": {"latitude": 55.859375, "longitude": -4.25066}}, "link": "/v3/places/5849c7c116f00008d58bf116", "location": {"address": "80 Miller St", "admin_region": "Scotland", "country": "GB", "cross_street": "", "formatted_address": "80 Miller St, Glasgow, Glasgow City, G1 1DT", "locality": "Glasgow", "post_town": "Glasgow", "postcode": "G1 1DT", "region": "Glasgow City"}, "name": "The Spanish Butcher", "related_places": {}, "timezone": "Europe/London"}, {"fsq_id": "5c02e01ad552c7002c2c58fc", "categories": [{"id": 13236, "name": "Italian Restaurant", "short_name": "Italian", "plural_name": "Italian Restaurants", "icon": {"prefix": "https://ss3.4sqi.net/img/categories_v2/food/italian_", "suffix": ".png"}}], "chains": [], "closed_bucket": "LikelyOpen", "distance": 328, "geocodes": {"drop_off": {"latitude": 55.86051, "longitude": -4.256066}, "main": {"latitude": 55.860648, "longitude": -4.25606}, "roof": {"latitude": 55.860648, "longitude": -4.25606}}, "link": "/v3/places/5c02e01ad552c7002c2c58fc", "location": {"address": "40 Gordon St", "admin_region": "Scotland", "country": "GB", "cross_street": "", "formatted_address": "40 Gordon St, Glasgow, Glasgow City, G1 3PU", "locality": "Glasgow", "post_town": "Glasgow", "postcode": "G1 3PU", "region": "Glasgow City"}, "name": "La Vita Spuntini", "related_places": {}, "timezone": "Europe/London"}, {"fsq_id": "59ef5c4a464d6574847a3e51", "categories": [{"id": 13068, "name": "American Restaurant", "short_name": "American", "plural_name": "American Restaurants", "icon": {"prefix": "https://ss3.4sqi.net/img/categories_v2/food/default_", "suffix": ".png"}}, {"id": 13145, "name": "Fast Food Restaurant", "short_name": "Fast Food", "plural_name": "Fast Food Restaurants", "icon": {"prefix": "https://ss3.4sqi.net/img/categories_v2/food/fastfood_", "suffix": ".png"}}, {"id": 13306, "name": "Taco Restaurant", "short_name": "Tacos", "plural_name": "Taco Restaurants", "icon": {"prefix": "https://ss3.4sqi.net/img/categories_v2/food/taco_", "suffix": ".png"}}], "chains": [], "closed_bucket": "LikelyOpen", "distance": 743, "geocodes": {"drop_off": {"latitude": 55.865116, "longitude": -4.262344}, "main": {"latitude": 55.865137, "longitude": -4.262329}, "roof": {"latitude": 55.865137, "longitude": -4.262329}}, "link": "/v3/places/59ef5c4a464d6574847a3e51", "location": {"address": "245 Sauchiehall St", "admin_region": "Scotland", "country": "GB", "cross_street": "", "formatted_address": "245 Sauchiehall St, Glasgow, Glasgow City, G2 3EZ", "locality": "Glasgow", "post_town": "Glasgow", "postcode": "G2 3EZ", "region": "Glasgow City"}, "name": "Taco Bell", "related_places": {}, "timezone": "Europe/London"}, {"fsq_id": "4e4fb9c3aeb70f1284a3ced1", "categories": [{"id": 13018, "name": "Pub", "short_name": "Pub", "plural_name": "Pubs", "icon": {"prefix": "https://ss3.4sqi.net/img/categories_v2/nightlife/pub_", "suffix": ".png"}}], "chains": [], "closed_bucket": "VeryLikelyOpen", "distance": 612, "geocodes": {"main": {"latitude": 55.862113, "longitude": -4.25253}, "roof": {"latitude": 55.862113, "longitude": -4.25253}}, "link": "/v3/places/4e4fb9c3aeb70f1284a3ced1", "location": {"address": "9-11 Dundas St", "admin_region": "Scotland", "country": "GB", "formatted_address": "9-11 Dundas St, Glasgow, G1 2AH", "locality": "Glasgow", "post_town": "Glasgow", "postcode": "G1 2AH"}, "name": "Dow's", "related_places": {}, "timezone": "Europe/London"}, {"fsq_id": "4dac2fad93a04642f0a441db", "categories": [{"id": 13145, "name": "Fast Food Restaurant", "short_name": "Fast Food", "plural_name": "Fast Food Restaurants", "icon": {"prefix": "https://ss3.4sqi.net/img/categories_v2/food/fastfood_", "suffix": ".png"}}, {"id": 13305, "name": "Burrito Restaurant", "short_name": "Burritos", "plural_name": "Burrito Restaurants", "icon": {"prefix": "https://ss3.4sqi.net/img/categories_v2/food/burrito_", "suffix": ".png"}}], "chains": [], "closed_bucket": "Unsure", "distance": 560, "geocodes": {"main": {"latitude": 55.86065, "longitude": -4.2514}, "roof": {"latitude": 55.86065, "longitude": -4.2514}}, "link": "/v3/places/4dac2fad93a04642f0a441db", "location": {"address": "138 Queen St", "admin_region": "Scotland", "country": "GB", "cross_street": "btw George Sq & Ingram St", "formatted_address": "138 Queen St (btw George Sq & Ingram St), Glasgow, Glasgow City, G1 3BX", "locality": "Glasgow", "post_town": "Glasgow", "postcode": "G1 3BX", "region": "Glasgow City"}, "name": "Barburrito", "related_places": {}, "timezone": "Europe/London"}, {"fsq_id": "5bc0ebedb3d8e20039b42bc5", "categories": [{"id": 13065, "name": "Restaurant", "short_name": "Restaurant", "plural_name": "Restaurants", "icon": {"prefix": "https://ss3.4sqi.net/img/categories_v2/food/default_", "suffix": ".png"}}], "chains": [], "closed_bucket": "Unsure", "distance": 494, "geocodes": {"drop_off": {"latitude": 55.862229, "longitude": -4.255637}, "main": {"latitude": 55.862358, "longitude": -4.255621}, "roof": {"latitude": 55.862358, "longitude": -4.255621}}, "link": "/v3/places/5bc0ebedb3d8e20039b42bc5", "location": {"address": "100 West George St", "admin_region": "Scotland", "country": "GB", "cross_street": "", "formatted_address": "100 West George St, Glasgow, Glasgow City, G2 1PJ", "locality": "Glasgow", "post_town": "Glasgow", "postcode": "G2 1PJ", "region": "Glasgow City"}, "name": "Stack & Still", "related_places": {}, "timezone": "Europe/London"}, {"fsq_id": "513b8a7ee4b06b29ffe1c862", "categories": [{"id": 13199, "name": "Indian Restaurant", "short_name": "Indian", "plural_name": "Indian Restaurants", "icon": {"prefix": "https://ss3.4sqi.net/img/categories_v2/food/indian_", "suffix": ".png"}}], "chains": [], "closed_bucket": "VeryLikelyOpen", "distance": 618, "geocodes": {"drop_off": {"latitude": 55.863891, "longitude": -4.256875}, "main": {"latitude": 55.863761, "longitude": -4.25689}, "roof": {"latitude": 55.863761, "longitude": -4.25689}}, "link": "/v3/places/513b8a7ee4b06b29ffe1c862", "location": {"address": "61 Bath St", "admin_region": "Scotland", "country": "GB", "cross_street": "", "formatted_address": "61 Bath St, Glasgow, Glasgow City, G2 2DG", "locality": "Glasgow", "post_town": "Glasgow", "postcode": "G2 2DG", "region": "Glasgow City"}, "name": "Rishi's Indian Aroma", "related_places": {}, "timezone": "Europe/London"}, {"fsq_id": "596e6d68d48ec155ebe2eba6", "categories": [{"id": 13065, "name": "Restaurant", "short_name": "Restaurant", "plural_name": "Restaurants", "icon": {"prefix": "https://ss3.4sqi.net/img/categories_v2/food/default_", "suffix": ".png"}}], "chains": [], "closed_bucket": "VeryLikelyOpen", "distance": 574, "geocodes": {"main": {"latitude": 55.860033, "longitude": -4.268691}, "roof": {"latitude": 55.860033, "longitude": -4.268691}}, "link": "/v3/places/596e6d68d48ec155ebe2eba6", "location": {"address": "500 Argyle St", "admin_region": "Scotland", "country": "GB", "cross_street": "", "formatted_address": "500 Argyle St, Glasgow, Glasgow City, G3 8RR", "locality": "Glasgow", "post_town": "Glasgow", "postcode": "G3 8RR", "region": "Glasgow City"}, "name": "Cast Iron Grill", "related_places": {"parent": {"fsq_id": "4b76346af964a5201a432ee3", "categories": [{"id": 19014, "name": "Hotel", "short_name": "Hotel", "plural_name": "Hotels", "icon": {"prefix": "https://ss3.4sqi.net/img/categories_v2/travel/hotel_", "suffix": ".png"}}], "name": "Marriott Hotels & Resorts"}}, "timezone": "Europe/London"}, {"fsq_id": "54b82735498e991be3c5ea7d", "categories": [{"id": 13296, "name": "Kurdish Restaurant", "short_name": "Kurdish", "plural_name": "Kurdish Restaurants", "icon": {"prefix": "https://ss3.4sqi.net/img/categories_v2/food/middleeastern_", "suffix": ".png"}}, {"id": 13356, "name": "Turkish Restaurant", "short_name": "Turkish", "plural_name": "Turkish Restaurants", "icon": {"prefix": "https://ss3.4sqi.net/img/categories_v2/food/turkish_", "suffix": ".png"}}], "chains": [], "closed_bucket": "VeryLikelyOpen", "distance": 837, "geocodes": {"drop_off": {"latitude": 55.855185, "longitude": -4.247206}, "main": {"latitude": 55.855052, "longitude": -4.247026}, "roof": {"latitude": 55.855052, "longitude": -4.247026}}, "link": "/v3/places/54b82735498e991be3c5ea7d", "location": {"address": "B Kings Ct King St", "admin_region": "Scotland", "country": "GB", "cross_street": "", "formatted_address": "B Kings Ct King St, Glasgow, Glasgow City, G1 5RB", "locality": "Glasgow", "post_town": "Glasgow", "postcode": "G1 5RB", "region": "Glasgow City"}, "name": "Shawarma King", "related_places": {}, "timezone": "Europe/London"}, {"fsq_id": "4b5216fcf964a520f66627e3", "categories": [{"id": 13003, "name": "Bar", "short_name": "Bar", "plural_name": "Bars", "icon": {"prefix": "https://ss3.4sqi.net/img/categories_v2/nightlife/pub_", "suffix": ".png"}}, {"id": 13065, "name": "Restaurant", "short_name": "Restaurant", "plural_name": "Restaurants", "icon": {"prefix": "https://ss3.4sqi.net/img/categories_v2/food/default_", "suffix": ".png"}}], "chains": [], "closed_bucket": "VeryLikelyOpen", "distance": 894, "geocodes": {"main": {"latitude": 55.858867, "longitude": -4.245705}, "roof": {"latitude": 55.858867, "longitude": -4.245705}}, "link": "/v3/places/4b5216fcf964a520f66627e3", "location": {"address": "91 Candleriggs", "admin_region": "Scotland", "country": "GB", "formatted_address": "91 Candleriggs, Glasgow, Glasgow City, G1 1NP", "locality": "Glasgow", "post_town": "Glasgow", "postcode": "G1 1NP", "region": "Glasgow City"}, "name": "Bar 91", "related_places": {}, "timezone": "Europe/London"}, {"fsq_id": "5515b46c498edbb34c84b689", "categories": [{"id": 13030, "name": "Buffet", "short_name": "Buffet", "plural_name": "Buffets", "icon": {"prefix": "https://ss3.4sqi.net/img/categories_v2/food/default_", "suffix": ".png"}}], "chains": [], "closed_bucket": "VeryLikelyOpen", "distance": 944, "geocodes": {"main": {"latitude": 55.853525, "longitude": -4.27196}, "roof": {"latitude": 55.853525, "longitude": -4.27196}}, "link": "/v3/places/5515b46c498edbb34c84b689", "location": {"address": "251 Paisley Rd", "admin_region": "Scotland", "country": "GB", "cross_street": "", "formatted_address": "251 Paisley Rd, Glasgow, G5 8RA", "locality": "Glasgow", "post_town": "Glasgow", "postcode": "G5 8RA"}, "name": "Cook & Indi's World Buffet", "related_places": {}, "timezone": "Europe/London"}, {"fsq_id": "59298d15780eee6f1f6d4af3", "categories": [{"id": 13032, "name": "Cafe, Coffee, and Tea House", "short_name": "Cafe, Coffee, and Tea House", "plural_name": "Cafes, Coffee, and Tea Houses", "icon": {"prefix": "https://ss3.4sqi.net/img/categories_v2/food/coffeeshop_", "suffix": ".png"}}, {"id": 13043, "name": "Donut Shop", "short_name": "Donuts", "plural_name": "Donut Shops", "icon": {"prefix": "https://ss3.4sqi.net/img/categories_v2/food/donuts_", "suffix": ".png"}}, {"id": 13065, "name": "Restaurant", "short_name": "Restaurant", "plural_name": "Restaurants", "icon": {"prefix": "https://ss3.4sqi.net/img/categories_v2/food/default_", "suffix": ".png"}}], "chains": [{"id": "d5719cc0-d890-0132-61d3-7a163eb2a6fc", "name": "Tim Hortons"}], "closed_bucket": "VeryLikelyOpen", "distance": 190, "geocodes": {"drop_off": {"latitude": 55.858351, "longitude": -4.256985}, "main": {"latitude": 55.858489, "longitude": -4.256975}, "roof": {"latitude": 55.858489, "longitude": -4.256975}}, "link": "/v3/places/59298d15780eee6f1f6d4af3", "location": {"address": "184 Argyle St", "admin_region": "Scotland", "country": "GB", "cross_street": "", "formatted_address": "184 Argyle St, Glasgow, Glasgow City, G2 8HA", "locality": "Glasgow", "post_town": "Glasgow", "postcode": "G2 8HA", "region": "Glasgow City"}, "name": "Tim Hortons", "related_places": {}, "timezone": "Europe/London"}], "context": {"geo_bounds": {"circle": {"center": {"latitude": 55.858587, "longitude": -4.259847}, "radius": 1000}}}}