{"results": [{"fsq_id": "55ca18f2498e89eef195151d", "categories": [{"id": 13064, "name": "Pizzeria", "short_name": "Pizza", "plural_name": "Pizzerias", "icon": {"prefix": "https://ss3.4sqi.net/img/categories_v2/food/pizza_", "suffix": ".png"}}, {"id": 13236, "name": "Italian Restaurant", "short_name": "Italian", "plural_name": "Italian Restaurants", "icon": {"prefix": "https://ss3.4sqi.net/img/categories_v2/food/italian_", "suffix": ".png"}}], "chains": [], "closed_bucket": "LikelyOpen", "distance": 770, "geocodes": {"main": {"latitude": 55.859642, "longitude": -4.250598}, "roof": {"latitude": 55.859642, "longitude": -4.250598}}, "link": "/v3/places/55ca18f2498e89eef195151d", "location": {"address": "94 Miller St", "admin_region": "Scotland", "country": "GB", "cross_street": "Ingram St", "formatted_address": "94 Miller St (Ingram St), Glasgow, Glasgow City, G1 1DT", "locality": "Glasgow", "post_town": "Glasgow", "postcode": "G1 1DT", "region": "Glasgow City"}, "name": "Paesano Pizza", "related_places": {}, "timezone": "Europe/London"}, {"fsq_id": "4bc35be22a89ef3b08e7f488", "categories": [{"id": 13199, "name": "Indian Restaurant", "short_name": "Indian", "plural_name": "Indian Restaurants", "icon": {"prefix": "https://ss3.4sqi.net/img/categories_v2/food/indian_", "suffix": ".png"}}], "chains": [], "closed_bucket": "VeryLikelyOpen", "distance": 558, "geocodes": {"main": {"latitude": 55.858078, "longitude": -4.245681}, "roof": {"latitude": 55.858078, "longitude": -4.245681}}, "link": "/v3/places/4bc35be22a89ef3b08e7f488", "location": {"address": "44 Candleriggs", "admin_region": "Scotland", "country": "GB", "cross_street": "Bell St", "formatted_address": "44 Candleriggs (Bell St), Glasgow, Glasgow City, G1 1LE", "locality": "Glasgow", "post_town": "Glasgow", "postcode": "G1 1LE", "region": "Glasgow City"}, "name": "The Dhabba", "related_places": {}, "timezone": "Europe/London"}, {"fsq_id": "54c7cade498e300defb0985f", "categories": [{"id": 13034, "name": "Caf\u00e9", "short_name": "Caf\u00e9", "plural_name": "Caf\u00e9s", "icon": {"prefix": "https://ss3.4sqi.net/img/categories_v2/food/cafe_", "suffix": ".png"}}, {"id": 13065, "name": "Restaurant", "short_name": "Restaurant", "plural_name": "Restaurants", "icon": {"prefix": "https://ss3.4sqi.net/img/categories_v2/food/default_", "suffix": ".png"}}], "chains": [], "closed_bucket": "Unsure", "distance": 565, "geocodes": {"main": {"latitude": 55.858485, "longitude": -4.245939}, "roof": {"latitude": 55.858485, "longitude": -4.245939}}, "link": "/v3/places/54c7cade498e300defb0985f", "location": {"address": "6 Wilson St", "admin_region": "Scotland", "country": "GB", "cross_street": "", "formatted_address": "6 Wilson St, Glasgow, Glasgow City, G1 1SS", "locality": "Glasgow", "post_town": "Glasgow", "postcode": "G1 1SS", "region": "Glasgow City"}, "name": "Wilson Street Pantry", "related_places": {}, "timezone": "Europe/London"}, {"fsq_id": "4b4def09f964a5207adb26e3", "categories": [{"id": 13029, "name": "Brewery", "short_name": "Brewery", "plural_name": "Breweries", "icon": {"prefix": "https://ss3.4sqi.net/img/categories_v2/food/brewery_", "suffix": ".png"}}, {"id": 13003, "name": "Bar", "short_name": "Bar", "plural_name": "Bars", "icon": {"prefix": "https://ss3.4sqi.net/img/categories_v2/nightlife/pub_", "suffix": ".png"}}], "chains": [], "closed_bucket": "VeryLikelyOpen", "distance": 836, "geocodes": {"main": {"latitude": 55.850907, "longitude": -4.233765}, "roof": {"latitude": 55.850907, "longitude": -4.233765}}, "link": "/v3/places/4b4def09f964a5207adb26e3", "location": {"address": "Templeton Building, Glasgow Green", "address_extended": "Building 4", "admin_region": "Scotland", "country": "GB", "cross_street": "1 The Green", "formatted_address": "Templeton Building, Glasgow Green (1 The Green), Glasgow, Glasgow City, G40 1AW", "locality": "Glasgow", "post_town": "Glasgow", "postcode": "G40 1AW", "region": "Glasgow City"}, "name": "WEST Brewery, Bar & Restaurant", "related_places": {"parent": {"fsq_id": "4c0628d45753c92875743af1", "categories": [{"id": 11021, "name": "Business Center", "short_name": "Business Center", "plural_name": "Business Centers", "icon": {"prefix": "https://ss3.4sqi.net/img/categories_v2/building/default_", "suffix": ".png"}}], "name": "Templeton Business Centre"}}, "timezone": "Europe/London"}, {"fsq_id": "53e52950498ee2c0974731b8", "categories": [{"id": 10000, "name": "Arts and Entertainment", "short_name": "Arts & Entertainment", "plural_name": "Arts and Entertainment", "icon": {"prefix": "https://ss3.4sqi.net/img/categories_v2/arts_entertainment/default_", "suffix": ".png"}}, {"id": 13006, "name": "Beer Bar", "short_name": "Beer Bar", "plural_name": "Beer Bars", "icon": {"prefix": "https://ss3.4sqi.net/img/categories_v2/nightlife/pub_", "suffix": ".png"}}, {"id": 13026, "name": "BBQ Joint", "short_name": "BBQ", "plural_name": "BBQ Joints", "icon": {"prefix": "https://ss3.4sqi.net/img/categories_v2/food/bbqalt_", "suffix": ".png"}}], "chains": [], "closed_bucket": "Unsure", "distance": 693, "geocodes": {"drop_off": {"latitude": 55.859269, "longitude": -4.247825}, "main": {"latitude": 55.859318, "longitude": -4.247961}, "roof": {"latitude": 55.859318, "longitude": -4.247961}}, "link": "/v3/places/53e52950498ee2c0974731b8", "location": {"address": "99 Hutcheson St", "admin_region": "Scotland", "country": "GB", "cross_street": "", "formatted_address": "99 Hutcheson St, Glasgow, Glasgow City, G1 1SN", "locality": "Glasgow", "post_town": "Glasgow", "postcode": "G1 1SN", "region": "Glasgow City"}, "name": "DogHouse Merchant City", "related_places": {}, "timezone": "Europe/London"}, {"fsq_id": "4b50d353f964a520df3327e3", "categories": [{"id": 13025, "name": "Wine Bar", "short_name": "Wine Bar", "plural_name": "Wine Bars", "icon": {"prefix": "https://ss3.4sqi.net/img/categories_v2/food/winery_", "suffix": ".png"}}, {"id": 13337, "name": "Scottish Restaurant", "short_name": "Scottish", "plural_name": "Scottish Restaurants", "icon": {"prefix": "https://ss3.4sqi.net/img/categories_v2/food/default_", "suffix": ".png"}}, {"id": 13338, "name": "Seafood Restaurant", "short_name": "Seafood", "plural_name": "Seafood Restaurants", "icon": {"prefix": "https://ss3.4sqi.net/img/categories_v2/food/seafood_", "suffix": ".png"}}], "chains": [], "closed_bucket": "LikelyOpen", "distance": 584, "geocodes": {"main": {"latitude": 55.858058, "longitude": -4.244174}, "roof": {"latitude": 55.858058, "longitude": -4.244174}}, "link": "/v3/places/4b50d353f964a520df3327e3", "location": {"address": "64 Albion St", "admin_region": "Scotland", "country": "GB", "formatted_address": "64 Albion St, Glasgow, G1 1NY", "locality": "Glasgow", "post_town": "Glasgow", "postcode": "G1 1NY"}, "name": "Cafe Gandolfi", "related_places": {"children": [{"fsq_id": "5af74197c824ae002c2bb00f", "categories": [{"id": 13003, "name": "Bar", "short_name": "Bar", "plural_name": "Bars", "icon": {"prefix": "https://ss3.4sqi.net/img/categories_v2/nightlife/pub_", "suffix": ".png"}}], "name": "Bar Gandolfi"}]}, "timezone": "Europe/London"}, {"fsq_id": "4c54b19ea724e21e442cc8f6", "categories": [{"id": 10032, "name": "Night Club", "short_name": "Night Club", "plural_name": "Night Clubs", "icon": {"prefix": "https://ss3.4sqi.net/img/categories_v2/nightlife/nightclub_", "suffix": ".png"}}, {"id": 13003, "name": "Bar", "short_name": "Bar", "plural_name": "Bars", "icon": {"prefix": "https://ss3.4sqi.net/img/categories_v2/nightlife/pub_", "suffix": ".png"}}], "chains": [], "closed_bucket": "Unsure", "distance": 820, "geocodes": {"main": {"latitude": 55.858106, "longitude": -4.257209}, "roof": {"latitude": 55.858106, "longitude": -4.257209}}, "link": "/v3/places/4c54b19ea724e21e442cc8f6", "location": {"address": "22 Jamaica St", "admin_region": "Scotland", "country": "GB", "formatted_address": "22 Jamaica St, Glasgow, Glasgow City, G1 4QD", "locality": "Glasgow", "post_town": "Glasgow", "postcode": "G1 4QD", "region": "Glasgow City"}, "name": "Sub Club", "related_places": {}, "timezone": "Europe/London"}, {"fsq_id": "55ba4ae6498e9ddd9b04f40f", "categories": [{"id": 13006, "name": "Beer Bar", "short_name": "Beer Bar", "plural_name": "Beer Bars", "icon": {"prefix": "https://ss3.4sqi.net/img/categories_v2/nightlife/pub_", "suffix": ".png"}}, {"id": 13018, "name": "Pub", "short_name": "Pub", "plural_name": "Pubs", "icon": {"prefix": "https://ss3.4sqi.net/img/categories_v2/nightlife/pub_", "suffix": ".png"}}, {"id": 13065, "name": "Restaurant", "short_name": "Restaurant", "plural_name": "Restaurants", "icon": {"prefix": "https://ss3.4sqi.net/img/categories_v2/food/default_", "suffix": ".png"}}], "chains": [], "closed_bucket": "VeryLikelyOpen", "distance": 253, "geocodes": {"drop_off": {"latitude": 55.85458, "longitude": -4.250334}, "main": {"latitude": 55.85446, "longitude": -4.250021}, "roof": {"latitude": 55.85446, "longitude": -4.250021}}, "link": "/v3/places/55ba4ae6498e9ddd9b04f40f", "location": {"address": "167-169 Stockwell St", "admin_region": "Scotland", "country": "GB", "cross_street": "", "formatted_address": "167-169 Stockwell St, Glasgow, Glasgow City, G1 4SP", "locality": "Glasgow", "post_town": "Glasgow", "postcode": "G1 4SP", "region": "Glasgow City"}, "name": "The Clutha Bar", "related_places": {}, "timezone": "Europe/London"}, {"fsq_id": "554cdd3c498ee17d5a870117", "categories": [{"id": 13035, "name": "Coffee Shop", "short_name": "Coffee Shop", "plural_name": "Coffee Shops", "icon": {"prefix": "https://ss3.4sqi.net/img/categories_v2/food/coffeeshop_", "suffix": ".png"}}, {"id": 13065, "name": "Restaurant", "short_name": "Restaurant", "plural_name": "Restaurants", "icon": {"prefix": "https://ss3.4sqi.net/img/categories_v2/food/default_", "suffix": ".png"}}], "chains": [], "closed_bucket": "Unsure", "distance": 704, "geocodes": {"main": {"latitude": 55.859412, "longitude": -4.245371}, "roof": {"latitude": 55.859412, "longitude": -4.245371}}, "link": "/v3/places/554cdd3c498ee17d5a870117", "location": {"address": "127 Candleriggs", "admin_region": "Scotland", "country": "GB", "cross_street": "", "formatted_address": "127 Candleriggs, Glasgow, G1 1NP", "locality": "Glasgow", "post_town": "Glasgow", "postcode": "G1 1NP"}, "name": "Spitfire Espresso", "related_places": {}, "timezone": "Europe/London"}, {"fsq_id": "4eee14c8b8f76a24a5ddef1c", "categories": [{"id": 13051, "name": "Fish and Chips Shop", "short_name": "Fish and Chips Shop", "plural_name": "Fish and Chips Shops", "icon": {"prefix": "https://ss3.4sqi.net/img/categories_v2/food/fishandchips_", "suffix": ".png"}}, {"id": 13338, "name": "Seafood Restaurant", "short_name": "Seafood", "plural_name": "Seafood Restaurants", "icon": {"prefix": "https://ss3.4sqi.net/img/categories_v2/food/seafood_", "suffix": ".png"}}], "chains": [], "closed_bucket": "LikelyOpen", "distance": 724, "geocodes": {"main": {"latitude": 55.858935, "longitude": -4.241713}, "roof": {"latitude": 55.858935, "longitude": -4.241713}}, "link": "/v3/places/4eee14c8b8f76a24a5ddef1c", "location": {"address": "155 High St", "admin_region": "Scotland", "country": "GB", "cross_street": "", "formatted_address": "155 High St, Glasgow, Glasgow City, G1 1PH", "locality": "Glasgow", "post_town": "Glasgow", "postcode": "G1 1PH", "region": "Glasgow City"}, "name": "Merchant Chippie", "related_places": {}, "timezone": "Europe/London"}, {"fsq_id": "543d3e26498e1b6b7dc59538", "categories": [{"id": 13009, "name": "Cocktail Bar", "short_name": "Cocktail", "plural_name": "Cocktail Bars", "icon": {"prefix": "https://ss3.4sqi.net/img/categories_v2/nightlife/cocktails_", "suffix": ".png"}}, {"id": 13025, "name": "Wine Bar", "short_name": "Wine Bar", "plural_name": "Wine Bars", "icon": {"prefix": "https://ss3.4sqi.net/img/categories_v2/food/winery_", "suffix": ".png"}}, {"id": 13049, "name": "Diner", "short_name": "Diner", "plural_name": "Diners", "icon": {"prefix": "https://ss3.4sqi.net/img/categories_v2/food/diner_", "suffix": ".png"}}], "chains": [], "closed_bucket": "Unsure", "distance": 940, "geocodes": {"main": {"latitude": 55.861172, "longitude": -4.252397}, "roof": {"latitude": 55.861172, "longitude": -4.252397}}, "link": "/v3/places/543d3e26498e1b6b7dc59538", "location": {"address": "12-16 St Vincent Pl", "admin_region": "Scotland", "country": "GB", "cross_street": "", "formatted_address": "12-16 St Vincent Pl, Glasgow, G1 2DH", "locality": "Glasgow", "post_town": "Glasgow", "postcode": "G1 2DH"}, "name": "Anchor Line", "related_places": {}, "timezone": "Europe/London"}, {"fsq_id": "4b96b832f964a52026e034e3", "categories": [{"id": 13236, "name": "Italian Restaurant", "short_name": "Italian", "plural_name": "Italian Restaurants", "icon": {"prefix": "https://ss3.4sqi.net/img/categories_v2/food/italian_", "suffix": ".png"}}], "chains": [], "closed_bucket": "VeryLikelyOpen", "distance": 710, "geocodes": {"main": {"latitude": 55.859459, "longitude": -4.243621}, "roof": {"latitude": 55.859459, "longitude": -4.243621}}, "link": "/v3/places/4b96b832f964a52026e034e3", "location": {"address": "64 Ingram St", "admin_region": "Scotland", "country": "GB", "formatted_address": "64 Ingram St, Glasgow, Glasgow City, G1 1EX", "locality": "Glasgow", "post_town": "Glasgow", "postcode": "G1 1EX", "region": "Glasgow City"}, "name": "Italian Kitchen", "related_places": {}, "timezone": "Europe/London"}, {"fsq_id": "4b4c7ebcf964a52074b426e3", "categories": [{"id": 13003, "name": "Bar", "short_name": "Bar", "plural_name": "Bars", "icon": {"prefix": "https://ss3.4sqi.net/img/categories_v2/nightlife/pub_", "suffix": ".png"}}, {"id": 13338, "name": "Seafood Restaurant", "short_name": "Seafood", "plural_name": "Seafood Restaurants", "icon": {"prefix": "https://ss3.4sqi.net/img/categories_v2/food/seafood_", "suffix": ".png"}}], "chains": [], "closed_bucket": "VeryLikelyOpen", "distance": 914, "geocodes": {"main": {"latitude": 55.86114, "longitude": -4.250188}, "roof": {"latitude": 55.86114, "longitude": -4.250188}}, "link": "/v3/places/4b4c7ebcf964a52074b426e3", "location": {"address": "40 George Square", "admin_region": "Scotland", "country": "GB", "formatted_address": "40 George Square, Glasgow, Glasgow City, G2 1DS", "locality": "Glasgow", "post_town": "Glasgow", "postcode": "G2 1DS", "region": "Glasgow City"}, "name": "George Square", "related_places": {"children": []}, "timezone": "Europe/London"}, {"fsq_id": "4b6c5d0cf964a520d7332ce3", "categories": [{"id": 13003, "name": "Bar", "short_name": "Bar", "plural_name": "Bars", "icon": {"prefix": "https://ss3.4sqi.net/img/categories_v2/nightlife/pub_", "suffix": ".png"}}, {"id": 13064, "name": "Pizzeria", "short_name": "Pizza", "plural_name": "Pizzerias", "icon": {"prefix": "https://ss3.4sqi.net/img/categories_v2/food/pizza_", "suffix": ".png"}}, {"id": 13377, "name": "Vegan and Vegetarian Restaurant", "short_name": "Vegan and Vegetarian Restaurant", "plural_name": "Vegan and Vegetarian Restaurants", "icon": {"prefix": "https://ss3.4sqi.net/img/categories_v2/food/vegetarian_", "suffix": ".png"}}], "chains": [], "closed_bucket": "VeryLikelyOpen", "distance": 275, "geocodes": {"main": {"latitude": 55.855682, "longitude": -4.246134}, "roof": {"latitude": 55.855682, "longitude": -4.246134}}, "link": "/v3/places/4b6c5d0cf964a520d7332ce3", "location": {"address": "12 Kings Ct", "admin_region": "Scotland", "country": "GB", "cross_street": "at King St", "formatted_address": "12 Kings Ct (at King St), Glasgow, Glasgow City, G1 5RB", "locality": "Glasgow", "post_town": "Glasgow", "postcode": "G1 5RB", "region": "Glasgow City"}, "name": "Mono", "related_places": {}, "timezone": "Europe/London"}, {"fsq_id": "55e8a27d498edabc99273e53", "categories": [{"id": 10039, "name": "Music Venue", "short_name": "Music Venue", "plural_name": "Music Venues", "icon": {"prefix": "https://ss3.4sqi.net/img/categories_v2/arts_entertainment/musicvenue_", "suffix": ".png"}}, {"id": 13003, "name": "Bar", "short_name": "Bar", "plural_name": "Bars", "icon": {"prefix": "https://ss3.4sqi.net/img/categories_v2/nightlife/pub_", "suffix": ".png"}}], "chains": [], "closed_bucket": "VeryLikelyOpen", "distance": 768, "geocodes": {"main": {"latitude": 55.854651, "longitude": -4.234613}, "roof": {"latitude": 55.854651, "longitude": -4.234613}}, "link": "/v3/places/55e8a27d498edabc99273e53", "location": {"address": "17 Bain Square", "admin_region": "Scotland", "country": "GB", "cross_street": "", "formatted_address": "17 Bain Square, Glasgow, Glasgow City, G40 2JZ", "locality": "Glasgow", "post_town": "Glasgow", "postcode": "G40 2JZ", "region": "Glasgow City"}, "name": "Saint Luke\u2019s", "related_places": {"children": []}, "timezone": "Europe/London"}, {"fsq_id": "59b2e2a647f8761788a16b5f", "categories": [{"id": 13009, "name": "Cocktail Bar", "short_name": "Cocktail", "plural_name": "Cocktail Bars", "icon": {"prefix": "https://ss3.4sqi.net/img/categories_v2/nightlife/cocktails_", "suffix": ".png"}}, {"id": 13065, "name": "Restaurant", "short_name": "Restaurant", "plural_name": "Restaurants", "icon": {"prefix": "https://ss3.4sqi.net/img/categories_v2/food/default_", "suffix": ".png"}}], "chains": [], "closed_bucket": "Unsure", "distance": 953, "geocodes": {"drop_off": {"latitude": 55.861034, "longitude": -4.252725}, "main": {"latitude": 55.861154, "longitude": -4.252712}, "roof": {"latitude": 55.861154, "longitude": -4.252712}}, "link": "/v3/places/59b2e2a647f8761788a16b5f", "location": {"address": "24 St Vincent Pl", "admin_region": "Scotland", "country": "GB", "cross_street": "", "formatted_address": "24 St Vincent Pl, Glasgow, Glasgow City, G1 2EU", "locality": "Glasgow", "post_town": "Glasgow", "postcode": "G1 2EU", "region": "Glasgow City"}, "name": "The Citizen Bar & Dining Rooms", "related_places": {}, "timezone": "Europe/London"}, {"fsq_id": "4b76f668f964a520036f2ee3", "categories": [{"id": 13009, "name": "Cocktail Bar", "short_name": "Cocktail", "plural_name": "Cocktail Bars", "icon": {"prefix": "https://ss3.4sqi.net/img/categories_v2/nightlife/cocktails_", "suffix": ".png"}}, {"id": 13025, "name": "Wine Bar", "short_name": "Wine Bar", "plural_name": "Wine Bars", "icon": {"prefix": "https://ss3.4sqi.net/img/categories_v2/food/winery_", "suffix": ".png"}}, {"id": 13145, "name": "Fast Food Restaurant", "short_name": "Fast Food", "plural_name": "Fast Food Restaurants", "icon": {"prefix": "https://ss3.4sqi.net/img/categories_v2/food/fastfood_", "suffix": ".png"}}], "chains": [], "closed_bucket": "VeryLikelyOpen", "distance": 776, "geocodes": {"main": {"latitude": 55.859437, "longitude": -4.252344}, "roof": {"latitude": 55.859437, "longitude": -4.252344}}, "link": "/v3/places/4b76f668f964a520036f2ee3", "location": {"address": "73 Queen St", "admin_region": "Scotland", "country": "GB", "formatted_address": "73 Queen St, Glasgow, Glasgow City, G1 3BZ", "locality": "Glasgow", "post_town": "Glasgow", "postcode": "G1 3BZ", "region": "Glasgow City"}, "name": "Max's Bar and Grill", "related_places": {}, "timezone": "Europe/London"}, {"fsq_id": "5de800781a9c7d0008fa7469", "categories": [{"id": 13236, "name": "Italian Restaurant", "short_name": "Italian", "plural_name": "Italian Restaurants", "icon": {"prefix": "https://ss3.4sqi.net/img/categories_v2/food/italian_", "suffix": ".png"}}], "chains": [], "closed_bucket": "Unsure", "distance": 929, "geocodes": {"drop_off": {"latitude": 55.859744, "longitude": -4.255787}, "main": {"latitude": 55.859725, "longitude": -4.255611}, "roof": {"latitude": 55.859725, "longitude": -4.255611}}, "link": "/v3/places/5de800781a9c7d0008fa7469", "location": {"address": "60-70 Mitchell St", "admin_region": "Scotland", "country": "GB", "cross_street": "Mitchell Lane", "formatted_address": "60-70 Mitchell St (Mitchell Lane), Glasgow, Glasgow City", "locality": "Glasgow", "post_town": "Glasgow", "region": "Glasgow City"}, "name": "Sugo", "related_places": {}, "timezone": "Europe/London"}, {"fsq_id": "4b2cfd42f964a520e2cb24e3", "categories": [{"id": 13034, "name": "Caf\u00e9", "short_name": "Caf\u00e9", "plural_name": "Caf\u00e9s", "icon": {"prefix": "https://ss3.4sqi.net/img/categories_v2/food/cafe_", "suffix": ".png"}}, {"id": 13035, "name": "Coffee Shop", "short_name": "Coffee Shop", "plural_name": "Coffee Shops", "icon": {"prefix": "https://ss3.4sqi.net/img/categories_v2/food/coffeeshop_", "suffix": ".png"}}, {"id": 13065, "name": "Restaurant", "short_name": "Restaurant", "plural_name": "Restaurants", "icon": {"prefix": "https://ss3.4sqi.net/img/categories_v2/food/default_", "suffix": ".png"}}], "chains": [], "closed_bucket": "Unsure", "distance": 718, "geocodes": {"main": {"latitude": 55.859735, "longitude": -4.246187}, "roof": {"latitude": 55.859735, "longitude": -4.246187}}, "link": "/v3/places/4b2cfd42f964a520e2cb24e3", "location": {"address": "118 Ingram St", "address_extended": "Unit 4", "admin_region": "Scotland", "country": "GB", "formatted_address": "118 Ingram St, Glasgow, Glasgow City, G1 1EJ", "locality": "Glasgow", "post_town": "Glasgow", "postcode": "G1 1EJ", "region": "Glasgow City"}, "name": "Tinderbox", "related_places": {}, "timezone": "Europe/London"}, {"fsq_id": "5726150c498e9434471fae55", "categories": [{"id": 13302, "name": "Mediterranean Restaurant", "short_name": "Mediterranean", "plural_name": "Mediterranean Restaurants", "icon": {"prefix": "https://ss3.4sqi.net/img/categories_v2/food/mediterranean_", "suffix": ".png"}}, {"id": 13309, "name": "Middle Eastern Restaurant", "short_name": "Middle Eastern", "plural_name": "Middle Eastern Restaurants", "icon": {"prefix": "https://ss3.4sqi.net/img/categories_v2/food/middleeastern_", "suffix": ".png"}}], "chains": [], "closed_bucket": "LikelyOpen", "distance": 777, "geocodes": {"main": {"latitude": 55.853023, "longitude": -4.258596}, "roof": {"latitude": 55.853023, "longitude": -4.258596}}, "link": "/v3/places/5726150c498e9434471fae55", "location": {"address": "61 Bridge St", "admin_region": "Scotland", "country": "GB", "cross_street": "", "formatted_address": "61 Bridge St, Glasgow, Glasgow City, G5 9JB", "locality": "Glasgow", "post_town": "Glasgow", "postcode": "G5 9JB", "region": "Glasgow City"}, "name": "Al Sultan", "related_places": {}, "timezone": "Europe/London"}, {"fsq_id": "59b28e345d891b3e55d2ab9d", "categories": [{"id": 13040, "name": "Dessert Shop", "short_name": "Desserts", "plural_name": "Dessert Shops", "icon": {"prefix": "https://ss3.4sqi.net/img/categories_v2/food/dessert_", "suffix": ".png"}}, {"id": 13065, "name": "Restaurant", "short_name": "Restaurant", "plural_name": "Restaurants", "icon": {"prefix": "https://ss3.4sqi.net/img/categories_v2/food/default_", "suffix": ".png"}}], "chains": [], "closed_bucket": "Unsure", "distance": 806, "geocodes": {"main": {"latitude": 55.859226, "longitude": -4.254195}, "roof": {"latitude": 55.859226, "longitude": -4.254195}}, "link": "/v3/places/59b28e345d891b3e55d2ab9d", "location": {"address": "42 Buchanan St", "admin_region": "Scotland", "country": "GB", "cross_street": "", "formatted_address": "42 Buchanan St, Glasgow, Glasgow City, G1 3JX", "locality": "Glasgow", "post_town": "Glasgow", "postcode": "G1 3JX", "region": "Glasgow City"}, "name": "Hotel Chocolat", "related_places": {}, "timezone": "Europe/London"}, {"fsq_id": "4b4df610f964a52050dc26e3", "categories": [{"id": 13007, "name": "Beer Garden", "short_name": "Beer Garden", "plural_name": "Beer Gardens", "icon": {"prefix": "https://ss3.4sqi.net/img/categories_v2/nightlife/beergarden_", "suffix": ".png"}}, {"id": 13018, "name": "Pub", "short_name": "Pub", "plural_name": "Pubs", "icon": {"prefix": "https://ss3.4sqi.net/img/categories_v2/nightlife/pub_", "suffix": ".png"}}, {"id": 13064, "name": "Pizzeria", "short_name": "Pizza", "plural_name": "Pizzerias", "icon": {"prefix": "https://ss3.4sqi.net/img/categories_v2/food/pizza_", "suffix": ".png"}}], "chains": [], "closed_bucket": "Unsure", "distance": 947, "geocodes": {"main": {"latitude": 55.860258, "longitude": -4.254576}, "roof": {"latitude": 55.860258, "longitude": -4.254576}}, "link": "/v3/places/4b4df610f964a52050dc26e3", "location": {"address": "9 Gordon St", "admin_region": "Scotland", "country": "GB", "cross_street": "", "formatted_address": "9 Gordon St, Glasgow, Glasgow City, G1 3PL", "locality": "Glasgow", "post_town": "Glasgow", "postcode": "G1 3PL", "region": "Glasgow City"}, "name": "Republic Bier Halle", "related_places": {}, "timezone": "Europe/London"}, {"fsq_id": "4bbe3eaa8ca376b0b88ac77a", "categories": [{"id": 13018, "name": "Pub", "short_name": "Pub", "plural_name": "Pubs", "icon": {"prefix": "https://ss3.4sqi.net/img/categories_v2/nightlife/pub_", "suffix": ".png"}}, {"id": 13022, "name": "Sports Bar", "short_name": "Sports Bar", "plural_name": "Sports Bars", "icon": {"prefix": "https://ss3.4sqi.net/img/categories_v2/nightlife/sportsbar_", "suffix": ".png"}}, {"id": 13065, "name": "Restaurant", "short_name": "Restaurant", "plural_name": "Restaurants", "icon": {"prefix": "https://ss3.4sqi.net/img/categories_v2/food/default_", "suffix": ".png"}}], "chains": [], "closed_bucket": "Unsure", "distance": 994, "geocodes": {"drop_off": {"latitude": 55.862082, "longitude": -4.248418}, "front_door": {"latitude": 55.862103, "longitude": -4.248469}, "main": {"latitude": 55.862103, "longitude": -4.248469}, "roof": {"latitude": 55.862085, "longitude": -4.248395}}, "link": "/v3/places/4bbe3eaa8ca376b0b88ac77a", "location": {"address": "North Frederick St", "admin_region": "Scotland", "country": "GB", "formatted_address": "North Frederick St, Glasgow, G1 2BS", "locality": "Glasgow", "post_town": "Glasgow", "postcode": "G1 2BS"}, "name": "The Ark Glasgow", "related_places": {}, "timezone": "Europe/London"}, {"fsq_id": "5d472f2606251200087766db", "categories": [{"id": 13065, "name": "Restaurant", "short_name": "Restaurant", "plural_name": "Restaurants", "icon": {"prefix": "https://ss3.4sqi.net/img/categories_v2/food/default_", "suffix": ".png"}}], "chains": [], "closed_bucket": "VeryLikelyOpen", "distance": 936, "geocodes": {"drop_off": {"latitude": 55.860614, "longitude": -4.254093}, "main": {"latitude": 55.860512, "longitude": -4.253813}, "roof": {"latitude": 55.860512, "longitude": -4.253813}}, "link": "/v3/places/5d472f2606251200087766db", "location": {"address": "106 Buchanan St", "admin_region": "Scotland", "country": "GB", "cross_street": "", "formatted_address": "106 Buchanan St, Glasgow, Glasgow City, G1 2NB", "locality": "Glasgow", "post_town": "Glasgow", "postcode": "G1 2NB", "region": "Glasgow City"}, "name": "The Ivy Buchanan Street, Glasgow", "related_places": {}, "timezone": "Europe/London"}, {"fsq_id": "4eecb82346907303be234128", "categories": [{"id": 13034, "name": "Caf\u00e9", "short_name": "Caf\u00e9", "plural_name": "Caf\u00e9s", "icon": {"prefix": "https://ss3.4sqi.net/img/categories_v2/food/cafe_", "suffix": ".png"}}, {"id": 13035, "name": "Coffee Shop", "short_name": "Coffee Shop", "plural_name": "Coffee Shops", "icon": {"prefix": "https://ss3.4sqi.net/img/categories_v2/food/coffeeshop_", "suffix": ".png"}}, {"id": 13065, "name": "Restaurant", "short_name": "Restaurant", "plural_name": "Restaurants", "icon": {"prefix": "https://ss3.4sqi.net/img/categories_v2/food/default_", "suffix": ".png"}}], "chains": [], "closed_bucket": "VeryLikelyOpen", "distance": 430, "geocodes": {"main": {"latitude": 55.856657, "longitude": -4.244727}, "roof": {"latitude": 55.856657, "longitude": -4.244727}}, "link": "/v3/places/4eecb82346907303be234128", "location": {"address": "27 Trongate", "admin_region": "Scotland", "country": "GB", "cross_street": "", "formatted_address": "27 Trongate, Glasgow, G1 5EZ", "locality": "Glasgow", "post_town": "Glasgow", "postcode": "G1 5EZ"}, "name": "Rose & Grants", "related_places": {}, "timezone": "Europe/London"}, {"fsq_id": "4bb3471f42959c7445b3212c", "categories": [{"id": 13276, "name": "Sushi Restaurant", "short_name": "Sushi", "plural_name": "Sushi Restaurants", "icon": {"prefix": "https://ss3.4sqi.net/img/categories_v2/food/sushi_", "suffix": ".png"}}], "chains": [], "closed_bucket": "VeryLikelyOpen", "distance": 728, "geocodes": {"main": {"latitude": 55.859251, "longitude": -4.241722}, "roof": {"latitude": 55.859251, "longitude": -4.241722}}, "link": "/v3/places/4bb3471f42959c7445b3212c", "location": {"address": "2-6 Ingram St", "admin_region": "Scotland", "country": "GB", "cross_street": "High Street", "formatted_address": "2-6 Ingram St (High Street), Glasgow, Glasgow City, G1 1HA", "locality": "Glasgow", "post_town": "Glasgow", "postcode": "G1 1HA", "region": "Glasgow City"}, "name": "Sapporo Teppanyaki - Glasgow", "related_places": {}, "timezone": "Europe/London"}, {"fsq_id": "4b9cecbcf964a520bd8236e3", "categories": [{"id": 13003, "name": "Bar", "short_name": "Bar", "plural_name": "Bars", "icon": {"prefix": "https://ss3.4sqi.net/img/categories_v2/nightlife/pub_", "suffix": ".png"}}, {"id": 13065, "name": "Restaurant", "short_name": "Restaurant", "plural_name": "Restaurants", "icon": {"prefix": "https://ss3.4sqi.net/img/categories_v2/food/default_", "suffix": ".png"}}], "chains": [], "closed_bucket": "VeryLikelyOpen", "distance": 594, "geocodes": {"main": {"latitude": 55.858429, "longitude": -4.245061}, "roof": {"latitude": 55.858429, "longitude": -4.245061}}, "link": "/v3/places/4b9cecbcf964a520bd8236e3", "location": {"address": "71-73 Albion St", "admin_region": "Scotland", "country": "GB", "formatted_address": "71-73 Albion St, Glasgow, Glasgow City, G1 1NY", "locality": "Glasgow", "post_town": "Glasgow", "postcode": "G1 1NY", "region": "Glasgow City"}, "name": "Merchant Square", "related_places": {"children": [{"fsq_id": "595f841bf79faa623f93bd17", "categories": [{"id": 13031, "name": "Burger Joint", "short_name": "Burgers", "plural_name": "Burger Joints", "icon": {"prefix": "https://ss3.4sqi.net/img/categories_v2/food/burger_", "suffix": ".png"}}, {"id": 13068, "name": "American Restaurant", "short_name": "American", "plural_name": "American Restaurants", "icon": {"prefix": "https://ss3.4sqi.net/img/categories_v2/food/default_", "suffix": ".png"}}], "name": "Steak Cattle & Roll"}, {"fsq_id": "5c44b02ea8eb60002c7f69b5", "categories": [{"id": 13031, "name": "Burger Joint", "short_name": "Burgers", "plural_name": "Burger Joints", "icon": {"prefix": "https://ss3.4sqi.net/img/categories_v2/food/burger_", "suffix": ".png"}}, {"id": 13068, "name": "American Restaurant", "short_name": "American", "plural_name": "American Restaurants", "icon": {"prefix": "https://ss3.4sqi.net/img/categories_v2/food/default_", "suffix": ".png"}}], "name": "Monterey Jack's"}, {"fsq_id": "5dfbf5ae17653b0007afa486", "categories": [{"id": 13025, "name": "Wine Bar", "short_name": "Wine Bar", "plural_name": "Wine Bars", "icon": {"prefix": "https://ss3.4sqi.net/img/categories_v2/food/winery_", "suffix": ".png"}}], "name": "Naked Wine"}, {"fsq_id": "61f5a6de63f5ba30cd5dbff0", "categories": [{"id": 13064, "name": "Pizzeria", "short_name": "Pizza", "plural_name": "Pizzerias", "icon": {"prefix": "https://ss3.4sqi.net/img/categories_v2/food/pizza_", "suffix": ".png"}}], "name": "Badabing"}, {"fsq_id": "4b5b73e4f964a5201bff28e3", "categories": [{"id": 13006, "name": "Beer Bar", "short_name": "Beer Bar", "plural_name": "Beer Bars", "icon": {"prefix": "https://ss3.4sqi.net/img/categories_v2/nightlife/pub_", "suffix": ".png"}}, {"id": 13018, "name": "Pub", "short_name": "Pub", "plural_name": "Pubs", "icon": {"prefix": "https://ss3.4sqi.net/img/categories_v2/nightlife/pub_", "suffix": ".png"}}, {"id": 13065, "name": "Restaurant", "short_name": "Restaurant", "plural_name": "Restaurants", "icon": {"prefix": "https://ss3.4sqi.net/img/categories_v2/food/default_", "suffix": ".png"}}], "name": "O'Neill's"}]}, "timezone": "Europe/London"}, {"fsq_id": "4c3dba31a9509c74a39b395b", "categories": [{"id": 13018, "name": "Pub", "short_name": "Pub", "plural_name": "Pubs", "icon": {"prefix": "https://ss3.4sqi.net/img/categories_v2/nightlife/pub_", "suffix": ".png"}}, {"id": 16020, "name": "Historic and Protected Site", "short_name": "Historic and Protected Site", "plural_name": "Historic and Protected Sites", "icon": {"prefix": "https://ss3.4sqi.net/img/categories_v2/arts_entertainment/historicsite_", "suffix": ".png"}}], "chains": [], "closed_bucket": "VeryLikelyOpen", "distance": 330, "geocodes": {"main": {"latitude": 55.855449, "longitude": -4.250226}, "roof": {"latitude": 55.855449, "longitude": -4.250226}}, "link": "/v3/places/4c3dba31a9509c74a39b395b", "location": {"address": "112-114 Stockwell St", "admin_region": "Scotland", "country": "GB", "formatted_address": "112-114 Stockwell St, Glasgow, Glasgow City, G1 4LW", "locality": "Glasgow", "post_town": "Glasgow", "postcode": "G1 4LW", "region": "Glasgow City"}, "name": "Scotia Bar", "related_places": {}, "timezone": "Europe/London"}, {"fsq_id": "4be5726b910020a1ecf0d214", "categories": [{"id": 13064, "name": "Pizzeria", "short_name": "Pizza", "plural_name": "Pizzerias", "icon": {"prefix": "https://ss3.4sqi.net/img/categories_v2/food/pizza_", "suffix": ".png"}}, {"id": 13236, "name": "Italian Restaurant", "short_name": "Italian", "plural_name": "Italian Restaurants", "icon": {"prefix": "https://ss3.4sqi.net/img/categories_v2/food/italian_", "suffix": ".png"}}], "chains": [], "closed_bucket": "Unsure", "distance": 913, "geocodes": {"main": {"latitude": 55.860783, "longitude": -4.251824}, "roof": {"latitude": 55.860783, "longitude": -4.251824}}, "link": "/v3/places/4be5726b910020a1ecf0d214", "location": {"address": "161 Queen St", "admin_region": "Scotland", "country": "GB", "formatted_address": "161 Queen St, Glasgow, Glasgow City, G1 3BJ", "locality": "Glasgow", "post_town": "Glasgow", "postcode": "G1 3BJ", "region": "Glasgow City"}, "name": "La Vita", "related_places": {}, "timezone": "Europe/London"}, {"fsq_id": "4db2d7b65da3a76f441ad601", "categories": [{"id": 13034, "name": "Caf\u00e9", "short_name": "Caf\u00e9", "plural_name": "Caf\u00e9s", "icon": {"prefix": "https://ss3.4sqi.net/img/categories_v2/food/cafe_", "suffix": ".png"}}, {"id": 13036, "name": "Tea Room", "short_name": "Tea Room", "plural_name": "Tea Rooms", "icon": {"prefix": "https://ss3.4sqi.net/img/categories_v2/food/tearoom_", "suffix": ".png"}}, {"id": 13065, "name": "Restaurant", "short_name": "Restaurant", "plural_name": "Restaurants", "icon": {"prefix": "https://ss3.4sqi.net/img/categories_v2/food/default_", "suffix": ".png"}}], "chains": [], "closed_bucket": "Unsure", "distance": 891, "geocodes": {"main": {"latitude": 55.860052, "longitude": -4.2545}, "roof": {"latitude": 55.860052, "longitude": -4.2545}}, "link": "/v3/places/4db2d7b65da3a76f441ad601", "location": {"address": "97 Buchanan St", "admin_region": "Scotland", "country": "GB", "formatted_address": "97 Buchanan St, Glasgow, Glasgow City, G1 3HF", "locality": "Glasgow", "post_town": "Glasgow", "postcode": "G1 3HF", "region": "Glasgow City"}, "name": "Willow Tea Rooms", "related_places": {"children": []}, "timezone": "Europe/London"}, {"fsq_id": "4b37d796f964a520464725e3", "categories": [{"id": 13011, "name": "Gay Bar", "short_name": "Gay Bar", "plural_name": "Gay Bars", "icon": {"prefix": "https://ss3.4sqi.net/img/categories_v2/nightlife/gaybar_", "suffix": ".png"}}, {"id": 13015, "name": "Karaoke Bar", "short_name": "Karaoke", "plural_name": "Karaoke Bars", "icon": {"prefix": "https://ss3.4sqi.net/img/categories_v2/nightlife/karaoke_", "suffix": ".png"}}, {"id": 13025, "name": "Wine Bar", "short_name": "Wine Bar", "plural_name": "Wine Bars", "icon": {"prefix": "https://ss3.4sqi.net/img/categories_v2/food/winery_", "suffix": ".png"}}], "chains": [], "closed_bucket": "Unsure", "distance": 680, "geocodes": {"main": {"latitude": 55.859064, "longitude": -4.249635}, "roof": {"latitude": 55.859064, "longitude": -4.249635}}, "link": "/v3/places/4b37d796f964a520464725e3", "location": {"address": "68 Virginia St", "admin_region": "Scotland", "country": "GB", "formatted_address": "68 Virginia St, Merchant City, Glasgow City, G1 1TX", "locality": "Merchant City", "post_town": "Glasgow", "postcode": "G1 1TX", "region": "Glasgow City"}, "name": "Delmonicas", "related_places": {}, "timezone": "Europe/London"}, {"fsq_id": "4b48a913f964a520ee5126e3", "categories": [{"id": 13236, "name": "Italian Restaurant", "short_name": "Italian", "plural_name": "Italian Restaurants", "icon": {"prefix": "https://ss3.4sqi.net/img/categories_v2/food/italian_", "suffix": ".png"}}], "chains": [], "closed_bucket": "Unsure", "distance": 856, "geocodes": {"main": {"latitude": 55.859929, "longitude": -4.252955}, "roof": {"latitude": 55.859929, "longitude": -4.252955}}, "link": "/v3/places/4b48a913f964a520ee5126e3", "location": {"address": "21 Royal Exchange Square", "admin_region": "Scotland", "country": "GB", "formatted_address": "21 Royal Exchange Square, Glasgow, Glasgow City, G1 3AJ", "locality": "Glasgow", "post_town": "Glasgow", "postcode": "G1 3AJ", "region": "Glasgow City"}, "name": "Di Maggio's", "related_places": {}, "timezone": "Europe/London"}, {"fsq_id": "5849c7c116f00008d58bf116", "categories": [{"id": 13345, "name": "Spanish Restaurant", "short_name": "Spanish", "plural_name": "Spanish Restaurants", "icon": {"prefix": "https://ss3.4sqi.net/img/categories_v2/food/spanish_", "suffix": ".png"}}, {"id": 13383, "name": "Steakhouse", "short_name": "Steakhouse", "plural_name": "Steakhouses", "icon": {"prefix": "https://ss3.4sqi.net/img/categories_v2/food/steakhouse_", "suffix": ".png"}}], "chains": [], "closed_bucket": "LikelyOpen", "distance": 737, "geocodes": {"main": {"latitude": 55.859375, "longitude": -4.25066}, "roof": {"latitude": 55.859375, "longitude": -4.25066}}, "link": "/v3/places/5849c7c116f00008d58bf116", "location": {"address": "80 Miller St", "admin_region": "Scotland", "country": "GB", "cross_street": "", "formatted_address": "80 Miller St, Glasgow, Glasgow City, G1 1DT", "locality": "Glasgow", "post_town": "Glasgow", "postcode": "G1 1DT", "region": "Glasgow City"}, "name": "The Spanish Butcher", "related_places": {}, "timezone": "Europe/London"}, {"fsq_id": "4d41b2e94acd236a9f7cfca9", "categories": [{"id": 13051, "name": "Fish and Chips Shop", "short_name": "Fish and Chips Shop", "plural_name": "Fish and Chips Shops", "icon": {"prefix": "https://ss3.4sqi.net/img/categories_v2/food/fishandchips_", "suffix": ".png"}}, {"id": 13145, "name": "Fast Food Restaurant", "short_name": "Fast Food", "plural_name": "Fast Food Restaurants", "icon": {"prefix": "https://ss3.4sqi.net/img/categories_v2/food/fastfood_", "suffix": ".png"}}, {"id": 13352, "name": "Thai Restaurant", "short_name": "Thai", "plural_name": "Thai Restaurants", "icon": {"prefix": "https://ss3.4sqi.net/img/categories_v2/food/thai_", "suffix": ".png"}}], "chains": [], "closed_bucket": "Unsure", "distance": 930, "geocodes": {"main": {"latitude": 55.858587, "longitude": -4.25803}, "roof": {"latitude": 55.858587, "longitude": -4.25803}}, "link": "/v3/places/4d41b2e94acd236a9f7cfca9", "location": {"address": "208 Argyle St", "admin_region": "Scotland", "country": "GB", "formatted_address": "208 Argyle St, Glasgow, Glasgow City, G2 8HA", "locality": "Glasgow", "post_town": "Glasgow", "postcode": "G2 8HA", "region": "Glasgow City"}, "name": "Blue Lagoon", "related_places": {}, "timezone": "Europe/London"}, {"fsq_id": "4dac2fad93a04642f0a441db", "categories": [{"id": 13145, "name": "Fast Food Restaurant", "short_name": "Fast Food", "plural_name": "Fast Food Restaurants", "icon": {"prefix": "https://ss3.4sqi.net/img/categories_v2/food/fastfood_", "suffix": ".png"}}, {"id": 13305, "name": "Burrito Restaurant", "short_name": "Burritos", "plural_name": "Burrito Restaurants", "icon": {"prefix": "https://ss3.4sqi.net/img/categories_v2/food/burrito_", "suffix": ".png"}}], "chains": [], "closed_bucket": "Unsure", "distance": 886, "geocodes": {"main": {"latitude": 55.86065, "longitude": -4.2514}, "roof": {"latitude": 55.86065, "longitude": -4.2514}}, "link": "/v3/places/4dac2fad93a04642f0a441db", "location": {"address": "138 Queen St", "admin_region": "Scotland", "country": "GB", "cross_street": "btw George Sq & Ingram St", "formatted_address": "138 Queen St (btw George Sq & Ingram St), Glasgow, Glasgow City, G1 3BX", "locality": "Glasgow", "post_town": "Glasgow", "postcode": "G1 3BX", "region": "Glasgow City"}, "name": "Barburrito", "related_places": {}, "timezone": "Europe/London"}, {"fsq_id": "54b82735498e991be3c5ea7d", "categories": [{"id": 13296, "name": "Kurdish Restaurant", "short_name": "Kurdish", "plural_name": "Kurdish Restaurants", "icon": {"prefix": "https://ss3.4sqi.net/img/categories_v2/food/middleeastern_", "suffix": ".png"}}, {"id": 13356, "name": "Turkish Restaurant", "short_name": "Turkish", "plural_name": "Turkish Restaurants", "icon": {"prefix": "https://ss3.4sqi.net/img/categories_v2/food/turkish_", "suffix": ".png"}}], "chains": [], "closed_bucket": "VeryLikelyOpen", "distance": 254, "geocodes": {"drop_off": {"latitude": 55.855185, "longitude": -4.247206}, "main": {"latitude": 55.855052, "longitude": -4.247026}, "roof": {"latitude": 55.855052, "longitude": -4.247026}}, "link": "/v3/places/54b82735498e991be3c5ea7d", "location": {"address": "B Kings Ct King St", "admin_region": "Scotland", "country": "GB", "cross_street": "", "formatted_address": "B Kings Ct King St, Glasgow, Glasgow City, G1 5RB", "locality": "Glasgow", "post_town": "Glasgow", "postcode": "G1 5RB", "region": "Glasgow City"}, "name": "Shawarma King", "related_places": {}, "timezone": "Europe/London"}, {"fsq_id": "4b5216fcf964a520f66627e3", "categories": [{"id": 13003, "name": "Bar", "short_name": "Bar", "plural_name": "Bars", "icon": {"prefix": "https://ss3.4sqi.net/img/categories_v2/nightlife/pub_", "suffix": ".png"}}, {"id": 13065, "name": "Restaurant", "short_name": "Restaurant", "plural_name": "Restaurants", "icon": {"prefix": "https://ss3.4sqi.net/img/categories_v2/food/default_", "suffix": ".png"}}], "chains": [], "closed_bucket": "VeryLikelyOpen", "distance": 625, "geocodes": {"main": {"latitude": 55.858867, "longitude": -4.245705}, "roof": {"latitude": 55.858867, "longitude": -4.245705}}, "link": "/v3/places/4b5216fcf964a520f66627e3", "location": {"address": "91 Candleriggs", "admin_region": "Scotland", "country": "GB", "formatted_address": "91 Candleriggs, Glasgow, Glasgow City, G1 1NP", "locality": "Glasgow", "post_town": "Glasgow", "postcode": "G1 1NP", "region": "Glasgow City"}, "name": "Bar 91", "related_places": {}, "timezone": "Europe/London"}, {"fsq_id": "4bf80c5fb182c9b65cb8765a", "categories": [{"id": 13236, "name": "Italian Restaurant", "short_name": "Italian", "plural_name": "Italian Restaurants", "icon": {"prefix": "https://ss3.4sqi.net/img/categories_v2/food/italian_", "suffix": ".png"}}], "chains": [], "closed_bucket": "VeryLikelyOpen", "distance": 725, "geocodes": {"main": {"latitude": 55.859312, "longitude": -4.242495}, "roof": {"latitude": 55.859312, "longitude": -4.242495}}, "link": "/v3/places/4bf80c5fb182c9b65cb8765a", "location": {"address": "30 Ingram St", "admin_region": "Scotland", "country": "GB", "formatted_address": "30 Ingram St, Glasgow, G1 1EZ", "locality": "Glasgow", "post_town": "Glasgow", "postcode": "G1 1EZ"}, "name": "Amore", "related_places": {}, "timezone": "Europe/London"}, {"fsq_id": "59298d15780eee6f1f6d4af3", "categories": [{"id": 13032, "name": "Cafe, Coffee, and Tea House", "short_name": "Cafe, Coffee, and Tea House", "plural_name": "Cafes, Coffee, and Tea Houses", "icon": {"prefix": "https://ss3.4sqi.net/img/categories_v2/food/coffeeshop_", "suffix": ".png"}}, {"id": 13043, "name": "Donut Shop", "short_name": "Donuts", "plural_name": "Donut Shops", "icon": {"prefix": "https://ss3.4sqi.net/img/categories_v2/food/donuts_", "suffix": ".png"}}, {"id": 13065, "name": "Restaurant", "short_name": "Restaurant", "plural_name": "Restaurants", "icon": {"prefix": "https://ss3.4sqi.net/img/categories_v2/food/default_", "suffix": ".png"}}], "chains": [{"id": "d5719cc0-d890-0132-61d3-7a163eb2a6fc", "name": "Tim Hortons"}], "closed_bucket": "VeryLikelyOpen", "distance": 857, "geocodes": {"drop_off": {"latitude": 55.858351, "longitude": -4.256985}, "main": {"latitude": 55.858489, "longitude": -4.256975}, "roof": {"latitude": 55.858489, "longitude": -4.256975}}, "link": "/v3/places/59298d15780eee6f1f6d4af3", "location": {"address": "184 Argyle St", "admin_region": "Scotland", "country": "GB", "cross_street": "", "formatted_address": "184 Argyle St, Glasgow, Glasgow City, G2 8HA", "locality": "Glasgow", "post_town": "Glasgow", "postcode": "G2 8HA", "region": "Glasgow City"}, "name": "Tim Hortons", "related_places": {}, "timezone": "Europe/London"}, {"fsq_id": "4c6586789cb82d7fc10e8ed2", "categories": [{"id": 13009, "name": "Cocktail Bar", "short_name": "Cocktail", "plural_name": "Cocktail Bars", "icon": {"prefix": "https://ss3.4sqi.net/img/categories_v2/nightlife/cocktails_", "suffix": ".png"}}], "chains": [], "closed_bucket": "Unsure", "distance": 734, "geocodes": {"main": {"latitude": 55.859598, "longitude": -4.249511}, "roof": {"latitude": 55.859598, "longitude": -4.249511}}, "link": "/v3/places/4c6586789cb82d7fc10e8ed2", "location": {"address": "191 Ingram St", "admin_region": "Scotland", "country": "GB", "formatted_address": "191 Ingram St, Glasgow, Glasgow City, G1 1DA", "locality": "Glasgow", "post_town": "Glasgow", "postcode": "G1 1DA", "region": "Glasgow City"}, "name": "The Corinthian Club", "related_places": {}, "timezone": "Europe/London"}, {"fsq_id": "4bd99cb4e914a5934e1a57fa", "categories": [{"id": 13018, "name": "Pub", "short_name": "Pub", "plural_name": "Pubs", "icon": {"prefix": "https://ss3.4sqi.net/img/categories_v2/nightlife/pub_", "suffix": ".png"}}, {"id": 13065, "name": "Restaurant", "short_name": "Restaurant", "plural_name": "Restaurants", "icon": {"prefix": "https://ss3.4sqi.net/img/categories_v2/food/default_", "suffix": ".png"}}], "chains": [{"id": "07841cd9-3716-4bd6-8ebd-ad13070b3125", "name": "J D Wetherspoon"}], "closed_bucket": "Unsure", "distance": 924, "geocodes": {"main": {"latitude": 55.861153, "longitude": -4.2518}, "roof": {"latitude": 55.861153, "longitude": -4.2518}}, "link": "/v3/places/4bd99cb4e914a5934e1a57fa", "location": {"address": "2 St. Vincent Pl", "admin_region": "Scotland", "country": "GB", "formatted_address": "2 St. Vincent Pl, Glasgow, Glasgow City, G1 2DH", "locality": "Glasgow", "post_town": "Glasgow", "postcode": "G1 2DH", "region": "Glasgow City"}, "name": "The Counting House", "related_places": {}, "timezone": "Europe/London"}, {"fsq_id": "4b5b9194f964a520c30729e3", "categories": [{"id": 13018, "name": "Pub", "short_name": "Pub", "plural_name": "Pubs", "icon": {"prefix": "https://ss3.4sqi.net/img/categories_v2/nightlife/pub_", "suffix": ".png"}}, {"id": 13337, "name": "Scottish Restaurant", "short_name": "Scottish", "plural_name": "Scottish Restaurants", "icon": {"prefix": "https://ss3.4sqi.net/img/categories_v2/food/default_", "suffix": ".png"}}], "chains": [], "closed_bucket": "LikelyOpen", "distance": 439, "geocodes": {"main": {"latitude": 55.857101, "longitude": -4.245266}, "roof": {"latitude": 55.857101, "longitude": -4.245266}}, "link": "/v3/places/4b5b9194f964a520c30729e3", "location": {"address": "60 Trongate", "admin_region": "Scotland", "country": "GB", "formatted_address": "60 Trongate, Glasgow, Glasgow City, G1 5EP", "locality": "Glasgow", "post_town": "Glasgow", "postcode": "G1 5EP", "region": "Glasgow City"}, "name": "Maggie Mays", "related_places": {}, "timezone": "Europe/London"}, {"fsq_id": "4beead88b0b376b01cc2dab3", "categories": [{"id": 13003, "name": "Bar", "short_name": "Bar", "plural_name": "Bars", "icon": {"prefix": "https://ss3.4sqi.net/img/categories_v2/nightlife/pub_", "suffix": ".png"}}], "chains": [], "closed_bucket": "Unsure", "distance": 848, "geocodes": {"main": {"latitude": 55.860551, "longitude": -4.249435}, "roof": {"latitude": 55.860551, "longitude": -4.249435}}, "link": "/v3/places/4beead88b0b376b01cc2dab3", "location": {"address": "57 Cochrane St", "admin_region": "Scotland", "country": "GB", "cross_street": "George Square", "formatted_address": "57 Cochrane St (George Square), Glasgow, G1 1HL", "locality": "Glasgow", "post_town": "Glasgow", "postcode": "G1 1HL"}, "name": "The Piper Bar", "related_places": {}, "timezone": "Europe/London"}, {"fsq_id": "4c1cc2a6eac020a168f946c2", "categories": [{"id": 13199, "name": "Indian Restaurant", "short_name": "Indian", "plural_name": "Indian Restaurants", "icon": {"prefix": "https://ss3.4sqi.net/img/categories_v2/food/indian_", "suffix": ".png"}}, {"id": 13236, "name": "Italian Restaurant", "short_name": "Italian", "plural_name": "Italian Restaurants", "icon": {"prefix": "https://ss3.4sqi.net/img/categories_v2/food/italian_", "suffix": ".png"}}, {"id": 13302, "name": "Mediterranean Restaurant", "short_name": "Mediterranean", "plural_name": "Mediterranean Restaurants", "icon": {"prefix": "https://ss3.4sqi.net/img/categories_v2/food/mediterranean_", "suffix": ".png"}}], "chains": [], "closed_bucket": "VeryLikelyOpen", "distance": 740, "geocodes": {"main": {"latitude": 55.85967, "longitude": -4.248252}, "roof": {"latitude": 55.85967, "longitude": -4.248252}}, "link": "/v3/places/4c1cc2a6eac020a168f946c2", "location": {"address": "159 Ingram St", "admin_region": "Scotland", "country": "GB", "formatted_address": "159 Ingram St, Glasgow, Glasgow City, G1 1DW", "locality": "Glasgow", "post_town": "Glasgow", "postcode": "G1 1DW", "region": "Glasgow City"}, "name": "Mediterraneo", "related_places": {}, "timezone": "Europe/London"}, {"fsq_id": "4c110b613ce120a1b102091c", "categories": [{"id": 13003, "name": "Bar", "short_name": "Bar", "plural_name": "Bars", "icon": {"prefix": "https://ss3.4sqi.net/img/categories_v2/nightlife/pub_", "suffix": ".png"}}, {"id": 13065, "name": "Restaurant", "short_name": "Restaurant", "plural_name": "Restaurants", "icon": {"prefix": "https://ss3.4sqi.net/img/categories_v2/food/default_", "suffix": ".png"}}], "chains": [], "closed_bucket": "VeryLikelyOpen", "distance": 635, "geocodes": {"main": {"latitude": 55.858882, "longitude": -4.249139}, "roof": {"latitude": 55.858882, "longitude": -4.249139}}, "link": "/v3/places/4c110b613ce120a1b102091c", "location": {"address": "61-65 Glassford St", "admin_region": "Scotland", "country": "GB", "formatted_address": "61-65 Glassford St, Glasgow, Glasgow City, G1 1UG", "locality": "Glasgow", "post_town": "Glasgow", "postcode": "G1 1UG", "region": "Glasgow City"}, "name": "Warehouse Merchant City", "related_places": {}, "timezone": "Europe/London"}, {"fsq_id": "4de95474c65b72347a275f9e", "categories": [{"id": 13022, "name": "Sports Bar", "short_name": "Sports Bar", "plural_name": "Sports Bars", "icon": {"prefix": "https://ss3.4sqi.net/img/categories_v2/nightlife/sportsbar_", "suffix": ".png"}}, {"id": 13018, "name": "Pub", "short_name": "Pub", "plural_name": "Pubs", "icon": {"prefix": "https://ss3.4sqi.net/img/categories_v2/nightlife/pub_", "suffix": ".png"}}], "chains": [], "closed_bucket": "Unsure", "distance": 796, "geocodes": {"main": {"latitude": 55.860185, "longitude": -4.247532}, "roof": {"latitude": 55.860185, "longitude": -4.247532}}, "link": "/v3/places/4de95474c65b72347a275f9e", "location": {"address": "18 John St", "admin_region": "Scotland", "country": "GB", "cross_street": "", "formatted_address": "18 John St, Glasgow, Glasgow City, G1 1JQ", "locality": "Glasgow", "post_town": "Glasgow", "postcode": "G1 1JQ", "region": "Glasgow City"}, "name": "Committee Room No.9", "related_places": {}, "timezone": "Europe/London"}, {"fsq_id": "4b64b2d3f964a52043c92ae3", "categories": [{"id": 13018, "name": "Pub", "short_name": "Pub", "plural_name": "Pubs", "icon": {"prefix": "https://ss3.4sqi.net/img/categories_v2/nightlife/pub_", "suffix": ".png"}}, {"id": 13145, "name": "Fast Food Restaurant", "short_name": "Fast Food", "plural_name": "Fast Food Restaurants", "icon": {"prefix": "https://ss3.4sqi.net/img/categories_v2/food/fastfood_", "suffix": ".png"}}], "chains": [], "closed_bucket": "VeryLikelyOpen", "distance": 738, "geocodes": {"main": {"latitude": 55.858304, "longitude": -4.253746}, "roof": {"latitude": 55.858304, "longitude": -4.253746}}, "link": "/v3/places/4b64b2d3f964a52043c92ae3", "location": {"address": "62 Argyll Arcade", "address_extended": "Unit 62", "admin_region": "Scotland", "country": "GB", "cross_street": "108 Argyle St", "formatted_address": "62 Argyll Arcade (108 Argyle St), Glasgow, Glasgow City, G2 8BG", "locality": "Glasgow", "post_town": "Glasgow", "postcode": "G2 8BG", "region": "Glasgow City"}, "name": "Sloans", "related_places": {"parent": {"fsq_id": "4c2308289a67a5932f75dd87", "categories": [{"id": 17115, "name": "Shopping Plaza", "short_name": "Shopping Plaza", "plural_name": "Shopping Plazas", "icon": {"prefix": "https://ss3.4sqi.net/img/categories_v2/shops/mall_", "suffix": ".png"}}], "name": "Argyll Arcade"}}, "timezone": "Europe/London"}, {"fsq_id": "4b0e7c03f964a520e65723e3", "categories": [{"id": 13314, "name": "New American Restaurant", "short_name": "New American", "plural_name": "New American Restaurants", "icon": {"prefix": "https://ss3.4sqi.net/img/categories_v2/food/newamerican_", "suffix": ".png"}}], "chains": [], "closed_bucket": "Unsure", "distance": 933, "geocodes": {"drop_off": {"latitude": 55.861124, "longitude": -4.253798}, "main": {"latitude": 55.860476, "longitude": -4.254443}, "roof": {"latitude": 55.860476, "longitude": -4.254443}}, "link": "/v3/places/4b0e7c03f964a520e65723e3", "location": {"address": "113 Buchanan St", "admin_region": "Scotland", "country": "GB", "cross_street": "Gordon St", "formatted_address": "113 Buchanan St (Gordon St), Glasgow, Glasgow City, G1 3HF", "locality": "Glasgow", "post_town": "Glasgow", "postcode": "G1 3HF", "region": "Glasgow City"}, "name": "TGI Fridays", "related_places": {}, "timezone": "Europe/London"}, {"fsq_id": "4c1f634c920076b0f4a3c4e9", "categories": [{"id": 13018, "name": "Pub", "short_name": "Pub", "plural_name": "Pubs", "icon": {"prefix": "https://ss3.4sqi.net/img/categories_v2/nightlife/pub_", "suffix": ".png"}}], "chains": [], "closed_bucket": "LikelyOpen", "distance": 677, "geocodes": {"main": {"latitude": 55.856685, "longitude": -4.255344}, "roof": {"latitude": 55.856685, "longitude": -4.255344}}, "link": "/v3/places/4c1f634c920076b0f4a3c4e9", "location": {"address": "40 Howard St", "admin_region": "Scotland", "country": "GB", "formatted_address": "40 Howard St, Glasgow, G1 4EE", "locality": "Glasgow", "post_town": "Glasgow", "postcode": "G1 4EE"}, "name": "Hootenanny", "related_places": {}, "timezone": "Europe/London"}, {"fsq_id": "4b76a910f964a520f4562ee3", "categories": [{"id": 13009, "name": "Cocktail Bar", "short_name": "Cocktail", "plural_name": "Cocktail Bars", "icon": {"prefix": "https://ss3.4sqi.net/img/categories_v2/nightlife/cocktails_", "suffix": ".png"}}, {"id": 13025, "name": "Wine Bar", "short_name": "Wine Bar", "plural_name": "Wine Bars", "icon": {"prefix": "https://ss3.4sqi.net/img/categories_v2/food/winery_", "suffix": ".png"}}, {"id": 13068, "name": "American Restaurant", "short_name": "American", "plural_name": "American Restaurants", "icon": {"prefix": "https://ss3.4sqi.net/img/categories_v2/food/default_", "suffix": ".png"}}], "chains": [], "closed_bucket": "Unsure", "distance": 871, "geocodes": {"main": {"latitude": 55.859972, "longitude": -4.253131}, "roof": {"latitude": 55.859972, "longitude": -4.253131}}, "link": "/v3/places/4b76a910f964a520f4562ee3", "location": {"address": "27 Royal Exchange Square", "admin_region": "Scotland", "country": "GB", "formatted_address": "27 Royal Exchange Square, Glasgow, Glasgow City, G1 3AJ", "locality": "Glasgow", "post_town": "Glasgow", "postcode": "G1 3AJ", "region": "Glasgow City"}, "name": "The Social", "related_places": {}, "timezone": "Europe/London"}], "context": {"geo_bounds": {"circle": {"center": {"latitude": 55.853176, "longitude": -4.246661}, "radius": 1000}}}}