{"results": [{"fsq_id": "4bf8121a4a67c9282cad24cf", "categories": [{"id": 13034, "name": "Caf\u00e9", "short_name": "Caf\u00e9", "plural_name": "Caf\u00e9s", "icon": {"prefix": "https://ss3.4sqi.net/img/categories_v2/food/cafe_", "suffix": ".png"}}, {"id": 13065, "name": "Restaurant", "short_name": "Restaurant", "plural_name": "Restaurants", "icon": {"prefix": "https://ss3.4sqi.net/img/categories_v2/food/default_", "suffix": ".png"}}], "chains": [], "closed_bucket": "VeryLikelyOpen", "distance": 974, "geocodes": {"drop_off": {"latitude": 55.880339, "longitude": -4.272737}, "main": {"latitude": 55.880451, "longitude": -4.272717}, "roof": {"latitude": 55.880451, "longitude": -4.272717}}, "link": "/v3/places/4bf8121a4a67c9282cad24cf", "location": {"address": "570 Maryhill Rd", "admin_region": "Scotland", "country": "GB", "cross_street": "at Northpark St", "formatted_address": "570 Maryhill Rd (at Northpark St), Glasgow, Glasgow City", "locality": "Glasgow", "post_town": "Glasgow", "region": "Glasgow City"}, "name": "Cafe D\u2019Jaconelli", "related_places": {}, "timezone": "Europe/London"}, {"fsq_id": "5595668c498e02153643a82f", "categories": [{"id": 13018, "name": "Pub", "short_name": "Pub", "plural_name": "Pubs", "icon": {"prefix": "https://ss3.4sqi.net/img/categories_v2/nightlife/pub_", "suffix": ".png"}}, {"id": 13065, "name": "Restaurant", "short_name": "Restaurant", "plural_name": "Restaurants", "icon": {"prefix": "https://ss3.4sqi.net/img/categories_v2/food/default_", "suffix": ".png"}}], "chains": [], "closed_bucket": "LikelyOpen", "distance": 722, "geocodes": {"main": {"latitude": 55.8722, "longitude": -4.272393}, "roof": {"latitude": 55.8722, "longitude": -4.272393}}, "link": "/v3/places/5595668c498e02153643a82f", "location": {"address": "Great Western Rd 171", "admin_region": "Scotland", "country": "GB", "cross_street": "", "formatted_address": "Great Western Rd 171, Glasgow, Glasgow City, G4 9AW", "locality": "Glasgow", "post_town": "Glasgow", "postcode": "G4 9AW", "region": "Glasgow City"}, "name": "The Hug and Pint", "related_places": {}, "timezone": "Europe/London"}, {"fsq_id": "5978ce654b78c544a43aedc7", "categories": [{"id": 13024, "name": "Whisky Bar", "short_name": "Whisky Bar", "plural_name": "Whisky Bars", "icon": {"prefix": "https://ss3.4sqi.net/img/categories_v2/nightlife/whiskey_", "suffix": ".png"}}, {"id": 13337, "name": "Scottish Restaurant", "short_name": "Scottish", "plural_name": "Scottish Restaurants", "icon": {"prefix": "https://ss3.4sqi.net/img/categories_v2/food/default_", "suffix": ".png"}}], "chains": [], "closed_bucket": "LikelyOpen", "distance": 930, "geocodes": {"drop_off": {"latitude": 55.866425, "longitude": -4.256584}, "main": {"latitude": 55.866503, "longitude": -4.256834}, "roof": {"latitude": 55.866503, "longitude": -4.256834}}, "link": "/v3/places/5978ce654b78c544a43aedc7", "location": {"address": "325 Hope St", "admin_region": "Scotland", "country": "GB", "cross_street": "", "formatted_address": "325 Hope St, Glasgow, Glasgow City, G2 3PT", "locality": "Glasgow", "post_town": "Glasgow", "postcode": "G2 3PT", "region": "Glasgow City"}, "name": "Ardnamurchan", "related_places": {}, "timezone": "Europe/London"}, {"fsq_id": "4bab4addf964a5204f9e3ae3", "categories": [{"id": 13102, "name": "Cantonese Restaurant", "short_name": "Cantonese", "plural_name": "Cantonese Restaurants", "icon": {"prefix": "https://ss3.4sqi.net/img/categories_v2/food/asian_", "suffix": ".png"}}, {"id": 13106, "name": "Dim Sum Restaurant", "short_name": "Dim Sum", "plural_name": "Dim Sum Restaurants", "icon": {"prefix": "https://ss3.4sqi.net/img/categories_v2/food/dimsum_", "suffix": ".png"}}], "chains": [], "closed_bucket": "VeryLikelyOpen", "distance": 630, "geocodes": {"main": {"latitude": 55.878664, "longitude": -4.255065}, "roof": {"latitude": 55.878664, "longitude": -4.255065}}, "link": "/v3/places/4bab4addf964a5204f9e3ae3", "location": {"address": "The Point, 29 Saracen St", "address_extended": "Unit 7", "admin_region": "Scotland", "country": "GB", "cross_street": "Saracen St at Possil Rd", "formatted_address": "The Point, 29 Saracen St (Saracen St at Possil Rd), Glasgow, Glasgow City, G22 5HT", "locality": "Glasgow", "post_town": "Glasgow", "postcode": "G22 5HT", "region": "Glasgow City"}, "name": "See Woo Restaurant", "related_places": {}, "timezone": "Europe/London"}, {"fsq_id": "4c2f3cf866e40f47117fc18b", "categories": [{"id": 13003, "name": "Bar", "short_name": "Bar", "plural_name": "Bars", "icon": {"prefix": "https://ss3.4sqi.net/img/categories_v2/nightlife/pub_", "suffix": ".png"}}, {"id": 13065, "name": "Restaurant", "short_name": "Restaurant", "plural_name": "Restaurants", "icon": {"prefix": "https://ss3.4sqi.net/img/categories_v2/food/default_", "suffix": ".png"}}], "chains": [], "closed_bucket": "VeryLikelyOpen", "distance": 979, "geocodes": {"main": {"latitude": 55.868415, "longitude": -4.273189}, "roof": {"latitude": 55.868415, "longitude": -4.273189}}, "link": "/v3/places/4c2f3cf866e40f47117fc18b", "location": {"address": "1 Lynedoch St", "admin_region": "Scotland", "country": "GB", "formatted_address": "1 Lynedoch St, Glasgow, Glasgow City, G3 6EF", "locality": "Glasgow", "post_town": "Glasgow", "postcode": "G3 6EF", "region": "Glasgow City"}, "name": "The Drake", "related_places": {}, "timezone": "Europe/London"}, {"fsq_id": "524ec20911d2e6a1074094b5", "categories": [{"id": 13099, "name": "Chinese Restaurant", "short_name": "Chinese", "plural_name": "Chinese Restaurants", "icon": {"prefix": "https://ss3.4sqi.net/img/categories_v2/food/asian_", "suffix": ".png"}}], "chains": [], "closed_bucket": "LikelyOpen", "distance": 712, "geocodes": {"main": {"latitude": 55.869686, "longitude": -4.269372}, "roof": {"latitude": 55.869686, "longitude": -4.269372}}, "link": "/v3/places/524ec20911d2e6a1074094b5", "location": {"address": "175 St Georges Rd", "admin_region": "Scotland", "country": "GB", "cross_street": "", "formatted_address": "175 St Georges Rd, Glasgow, G3 6JD", "locality": "Glasgow", "post_town": "Glasgow", "postcode": "G3 6JD"}, "name": "Ka Ka Lok", "related_places": {}, "timezone": "Europe/London"}, {"fsq_id": "4c2cc4946e77b7131c71775d", "categories": [{"id": 13106, "name": "Dim Sum Restaurant", "short_name": "Dim Sum", "plural_name": "Dim Sum Restaurants", "icon": {"prefix": "https://ss3.4sqi.net/img/categories_v2/food/dimsum_", "suffix": ".png"}}, {"id": 13338, "name": "Seafood Restaurant", "short_name": "Seafood", "plural_name": "Seafood Restaurants", "icon": {"prefix": "https://ss3.4sqi.net/img/categories_v2/food/seafood_", "suffix": ".png"}}], "chains": [], "closed_bucket": "Unsure", "distance": 663, "geocodes": {"main": {"latitude": 55.868928, "longitude": -4.261428}, "roof": {"latitude": 55.868928, "longitude": -4.261428}}, "link": "/v3/places/4c2cc4946e77b7131c71775d", "location": {"address": "42 New City Rd", "address_extended": "Unit 9-10", "admin_region": "Scotland", "country": "GB", "cross_street": "", "formatted_address": "42 New City Rd, Glasgow, Glasgow City, G4 9JT", "locality": "Glasgow", "post_town": "Glasgow", "postcode": "G4 9JT", "region": "Glasgow City"}, "name": "Chinatown Restaurant", "related_places": {}, "timezone": "Europe/London"}, {"fsq_id": "62bb356216142710197291d0", "categories": [{"id": 13035, "name": "Coffee Shop", "short_name": "Coffee Shop", "plural_name": "Coffee Shops", "icon": {"prefix": "https://ss3.4sqi.net/img/categories_v2/food/coffeeshop_", "suffix": ".png"}}, {"id": 13065, "name": "Restaurant", "short_name": "Restaurant", "plural_name": "Restaurants", "icon": {"prefix": "https://ss3.4sqi.net/img/categories_v2/food/default_", "suffix": ".png"}}], "chains": [], "closed_bucket": "LikelyOpen", "distance": 981, "geocodes": {"drop_off": {"latitude": 55.86525, "longitude": -4.261972}, "main": {"latitude": 55.865421, "longitude": -4.261952}, "roof": {"latitude": 55.865421, "longitude": -4.261952}}, "link": "/v3/places/62bb356216142710197291d0", "location": {"address": "254 Sauchiehall St", "admin_region": "Scotland", "country": "GB", "cross_street": "", "formatted_address": "254 Sauchiehall St, Glasgow, Glasgow City, G2 3EH", "locality": "Glasgow", "post_town": "Glasgow", "postcode": "G2 3EH", "region": "Glasgow City"}, "name": "Black Sheep Coffee - Sauchiehall Street", "related_places": {}, "timezone": "Europe/London"}, {"fsq_id": "4caf61c2b4b0a35d708e40ce", "categories": [{"id": 13018, "name": "Pub", "short_name": "Pub", "plural_name": "Pubs", "icon": {"prefix": "https://ss3.4sqi.net/img/categories_v2/nightlife/pub_", "suffix": ".png"}}], "chains": [], "closed_bucket": "LikelyOpen", "distance": 740, "geocodes": {"main": {"latitude": 55.87265, "longitude": -4.272828}, "roof": {"latitude": 55.87265, "longitude": -4.272828}}, "link": "/v3/places/4caf61c2b4b0a35d708e40ce", "location": {"address": "226 Great Western Rd", "admin_region": "Scotland", "country": "GB", "cross_street": "", "formatted_address": "226 Great Western Rd, Glasgow, Glasgow City, G4 9EJ", "locality": "Glasgow", "post_town": "Glasgow", "postcode": "G4 9EJ", "region": "Glasgow City"}, "name": "Wintersgills Bar", "related_places": {}, "timezone": "Europe/London"}, {"fsq_id": "4f734a1be4b03c97467c7995", "categories": [{"id": 13003, "name": "Bar", "short_name": "Bar", "plural_name": "Bars", "icon": {"prefix": "https://ss3.4sqi.net/img/categories_v2/nightlife/pub_", "suffix": ".png"}}, {"id": 13065, "name": "Restaurant", "short_name": "Restaurant", "plural_name": "Restaurants", "icon": {"prefix": "https://ss3.4sqi.net/img/categories_v2/food/default_", "suffix": ".png"}}], "chains": [], "closed_bucket": "VeryLikelyOpen", "distance": 820, "geocodes": {"main": {"latitude": 55.866967, "longitude": -4.259791}, "roof": {"latitude": 55.866967, "longitude": -4.259791}}, "link": "/v3/places/4f734a1be4b03c97467c7995", "location": {"address": "95 Cambridge St", "admin_region": "Scotland", "country": "GB", "cross_street": "", "formatted_address": "95 Cambridge St, Glasgow, G3 6RU", "locality": "Glasgow", "post_town": "Glasgow", "postcode": "G3 6RU"}, "name": "Jackson's Bar", "related_places": {}, "timezone": "Europe/London"}, {"fsq_id": "4c5ea58a94fd0f4751b8ce45", "categories": [{"id": 13034, "name": "Caf\u00e9", "short_name": "Caf\u00e9", "plural_name": "Caf\u00e9s", "icon": {"prefix": "https://ss3.4sqi.net/img/categories_v2/food/cafe_", "suffix": ".png"}}, {"id": 13065, "name": "Restaurant", "short_name": "Restaurant", "plural_name": "Restaurants", "icon": {"prefix": "https://ss3.4sqi.net/img/categories_v2/food/default_", "suffix": ".png"}}], "chains": [], "closed_bucket": "VeryLikelyOpen", "distance": 324, "geocodes": {"main": {"latitude": 55.872206, "longitude": -4.257498}, "roof": {"latitude": 55.872206, "longitude": -4.257498}}, "link": "/v3/places/4c5ea58a94fd0f4751b8ce45", "location": {"address": "8 Speirs Wharf", "admin_region": "Scotland", "country": "GB", "cross_street": "", "formatted_address": "8 Speirs Wharf, Glasgow, G4 9TB", "locality": "Glasgow", "post_town": "Glasgow", "postcode": "G4 9TB"}, "name": "Ocho", "related_places": {}, "timezone": "Europe/London"}, {"fsq_id": "5681a1c6498efe894071f9a7", "categories": [{"id": 13046, "name": "Ice Cream Parlor", "short_name": "Ice Cream", "plural_name": "Ice Cream Parlors", "icon": {"prefix": "https://ss3.4sqi.net/img/categories_v2/food/icecream_", "suffix": ".png"}}, {"id": 13065, "name": "Restaurant", "short_name": "Restaurant", "plural_name": "Restaurants", "icon": {"prefix": "https://ss3.4sqi.net/img/categories_v2/food/default_", "suffix": ".png"}}], "chains": [], "closed_bucket": "LikelyOpen", "distance": 983, "geocodes": {"main": {"latitude": 55.865362, "longitude": -4.263913}, "roof": {"latitude": 55.865362, "longitude": -4.263913}}, "link": "/v3/places/5681a1c6498efe894071f9a7", "location": {"address": "287 Sauchiehall St", "admin_region": "Scotland", "country": "GB", "cross_street": "", "formatted_address": "287 Sauchiehall St, Glasgow, G2 3HQ", "locality": "Glasgow", "post_town": "Glasgow", "postcode": "G2 3HQ"}, "name": "Deesserts UK", "related_places": {}, "timezone": "Europe/London"}, {"fsq_id": "4b8421a8f964a520b72231e3", "categories": [{"id": 13035, "name": "Coffee Shop", "short_name": "Coffee Shop", "plural_name": "Coffee Shops", "icon": {"prefix": "https://ss3.4sqi.net/img/categories_v2/food/coffeeshop_", "suffix": ".png"}}, {"id": 13036, "name": "Tea Room", "short_name": "Tea Room", "plural_name": "Tea Rooms", "icon": {"prefix": "https://ss3.4sqi.net/img/categories_v2/food/tearoom_", "suffix": ".png"}}, {"id": 13065, "name": "Restaurant", "short_name": "Restaurant", "plural_name": "Restaurants", "icon": {"prefix": "https://ss3.4sqi.net/img/categories_v2/food/default_", "suffix": ".png"}}], "chains": [], "closed_bucket": "LikelyOpen", "distance": 962, "geocodes": {"main": {"latitude": 55.868208, "longitude": -4.272201}, "roof": {"latitude": 55.868208, "longitude": -4.272201}}, "link": "/v3/places/4b8421a8f964a520b72231e3", "location": {"address": "40-42 Woodlands Rd", "admin_region": "Scotland", "country": "GB", "cross_street": "at Baliol Ln", "formatted_address": "40-42 Woodlands Rd (at Baliol Ln), Glasgow, Glasgow City, G3 6UR", "locality": "Glasgow", "post_town": "Glasgow", "postcode": "G3 6UR", "region": "Glasgow City"}, "name": "The Coffee Pod", "related_places": {}, "timezone": "Europe/London"}, {"fsq_id": "4c50268638b0be9a35ad06fd", "categories": [{"id": 13018, "name": "Pub", "short_name": "Pub", "plural_name": "Pubs", "icon": {"prefix": "https://ss3.4sqi.net/img/categories_v2/nightlife/pub_", "suffix": ".png"}}, {"id": 13022, "name": "Sports Bar", "short_name": "Sports Bar", "plural_name": "Sports Bars", "icon": {"prefix": "https://ss3.4sqi.net/img/categories_v2/nightlife/sportsbar_", "suffix": ".png"}}], "chains": [], "closed_bucket": "VeryLikelyOpen", "distance": 531, "geocodes": {"main": {"latitude": 55.873363, "longitude": -4.269555}, "roof": {"latitude": 55.873363, "longitude": -4.269555}}, "link": "/v3/places/4c50268638b0be9a35ad06fd", "location": {"address": "144 Maryhill Rd", "admin_region": "Scotland", "country": "GB", "cross_street": "", "formatted_address": "144 Maryhill Rd, Glasgow, Glasgow City, G20 7QS", "locality": "Glasgow", "post_town": "Glasgow", "postcode": "G20 7QS", "region": "Glasgow City"}, "name": "The Royalty Bar", "related_places": {}, "timezone": "Europe/London"}, {"fsq_id": "52ed2996498ea5581915641f", "categories": [{"id": 13018, "name": "Pub", "short_name": "Pub", "plural_name": "Pubs", "icon": {"prefix": "https://ss3.4sqi.net/img/categories_v2/nightlife/pub_", "suffix": ".png"}}], "chains": [], "closed_bucket": "VeryLikelyOpen", "distance": 618, "geocodes": {"main": {"latitude": 55.87533, "longitude": -4.271087}, "roof": {"latitude": 55.87533, "longitude": -4.271087}}, "link": "/v3/places/52ed2996498ea5581915641f", "location": {"address": "239 Maryhill Rd", "admin_region": "Scotland", "country": "GB", "cross_street": "", "formatted_address": "239 Maryhill Rd, Glasgow, G20 7YB", "locality": "Glasgow", "post_town": "Glasgow", "postcode": "G20 7YB"}, "name": "The Woodside Inn", "related_places": {}, "timezone": "Europe/London"}, {"fsq_id": "6314b1c9748c5836137f8a68", "categories": [{"id": 13029, "name": "Brewery", "short_name": "Brewery", "plural_name": "Breweries", "icon": {"prefix": "https://ss3.4sqi.net/img/categories_v2/food/brewery_", "suffix": ".png"}}], "chains": [], "closed_bucket": "VeryLikelyOpen", "distance": 659, "geocodes": {"drop_off": {"latitude": 55.871374, "longitude": -4.252052}, "main": {"latitude": 55.871564, "longitude": -4.252116}, "roof": {"latitude": 55.871564, "longitude": -4.252116}}, "link": "/v3/places/6314b1c9748c5836137f8a68", "location": {"address": "3A Payne St", "country": "GB", "cross_street": "", "formatted_address": "3A Payne St, Glasgow, Glasgow City", "locality": "Glasgow", "post_town": "Glasgow", "region": "Glasgow City"}, "name": "Epochal Barrel-Fermented Ales", "related_places": {}, "timezone": "Europe/London"}, {"fsq_id": "55d8d3a6498eb6bcf7a64bda", "categories": [{"id": 13299, "name": "Malay Restaurant", "short_name": "Malay", "plural_name": "Malay Restaurants", "icon": {"prefix": "https://ss3.4sqi.net/img/categories_v2/food/malaysian_", "suffix": ".png"}}], "chains": [], "closed_bucket": "Unsure", "distance": 697, "geocodes": {"drop_off": {"latitude": 55.869698, "longitude": -4.2691}, "main": {"latitude": 55.869802, "longitude": -4.2692}, "roof": {"latitude": 55.869802, "longitude": -4.2692}}, "link": "/v3/places/55d8d3a6498eb6bcf7a64bda", "location": {"address": "185 St. Georges Rd", "admin_region": "Scotland", "country": "GB", "cross_street": "", "formatted_address": "185 St. Georges Rd, Glasgow, G3 6JD", "locality": "Glasgow", "post_town": "Glasgow", "postcode": "G3 6JD"}, "name": "Asiama", "related_places": {}, "timezone": "Europe/London"}, {"fsq_id": "4bad0f18f964a52062293be3", "categories": [{"id": 13068, "name": "American Restaurant", "short_name": "American", "plural_name": "American Restaurants", "icon": {"prefix": "https://ss3.4sqi.net/img/categories_v2/food/default_", "suffix": ".png"}}, {"id": 13143, "name": "Ethiopian Restaurant", "short_name": "Ethiopian", "plural_name": "Ethiopian Restaurants", "icon": {"prefix": "https://ss3.4sqi.net/img/categories_v2/food/ethiopian_", "suffix": ".png"}}], "chains": [], "closed_bucket": "VeryLikelyOpen", "distance": 742, "geocodes": {"main": {"latitude": 55.869632, "longitude": -4.269406}, "roof": {"latitude": 55.869632, "longitude": -4.269406}}, "link": "/v3/places/4bad0f18f964a52062293be3", "location": {"address": "175 St Georges Rd", "admin_region": "Scotland", "country": "GB", "cross_street": "", "formatted_address": "175 St Georges Rd, Glasgow, G3 6JD", "locality": "Glasgow", "post_town": "Glasgow", "postcode": "G3 6JD"}, "name": "Queen of Sheba", "related_places": {}, "timezone": "Europe/London"}, {"fsq_id": "506e24a8e4b0eefb578681b8", "categories": [{"id": 13018, "name": "Pub", "short_name": "Pub", "plural_name": "Pubs", "icon": {"prefix": "https://ss3.4sqi.net/img/categories_v2/nightlife/pub_", "suffix": ".png"}}], "chains": [], "closed_bucket": "VeryLikelyOpen", "distance": 838, "geocodes": {"drop_off": {"latitude": 55.876786, "longitude": -4.248642}, "main": {"latitude": 55.876923, "longitude": -4.248633}, "roof": {"latitude": 55.876923, "longitude": -4.248633}}, "link": "/v3/places/506e24a8e4b0eefb578681b8", "location": {"address": "480 Keppochhill Rd", "country": "GB", "cross_street": "", "formatted_address": "480 Keppochhill Rd, Glasgow, Glasgow City", "locality": "Glasgow", "post_town": "Glasgow", "region": "Glasgow City"}, "name": "Pinkston Bar", "related_places": {}, "timezone": "Europe/London"}, {"fsq_id": "5751c720cd10abbe87162bf5", "categories": [{"id": 13065, "name": "Restaurant", "short_name": "Restaurant", "plural_name": "Restaurants", "icon": {"prefix": "https://ss3.4sqi.net/img/categories_v2/food/default_", "suffix": ".png"}}, {"id": 17067, "name": "Fruit and Vegetable Store", "short_name": "Fruit and Vegetable Store", "plural_name": "Fruit and Vegetable Stores", "icon": {"prefix": "https://ss3.4sqi.net/img/categories_v2/shops/food_grocery_", "suffix": ".png"}}], "chains": [], "closed_bucket": "LikelyOpen", "distance": 865, "geocodes": {"drop_off": {"latitude": 55.873218, "longitude": -4.275047}, "main": {"latitude": 55.8731, "longitude": -4.275085}, "roof": {"latitude": 55.8731, "longitude": -4.275085}}, "link": "/v3/places/5751c720cd10abbe87162bf5", "location": {"address": "Great Western Rd", "admin_region": "Scotland", "country": "GB", "cross_street": "", "formatted_address": "Great Western Rd, Glasgow, Glasgow City", "locality": "Glasgow", "post_town": "Glasgow", "region": "Glasgow City"}, "name": "Stalks & Stems", "related_places": {}, "timezone": "Europe/London"}, {"fsq_id": "505835f9e4b089b53826d24b", "categories": [{"id": 13034, "name": "Caf\u00e9", "short_name": "Caf\u00e9", "plural_name": "Caf\u00e9s", "icon": {"prefix": "https://ss3.4sqi.net/img/categories_v2/food/cafe_", "suffix": ".png"}}, {"id": 13035, "name": "Coffee Shop", "short_name": "Coffee Shop", "plural_name": "Coffee Shops", "icon": {"prefix": "https://ss3.4sqi.net/img/categories_v2/food/coffeeshop_", "suffix": ".png"}}, {"id": 13065, "name": "Restaurant", "short_name": "Restaurant", "plural_name": "Restaurants", "icon": {"prefix": "https://ss3.4sqi.net/img/categories_v2/food/default_", "suffix": ".png"}}], "chains": [], "closed_bucket": "LikelyOpen", "distance": 904, "geocodes": {"main": {"latitude": 55.868232, "longitude": -4.27087}, "roof": {"latitude": 55.868232, "longitude": -4.27087}}, "link": "/v3/places/505835f9e4b089b53826d24b", "location": {"address": "93-97 St Georges Rd", "admin_region": "Scotland", "country": "GB", "cross_street": "", "formatted_address": "93-97 St Georges Rd, Glasgow, G3 6JA", "locality": "Glasgow", "post_town": "Glasgow", "postcode": "G3 6JA"}, "name": "Coffee Time", "related_places": {}, "timezone": "Europe/London"}, {"fsq_id": "5a5a94f9da5e56453179eaff", "categories": [{"id": 13003, "name": "Bar", "short_name": "Bar", "plural_name": "Bars", "icon": {"prefix": "https://ss3.4sqi.net/img/categories_v2/nightlife/pub_", "suffix": ".png"}}, {"id": 13065, "name": "Restaurant", "short_name": "Restaurant", "plural_name": "Restaurants", "icon": {"prefix": "https://ss3.4sqi.net/img/categories_v2/food/default_", "suffix": ".png"}}], "chains": [], "closed_bucket": "VeryLikelyOpen", "distance": 913, "geocodes": {"drop_off": {"latitude": 55.873527, "longitude": -4.275995}, "main": {"latitude": 55.873683, "longitude": -4.275944}, "roof": {"latitude": 55.873683, "longitude": -4.275944}}, "link": "/v3/places/5a5a94f9da5e56453179eaff", "location": {"address": "360 Great Western Rd", "admin_region": "Scotland", "country": "GB", "cross_street": "", "formatted_address": "360 Great Western Rd, Glasgow", "locality": "Glasgow", "post_town": "Glasgow"}, "name": "Banana Moon", "related_places": {}, "timezone": "Europe/London"}, {"fsq_id": "5172d05be4b04648d9e70ccb", "categories": [{"id": 13305, "name": "Burrito Restaurant", "short_name": "Burritos", "plural_name": "Burrito Restaurants", "icon": {"prefix": "https://ss3.4sqi.net/img/categories_v2/food/burrito_", "suffix": ".png"}}], "chains": [], "closed_bucket": "VeryLikelyOpen", "distance": 927, "geocodes": {"drop_off": {"latitude": 55.873606, "longitude": -4.276238}, "main": {"latitude": 55.873453, "longitude": -4.276288}, "roof": {"latitude": 55.873453, "longitude": -4.276288}}, "link": "/v3/places/5172d05be4b04648d9e70ccb", "location": {"address": "372-374 Great Western Rd", "country": "GB", "cross_street": "", "formatted_address": "372-374 Great Western Rd, Glasgow, Glasgow City", "locality": "Glasgow", "post_town": "Glasgow", "region": "Glasgow City"}, "name": "Nacho Average Pop-Up", "related_places": {}, "timezone": "Europe/London"}, {"fsq_id": "f11537f55aaf4adccb9a4243", "categories": [{"id": 13003, "name": "Bar", "short_name": "Bar", "plural_name": "Bars", "icon": {"prefix": "https://ss3.4sqi.net/img/categories_v2/nightlife/pub_", "suffix": ".png"}}], "chains": [], "closed_bucket": "LikelyOpen", "distance": 932, "geocodes": {"drop_off": {"latitude": 55.87364, "longitude": -4.27634}, "main": {"latitude": 55.873769, "longitude": -4.276297}, "roof": {"latitude": 55.873769, "longitude": -4.276297}}, "link": "/v3/places/f11537f55aaf4adccb9a4243", "location": {"address": "372 Great Western Rd", "admin_region": "Scotland", "country": "GB", "formatted_address": "372 Great Western Rd, Glasgow, G4 9HT", "locality": "Glasgow", "post_town": "Glasgow", "postcode": "G4 9HT"}, "name": "Republic Bier Halle", "related_places": {}, "timezone": "Europe/London"}, {"fsq_id": "608c598e6a36c31fc10942f1", "categories": [{"id": 13003, "name": "Bar", "short_name": "Bar", "plural_name": "Bars", "icon": {"prefix": "https://ss3.4sqi.net/img/categories_v2/nightlife/pub_", "suffix": ".png"}}, {"id": 13337, "name": "Scottish Restaurant", "short_name": "Scottish", "plural_name": "Scottish Restaurants", "icon": {"prefix": "https://ss3.4sqi.net/img/categories_v2/food/default_", "suffix": ".png"}}], "chains": [], "closed_bucket": "LikelyOpen", "distance": 935, "geocodes": {"drop_off": {"latitude": 55.873637, "longitude": -4.276331}, "main": {"latitude": 55.873447, "longitude": -4.276393}, "roof": {"latitude": 55.873447, "longitude": -4.276393}}, "link": "/v3/places/608c598e6a36c31fc10942f1", "location": {"address": "333 Great Western Rd", "admin_region": "Scotland", "country": "GB", "cross_street": "", "formatted_address": "333 Great Western Rd, Glasgow, Glasgow City, G4 9HS", "locality": "Glasgow", "post_town": "Glasgow", "postcode": "G4 9HS", "region": "Glasgow City"}, "name": "The Loveable Rogue", "related_places": {}, "timezone": "Europe/London"}, {"fsq_id": "5956c8a04febd5782bf49511", "categories": [{"id": 13142, "name": "English Restaurant", "short_name": "English", "plural_name": "English Restaurants", "icon": {"prefix": "https://ss3.4sqi.net/img/categories_v2/food/default_", "suffix": ".png"}}], "chains": [], "closed_bucket": "VeryLikelyOpen", "distance": 947, "geocodes": {"main": {"latitude": 55.865801, "longitude": -4.258985}, "roof": {"latitude": 55.865801, "longitude": -4.258985}}, "link": "/v3/places/5956c8a04febd5782bf49511", "location": {"address": "DoubleTree by Hilton Hotel Glasgow Central", "admin_region": "Scotland", "country": "GB", "cross_street": "36 Cambridge St", "formatted_address": "DoubleTree by Hilton Hotel Glasgow Central (36 Cambridge St), Glasgow, Glasgow City, G2 3HN", "locality": "Glasgow", "post_town": "Glasgow", "postcode": "G2 3HN", "region": "Glasgow City"}, "name": "Brisket", "related_places": {"parent": {"fsq_id": "4b852fb6f964a520e04f31e3", "categories": [{"id": 19014, "name": "Hotel", "short_name": "Hotel", "plural_name": "Hotels", "icon": {"prefix": "https://ss3.4sqi.net/img/categories_v2/travel/hotel_", "suffix": ".png"}}], "name": "DoubleTree by Hilton Glasgow Central"}}, "timezone": "Europe/London"}, {"fsq_id": "61012e7aadb68513108dfa00", "categories": [{"id": 13377, "name": "Vegan and Vegetarian Restaurant", "short_name": "Vegan and Vegetarian Restaurant", "plural_name": "Vegan and Vegetarian Restaurants", "icon": {"prefix": "https://ss3.4sqi.net/img/categories_v2/food/vegetarian_", "suffix": ".png"}}, {"id": 13025, "name": "Wine Bar", "short_name": "Wine Bar", "plural_name": "Wine Bars", "icon": {"prefix": "https://ss3.4sqi.net/img/categories_v2/food/winery_", "suffix": ".png"}}], "chains": [], "closed_bucket": "LikelyOpen", "distance": 953, "geocodes": {"drop_off": {"latitude": 55.867867, "longitude": -4.271908}, "main": {"latitude": 55.867965, "longitude": -4.271843}, "roof": {"latitude": 55.867965, "longitude": -4.271843}}, "link": "/v3/places/61012e7aadb68513108dfa00", "location": {"address": "Woodlands Rd 20", "admin_region": "Scotland", "country": "GB", "cross_street": "", "formatted_address": "Woodlands Rd 20, Glasgow, Glasgow City, G3 6UR", "locality": "Glasgow", "post_town": "Glasgow", "postcode": "G3 6UR", "region": "Glasgow City"}, "name": "Sylvan", "related_places": {}, "timezone": "Europe/London"}, {"fsq_id": "506f1336e4b030040068e6e7", "categories": [{"id": 13016, "name": "Lounge", "short_name": "Lounge", "plural_name": "Lounges", "icon": {"prefix": "https://ss3.4sqi.net/img/categories_v2/nightlife/default_", "suffix": ".png"}}], "chains": [], "closed_bucket": "VeryLikelyOpen", "distance": 978, "geocodes": {"main": {"latitude": 55.865581, "longitude": -4.263779}, "roof": {"latitude": 55.865581, "longitude": -4.263779}}, "link": "/v3/places/506f1336e4b030040068e6e7", "location": {"country": "GB", "cross_street": "", "formatted_address": ""}, "name": "The New Brunswick", "related_places": {}, "timezone": "Europe/London"}, {"fsq_id": "579b3ebd498e29c79a20cdf5", "categories": [{"id": 13030, "name": "Buffet", "short_name": "Buffet", "plural_name": "Buffets", "icon": {"prefix": "https://ss3.4sqi.net/img/categories_v2/food/default_", "suffix": ".png"}}, {"id": 13099, "name": "Chinese Restaurant", "short_name": "Chinese", "plural_name": "Chinese Restaurants", "icon": {"prefix": "https://ss3.4sqi.net/img/categories_v2/food/asian_", "suffix": ".png"}}], "chains": [], "closed_bucket": "VeryLikelyOpen", "distance": 984, "geocodes": {"main": {"latitude": 55.865538, "longitude": -4.263603}, "roof": {"latitude": 55.865538, "longitude": -4.263603}}, "link": "/v3/places/579b3ebd498e29c79a20cdf5", "location": {"address": "298 Sauchiehall St", "admin_region": "Scotland", "country": "GB", "cross_street": "", "formatted_address": "298 Sauchiehall St, Glasgow, G2 3JA", "locality": "Glasgow", "post_town": "Glasgow", "postcode": "G2 3JA"}, "name": "East World Buffet", "related_places": {}, "timezone": "Europe/London"}, {"fsq_id": "1b0d4faa444a4bbf2248dbd7", "categories": [{"id": 13035, "name": "Coffee Shop", "short_name": "Coffee Shop", "plural_name": "Coffee Shops", "icon": {"prefix": "https://ss3.4sqi.net/img/categories_v2/food/coffeeshop_", "suffix": ".png"}}, {"id": 13065, "name": "Restaurant", "short_name": "Restaurant", "plural_name": "Restaurants", "icon": {"prefix": "https://ss3.4sqi.net/img/categories_v2/food/default_", "suffix": ".png"}}], "chains": [], "closed_bucket": "LikelyOpen", "distance": 985, "geocodes": {"main": {"latitude": 55.865361, "longitude": -4.26209}, "roof": {"latitude": 55.865361, "longitude": -4.26209}}, "link": "/v3/places/1b0d4faa444a4bbf2248dbd7", "location": {"address": "282 Hope St", "admin_region": "Scotland", "country": "GB", "formatted_address": "282 Hope St, Glasgow, Glasgow City, G2 3QA", "locality": "Glasgow", "post_town": "Glasgow", "postcode": "G2 3QA", "region": "Glasgow City"}, "name": "Vanilla Black Glasgow", "related_places": {}, "timezone": "Europe/London"}, {"fsq_id": "56e2fff5498e64591a67fbf1", "categories": [{"id": 13009, "name": "Cocktail Bar", "short_name": "Cocktail", "plural_name": "Cocktail Bars", "icon": {"prefix": "https://ss3.4sqi.net/img/categories_v2/nightlife/cocktails_", "suffix": ".png"}}, {"id": 13065, "name": "Restaurant", "short_name": "Restaurant", "plural_name": "Restaurants", "icon": {"prefix": "https://ss3.4sqi.net/img/categories_v2/food/default_", "suffix": ".png"}}], "chains": [], "closed_bucket": "VeryLikelyOpen", "distance": 990, "geocodes": {"main": {"latitude": 55.865862, "longitude": -4.266241}, "roof": {"latitude": 55.865862, "longitude": -4.266241}}, "link": "/v3/places/56e2fff5498e64591a67fbf1", "location": {"address": "396 Sauchiehall St", "admin_region": "Scotland", "country": "GB", "cross_street": "", "formatted_address": "396 Sauchiehall St, Glasgow, Glasgow City, G2 3JD", "locality": "Glasgow", "post_town": "Glasgow", "postcode": "G2 3JD", "region": "Glasgow City"}, "name": "Life Glasgow", "related_places": {}, "timezone": "Europe/London"}, {"fsq_id": "5db0acc82e18280007e9dd9b", "categories": [{"id": 13031, "name": "Burger Joint", "short_name": "Burgers", "plural_name": "Burger Joints", "icon": {"prefix": "https://ss3.4sqi.net/img/categories_v2/food/burger_", "suffix": ".png"}}], "chains": [], "closed_bucket": "LikelyOpen", "distance": 992, "geocodes": {"main": {"latitude": 55.869794, "longitude": -4.274878}, "roof": {"latitude": 55.869794, "longitude": -4.274878}}, "link": "/v3/places/5db0acc82e18280007e9dd9b", "location": {"address": "152 Woodlands Rd", "admin_region": "Scotland", "country": "GB", "cross_street": "", "formatted_address": "152 Woodlands Rd, Glasgow, Glasgow City, G3 6LF", "locality": "Glasgow", "post_town": "Glasgow", "postcode": "G3 6LF", "region": "Glasgow City"}, "name": "El Perro Negro Woodlands", "related_places": {}, "timezone": "Europe/London"}, {"fsq_id": "4c48ca3a6594be9a70fc3524", "categories": [{"id": 13003, "name": "Bar", "short_name": "Bar", "plural_name": "Bars", "icon": {"prefix": "https://ss3.4sqi.net/img/categories_v2/nightlife/pub_", "suffix": ".png"}}, {"id": 13065, "name": "Restaurant", "short_name": "Restaurant", "plural_name": "Restaurants", "icon": {"prefix": "https://ss3.4sqi.net/img/categories_v2/food/default_", "suffix": ".png"}}], "chains": [], "closed_bucket": "LikelyOpen", "distance": 994, "geocodes": {"main": {"latitude": 55.866124, "longitude": -4.268106}, "roof": {"latitude": 55.866124, "longitude": -4.268106}}, "link": "/v3/places/4c48ca3a6594be9a70fc3524", "location": {"address": "468 Sauchiehall St", "admin_region": "Scotland", "country": "GB", "cross_street": "", "formatted_address": "468 Sauchiehall St, Glasgow, Glasgow City, G2 3LW", "locality": "Glasgow", "post_town": "Glasgow", "postcode": "G2 3LW", "region": "Glasgow City"}, "name": "Beresford Lounge", "related_places": {"children": [{"fsq_id": "4b98ee6ff964a520035735e3", "categories": [{"id": 17069, "name": "Grocery Store", "short_name": "Grocery Store", "plural_name": "Grocery Stores", "icon": {"prefix": "https://ss3.4sqi.net/img/categories_v2/shops/food_grocery_", "suffix": ".png"}}], "name": "Tesco Express"}]}, "timezone": "Europe/London"}, {"fsq_id": "5d81341f39e9a40008ae9e76", "categories": [{"id": 13145, "name": "Fast Food Restaurant", "short_name": "Fast Food", "plural_name": "Fast Food Restaurants", "icon": {"prefix": "https://ss3.4sqi.net/img/categories_v2/food/fastfood_", "suffix": ".png"}}], "chains": [], "closed_bucket": "VeryLikelyOpen", "distance": 996, "geocodes": {"drop_off": {"latitude": 55.865472, "longitude": -4.263901}, "main": {"latitude": 55.865362, "longitude": -4.263913}, "roof": {"latitude": 55.865362, "longitude": -4.263913}}, "link": "/v3/places/5d81341f39e9a40008ae9e76", "location": {"address": "283 Sauchiehall St", "admin_region": "Scotland", "country": "GB", "cross_street": "", "formatted_address": "283 Sauchiehall St, Glasgow, Glasgow City, G2 3HQ", "locality": "Glasgow", "post_town": "Glasgow", "postcode": "G2 3HQ", "region": "Glasgow City"}, "name": "Pepe's", "related_places": {}, "timezone": "Europe/London"}, {"fsq_id": "5cde4272ab5666ae1a7d183c", "categories": [{"id": 13003, "name": "Bar", "short_name": "Bar", "plural_name": "Bars", "icon": {"prefix": "https://ss3.4sqi.net/img/categories_v2/nightlife/pub_", "suffix": ".png"}}, {"id": 13199, "name": "Indian Restaurant", "short_name": "Indian", "plural_name": "Indian Restaurants", "icon": {"prefix": "https://ss3.4sqi.net/img/categories_v2/food/indian_", "suffix": ".png"}}], "chains": [], "closed_bucket": "LikelyOpen", "distance": 998, "geocodes": {"drop_off": {"latitude": 55.865483, "longitude": -4.264004}, "main": {"latitude": 55.865356, "longitude": -4.264018}, "roof": {"latitude": 55.865356, "longitude": -4.264018}}, "link": "/v3/places/5cde4272ab5666ae1a7d183c", "location": {"address": "285 Sauchiehall St", "admin_region": "Scotland", "country": "GB", "formatted_address": "285 Sauchiehall St, Glasgow, Glasgow City, G2 3HQ", "locality": "Glasgow", "post_town": "Glasgow", "postcode": "G2 3HQ", "region": "Glasgow City"}, "name": "Glassy Central", "related_places": {}, "timezone": "Europe/London"}, {"fsq_id": "ef9a98cad1764bd1691aab53", "categories": [{"id": 13099, "name": "Chinese Restaurant", "short_name": "Chinese", "plural_name": "Chinese Restaurants", "icon": {"prefix": "https://ss3.4sqi.net/img/categories_v2/food/asian_", "suffix": ".png"}}], "chains": [], "closed_bucket": "LikelyOpen", "distance": 891, "geocodes": {"drop_off": {"latitude": 55.868104, "longitude": -4.270745}, "main": {"latitude": 55.868232, "longitude": -4.27087}, "roof": {"latitude": 55.868232, "longitude": -4.27087}}, "link": "/v3/places/ef9a98cad1764bd1691aab53", "location": {"address": "93-97 St George's Rd", "country": "GB", "formatted_address": "93-97 St George's Rd, Glasgow", "locality": "Glasgow", "post_town": "Glasgow"}, "name": "Malaysian Chinese Cuisine and Desserts Restaurant", "related_places": {}}], "context": {"geo_bounds": {"circle": {"center": {"latitude": 55.87422, "longitude": -4.26136}, "radius": 1000}}}}