{"results": [{"fsq_id": "59ca1ffe48b04e6426cef19e", "categories": [{"id": 13035, "name": "Coffee Shop", "short_name": "Coffee Shop", "plural_name": "Coffee Shops", "icon": {"prefix": "https://ss3.4sqi.net/img/categories_v2/food/coffeeshop_", "suffix": ".png"}}, {"id": 13065, "name": "Restaurant", "short_name": "Restaurant", "plural_name": "Restaurants", "icon": {"prefix": "https://ss3.4sqi.net/img/categories_v2/food/default_", "suffix": ".png"}}], "chains": [], "closed_bucket": "Unsure", "distance": 914, "geocodes": {"drop_off": {"latitude": 55.875652, "longitude": -4.282567}, "main": {"latitude": 55.87589, "longitude": -4.282498}, "roof": {"latitude": 55.87589, "longitude": -4.282498}}, "link": "/v3/places/59ca1ffe48b04e6426cef19e", "location": {"address": "518 Great Western Rd", "admin_region": "Scotland", "country": "GB", "cross_street": "", "formatted_address": "518 Great Western Rd, Glasgow, Glasgow City, G12 8EL", "locality": "Glasgow", "post_town": "Glasgow", "postcode": "G12 8EL", "region": "Glasgow City"}, "name": "Black Pine Coffee Co", "related_places": {}, "timezone": "Europe/London"}, {"fsq_id": "50489002e4b02a1c178f2de7", "categories": [{"id": 13006, "name": "Beer Bar", "short_name": "Beer Bar", "plural_name": "Beer Bars", "icon": {"prefix": "https://ss3.4sqi.net/img/categories_v2/nightlife/pub_", "suffix": ".png"}}, {"id": 13065, "name": "Restaurant", "short_name": "Restaurant", "plural_name": "Restaurants", "icon": {"prefix": "https://ss3.4sqi.net/img/categories_v2/food/default_", "suffix": ".png"}}], "chains": [], "closed_bucket": "VeryLikelyOpen", "distance": 867, "geocodes": {"main": {"latitude": 55.874937, "longitude": -4.28075}, "roof": {"latitude": 55.874937, "longitude": -4.28075}}, "link": "/v3/places/50489002e4b02a1c178f2de7", "location": {"address": "445 Great Western Rd", "admin_region": "Scotland", "country": "GB", "cross_street": "", "formatted_address": "445 Great Western Rd, Glasgow, Glasgow City, G12 8HH", "locality": "Glasgow", "post_town": "Glasgow", "postcode": "G12 8HH", "region": "Glasgow City"}, "name": "Inn Deep", "related_places": {}, "timezone": "Europe/London"}, {"fsq_id": "58f67d601213846655187750", "categories": [{"id": 13064, "name": "Pizzeria", "short_name": "Pizza", "plural_name": "Pizzerias", "icon": {"prefix": "https://ss3.4sqi.net/img/categories_v2/food/pizza_", "suffix": ".png"}}, {"id": 13236, "name": "Italian Restaurant", "short_name": "Italian", "plural_name": "Italian Restaurants", "icon": {"prefix": "https://ss3.4sqi.net/img/categories_v2/food/italian_", "suffix": ".png"}}], "chains": [], "closed_bucket": "Unsure", "distance": 897, "geocodes": {"main": {"latitude": 55.87515, "longitude": -4.281633}, "roof": {"latitude": 55.87515, "longitude": -4.281633}}, "link": "/v3/places/58f67d601213846655187750", "location": {"address": "471 Great Western Rd", "admin_region": "Scotland", "country": "GB", "cross_street": "", "formatted_address": "471 Great Western Rd, Glasgow, Glasgow City, G12 8HL", "locality": "Glasgow", "post_town": "Glasgow", "postcode": "G12 8HL", "region": "Glasgow City"}, "name": "Paesano Pizza", "related_places": {}, "timezone": "Europe/London"}, {"fsq_id": "5606f8f0498ecb20434d8a44", "categories": [{"id": 13236, "name": "Italian Restaurant", "short_name": "Italian", "plural_name": "Italian Restaurants", "icon": {"prefix": "https://ss3.4sqi.net/img/categories_v2/food/italian_", "suffix": ".png"}}], "chains": [], "closed_bucket": "LikelyOpen", "distance": 1049, "geocodes": {"drop_off": {"latitude": 55.872408, "longitude": -4.280217}, "main": {"latitude": 55.87254, "longitude": -4.280291}, "roof": {"latitude": 55.87254, "longitude": -4.280291}}, "link": "/v3/places/5606f8f0498ecb20434d8a44", "location": {"address": "152 Park Rd", "admin_region": "Scotland", "country": "GB", "cross_street": "Gibson St", "formatted_address": "152 Park Rd (Gibson St), Glasgow, G4 9HB", "locality": "Glasgow", "post_town": "Glasgow", "postcode": "G4 9HB"}, "name": "Eusebi Deli", "related_places": {}, "timezone": "Europe/London"}, {"fsq_id": "4bf8121a4a67c9282cad24cf", "categories": [{"id": 13034, "name": "Caf\u00e9", "short_name": "Caf\u00e9", "plural_name": "Caf\u00e9s", "icon": {"prefix": "https://ss3.4sqi.net/img/categories_v2/food/cafe_", "suffix": ".png"}}, {"id": 13065, "name": "Restaurant", "short_name": "Restaurant", "plural_name": "Restaurants", "icon": {"prefix": "https://ss3.4sqi.net/img/categories_v2/food/default_", "suffix": ".png"}}], "chains": [], "closed_bucket": "VeryLikelyOpen", "distance": 292, "geocodes": {"drop_off": {"latitude": 55.880339, "longitude": -4.272737}, "main": {"latitude": 55.880451, "longitude": -4.272717}, "roof": {"latitude": 55.880451, "longitude": -4.272717}}, "link": "/v3/places/4bf8121a4a67c9282cad24cf", "location": {"address": "570 Maryhill Rd", "admin_region": "Scotland", "country": "GB", "cross_street": "at Northpark St", "formatted_address": "570 Maryhill Rd (at Northpark St), Glasgow, Glasgow City", "locality": "Glasgow", "post_town": "Glasgow", "region": "Glasgow City"}, "name": "Cafe D\u2019Jaconelli", "related_places": {}, "timezone": "Europe/London"}, {"fsq_id": "4b53315cf964a520c39127e3", "categories": [{"id": 13099, "name": "Chinese Restaurant", "short_name": "Chinese", "plural_name": "Chinese Restaurants", "icon": {"prefix": "https://ss3.4sqi.net/img/categories_v2/food/asian_", "suffix": ".png"}}, {"id": 13263, "name": "Japanese Restaurant", "short_name": "Japanese", "plural_name": "Japanese Restaurants", "icon": {"prefix": "https://ss3.4sqi.net/img/categories_v2/food/japanese_", "suffix": ".png"}}], "chains": [], "closed_bucket": "LikelyOpen", "distance": 955, "geocodes": {"main": {"latitude": 55.875733, "longitude": -4.283404}, "roof": {"latitude": 55.875733, "longitude": -4.283404}}, "link": "/v3/places/4b53315cf964a520c39127e3", "location": {"address": "535 Great Western Rd", "admin_region": "Scotland", "country": "GB", "formatted_address": "535 Great Western Rd, Glasgow, Glasgow City, G12 8HN", "locality": "Glasgow", "post_town": "Glasgow", "postcode": "G12 8HN", "region": "Glasgow City"}, "name": "Wudon", "related_places": {}, "timezone": "Europe/London"}, {"fsq_id": "5595668c498e02153643a82f", "categories": [{"id": 13018, "name": "Pub", "short_name": "Pub", "plural_name": "Pubs", "icon": {"prefix": "https://ss3.4sqi.net/img/categories_v2/nightlife/pub_", "suffix": ".png"}}, {"id": 13065, "name": "Restaurant", "short_name": "Restaurant", "plural_name": "Restaurants", "icon": {"prefix": "https://ss3.4sqi.net/img/categories_v2/food/default_", "suffix": ".png"}}], "chains": [], "closed_bucket": "LikelyOpen", "distance": 761, "geocodes": {"main": {"latitude": 55.8722, "longitude": -4.272393}, "roof": {"latitude": 55.8722, "longitude": -4.272393}}, "link": "/v3/places/5595668c498e02153643a82f", "location": {"address": "Great Western Rd 171", "admin_region": "Scotland", "country": "GB", "cross_street": "", "formatted_address": "Great Western Rd 171, Glasgow, Glasgow City, G4 9AW", "locality": "Glasgow", "post_town": "Glasgow", "postcode": "G4 9AW", "region": "Glasgow City"}, "name": "The Hug and Pint", "related_places": {}, "timezone": "Europe/London"}, {"fsq_id": "4d28d36debacb1f71b01f54f", "categories": [{"id": 13024, "name": "Whisky Bar", "short_name": "Whisky Bar", "plural_name": "Whisky Bars", "icon": {"prefix": "https://ss3.4sqi.net/img/categories_v2/nightlife/whiskey_", "suffix": ".png"}}], "chains": [], "closed_bucket": "LikelyOpen", "distance": 993, "geocodes": {"main": {"latitude": 55.871154, "longitude": -4.276883}, "roof": {"latitude": 55.871154, "longitude": -4.276883}}, "link": "/v3/places/4d28d36debacb1f71b01f54f", "location": {"address": "232-246 Woodlands Rd", "admin_region": "Scotland", "country": "GB", "formatted_address": "232-246 Woodlands Rd, Glasgow, Glasgow City, G3 6ND", "locality": "Glasgow", "post_town": "Glasgow", "postcode": "G3 6ND", "region": "Glasgow City"}, "name": "Dram", "related_places": {}, "timezone": "Europe/London"}, {"fsq_id": "4bb4be3486a8d13a67c8de7f", "categories": [{"id": 13010, "name": "Dive Bar", "short_name": "Dive Bar", "plural_name": "Dive Bars", "icon": {"prefix": "https://ss3.4sqi.net/img/categories_v2/nightlife/divebar_", "suffix": ".png"}}, {"id": 13018, "name": "Pub", "short_name": "Pub", "plural_name": "Pubs", "icon": {"prefix": "https://ss3.4sqi.net/img/categories_v2/nightlife/pub_", "suffix": ".png"}}, {"id": 13065, "name": "Restaurant", "short_name": "Restaurant", "plural_name": "Restaurants", "icon": {"prefix": "https://ss3.4sqi.net/img/categories_v2/food/default_", "suffix": ".png"}}], "chains": [], "closed_bucket": "Unsure", "distance": 911, "geocodes": {"main": {"latitude": 55.873122, "longitude": -4.279327}, "roof": {"latitude": 55.873122, "longitude": -4.279327}}, "link": "/v3/places/4bb4be3486a8d13a67c8de7f", "location": {"address": "74 Park Rd", "admin_region": "Scotland", "country": "GB", "cross_street": "Woodlands Road", "formatted_address": "74 Park Rd (Woodlands Road), Glasgow, Glasgow City, G4 9JF", "locality": "Glasgow", "post_town": "Glasgow", "postcode": "G4 9JF", "region": "Glasgow City"}, "name": "The Doublet", "related_places": {}, "timezone": "Europe/London"}, {"fsq_id": "4bab4addf964a5204f9e3ae3", "categories": [{"id": 13102, "name": "Cantonese Restaurant", "short_name": "Cantonese", "plural_name": "Cantonese Restaurants", "icon": {"prefix": "https://ss3.4sqi.net/img/categories_v2/food/asian_", "suffix": ".png"}}, {"id": 13106, "name": "Dim Sum Restaurant", "short_name": "Dim Sum", "plural_name": "Dim Sum Restaurants", "icon": {"prefix": "https://ss3.4sqi.net/img/categories_v2/food/dimsum_", "suffix": ".png"}}], "chains": [], "closed_bucket": "VeryLikelyOpen", "distance": 854, "geocodes": {"main": {"latitude": 55.878664, "longitude": -4.255065}, "roof": {"latitude": 55.878664, "longitude": -4.255065}}, "link": "/v3/places/4bab4addf964a5204f9e3ae3", "location": {"address": "The Point, 29 Saracen St", "address_extended": "Unit 7", "admin_region": "Scotland", "country": "GB", "cross_street": "Saracen St at Possil Rd", "formatted_address": "The Point, 29 Saracen St (Saracen St at Possil Rd), Glasgow, Glasgow City, G22 5HT", "locality": "Glasgow", "post_town": "Glasgow", "postcode": "G22 5HT", "region": "Glasgow City"}, "name": "See Woo Restaurant", "related_places": {}, "timezone": "Europe/London"}, {"fsq_id": "4c0164bef7ab0f471d0816b6", "categories": [{"id": 13018, "name": "Pub", "short_name": "Pub", "plural_name": "Pubs", "icon": {"prefix": "https://ss3.4sqi.net/img/categories_v2/nightlife/pub_", "suffix": ".png"}}, {"id": 13065, "name": "Restaurant", "short_name": "Restaurant", "plural_name": "Restaurants", "icon": {"prefix": "https://ss3.4sqi.net/img/categories_v2/food/default_", "suffix": ".png"}}], "chains": [], "closed_bucket": "Unsure", "distance": 957, "geocodes": {"main": {"latitude": 55.872066, "longitude": -4.278453}, "roof": {"latitude": 55.872066, "longitude": -4.278453}}, "link": "/v3/places/4c0164bef7ab0f471d0816b6", "location": {"address": "287 Woodlands Rd", "admin_region": "Scotland", "country": "GB", "cross_street": "", "formatted_address": "287 Woodlands Rd, Glasgow, Glasgow City, G3 6NF", "locality": "Glasgow", "post_town": "Glasgow", "postcode": "G3 6NF", "region": "Glasgow City"}, "name": "Old Schoolhouse Glasgow", "related_places": {}, "timezone": "Europe/London"}, {"fsq_id": "572774db498eb236fd4d4279", "categories": [{"id": 13034, "name": "Caf\u00e9", "short_name": "Caf\u00e9", "plural_name": "Caf\u00e9s", "icon": {"prefix": "https://ss3.4sqi.net/img/categories_v2/food/cafe_", "suffix": ".png"}}, {"id": 13035, "name": "Coffee Shop", "short_name": "Coffee Shop", "plural_name": "Coffee Shops", "icon": {"prefix": "https://ss3.4sqi.net/img/categories_v2/food/coffeeshop_", "suffix": ".png"}}, {"id": 13065, "name": "Restaurant", "short_name": "Restaurant", "plural_name": "Restaurants", "icon": {"prefix": "https://ss3.4sqi.net/img/categories_v2/food/default_", "suffix": ".png"}}], "chains": [], "closed_bucket": "VeryLikelyOpen", "distance": 848, "geocodes": {"drop_off": {"latitude": 55.874231, "longitude": -4.279504}, "main": {"latitude": 55.874123, "longitude": -4.279323}, "roof": {"latitude": 55.874123, "longitude": -4.279323}}, "link": "/v3/places/572774db498eb236fd4d4279", "location": {"address": "72 South Woodside Rd", "admin_region": "Scotland", "country": "GB", "cross_street": "", "formatted_address": "72 South Woodside Rd, Glasgow, G4 9HG", "locality": "Glasgow", "post_town": "Glasgow", "postcode": "G4 9HG"}, "name": "Kelvin Pocket", "related_places": {}, "timezone": "Europe/London"}, {"fsq_id": "4caf61c2b4b0a35d708e40ce", "categories": [{"id": 13018, "name": "Pub", "short_name": "Pub", "plural_name": "Pubs", "icon": {"prefix": "https://ss3.4sqi.net/img/categories_v2/nightlife/pub_", "suffix": ".png"}}], "chains": [], "closed_bucket": "LikelyOpen", "distance": 736, "geocodes": {"main": {"latitude": 55.87265, "longitude": -4.272828}, "roof": {"latitude": 55.87265, "longitude": -4.272828}}, "link": "/v3/places/4caf61c2b4b0a35d708e40ce", "location": {"address": "226 Great Western Rd", "admin_region": "Scotland", "country": "GB", "cross_street": "", "formatted_address": "226 Great Western Rd, Glasgow, Glasgow City, G4 9EJ", "locality": "Glasgow", "post_town": "Glasgow", "postcode": "G4 9EJ", "region": "Glasgow City"}, "name": "Wintersgills Bar", "related_places": {}, "timezone": "Europe/London"}, {"fsq_id": "52029396498e6e6e055c6b89", "categories": [{"id": 13003, "name": "Bar", "short_name": "Bar", "plural_name": "Bars", "icon": {"prefix": "https://ss3.4sqi.net/img/categories_v2/nightlife/pub_", "suffix": ".png"}}], "chains": [], "closed_bucket": "VeryLikelyOpen", "distance": 931, "geocodes": {"main": {"latitude": 55.875514, "longitude": -4.282626}, "roof": {"latitude": 55.875514, "longitude": -4.282626}}, "link": "/v3/places/52029396498e6e6e055c6b89", "location": {"country": "GB", "cross_street": "", "formatted_address": "", "post_town": "Glasgow"}, "name": "Luac", "related_places": {}, "timezone": "Europe/London"}, {"fsq_id": "62a63961596a3f54a806d0c0", "categories": [{"id": 13003, "name": "Bar", "short_name": "Bar", "plural_name": "Bars", "icon": {"prefix": "https://ss3.4sqi.net/img/categories_v2/nightlife/pub_", "suffix": ".png"}}], "chains": [], "closed_bucket": "VeryLikelyOpen", "distance": 915, "geocodes": {"main": {"latitude": 55.875739, "longitude": -4.282388}, "roof": {"latitude": 55.875739, "longitude": -4.282388}}, "link": "/v3/places/62a63961596a3f54a806d0c0", "location": {"admin_region": "Scotland", "country": "GB", "cross_street": "", "formatted_address": "Glasgow, Glasgow City, G12 8EN", "locality": "Glasgow", "post_town": "Glasgow", "postcode": "G12 8EN", "region": "Glasgow City"}, "name": "The Bakehouse", "related_places": {}, "timezone": "Europe/London"}, {"fsq_id": "4b85775ff964a520cb5f31e3", "categories": [{"id": 13035, "name": "Coffee Shop", "short_name": "Coffee Shop", "plural_name": "Coffee Shops", "icon": {"prefix": "https://ss3.4sqi.net/img/categories_v2/food/coffeeshop_", "suffix": ".png"}}, {"id": 13065, "name": "Restaurant", "short_name": "Restaurant", "plural_name": "Restaurants", "icon": {"prefix": "https://ss3.4sqi.net/img/categories_v2/food/default_", "suffix": ".png"}}], "chains": [], "closed_bucket": "Unsure", "distance": 980, "geocodes": {"main": {"latitude": 55.871452, "longitude": -4.277208}, "roof": {"latitude": 55.871452, "longitude": -4.277208}}, "link": "/v3/places/4b85775ff964a520cb5f31e3", "location": {"address": "250-254 Woodlands Rd", "admin_region": "Scotland", "country": "GB", "cross_street": "", "formatted_address": "250-254 Woodlands Rd, Glasgow City, G3 6ND", "locality": "Glasgow City", "post_town": "Glasgow", "postcode": "G3 6ND", "region": "Glasgow City"}, "name": "iCafe", "related_places": {}, "timezone": "Europe/London"}, {"fsq_id": "4bc0375b4cdfc9b635a09221", "categories": [{"id": 13035, "name": "Coffee Shop", "short_name": "Coffee Shop", "plural_name": "Coffee Shops", "icon": {"prefix": "https://ss3.4sqi.net/img/categories_v2/food/coffeeshop_", "suffix": ".png"}}, {"id": 13065, "name": "Restaurant", "short_name": "Restaurant", "plural_name": "Restaurants", "icon": {"prefix": "https://ss3.4sqi.net/img/categories_v2/food/default_", "suffix": ".png"}}], "chains": [], "closed_bucket": "VeryLikelyOpen", "distance": 734, "geocodes": {"main": {"latitude": 55.872559, "longitude": -4.273491}, "roof": {"latitude": 55.872559, "longitude": -4.273491}}, "link": "/v3/places/4bc0375b4cdfc9b635a09221", "location": {"address": "223 Great Western Rd", "admin_region": "Scotland", "country": "GB", "cross_street": "", "formatted_address": "223 Great Western Rd, Glasgow, Glasgow City, G4 9EB", "locality": "Glasgow", "post_town": "Glasgow", "postcode": "G4 9EB", "region": "Glasgow City"}, "name": "iCafe", "related_places": {}, "timezone": "Europe/London"}, {"fsq_id": "4b5a3ffff964a52078b728e3", "categories": [{"id": 13018, "name": "Pub", "short_name": "Pub", "plural_name": "Pubs", "icon": {"prefix": "https://ss3.4sqi.net/img/categories_v2/nightlife/pub_", "suffix": ".png"}}, {"id": 13022, "name": "Sports Bar", "short_name": "Sports Bar", "plural_name": "Sports Bars", "icon": {"prefix": "https://ss3.4sqi.net/img/categories_v2/nightlife/sportsbar_", "suffix": ".png"}}, {"id": 13027, "name": "Bistro", "short_name": "Bistro", "plural_name": "Bistros", "icon": {"prefix": "https://ss3.4sqi.net/img/categories_v2/food/default_", "suffix": ".png"}}], "chains": [], "closed_bucket": "Unsure", "distance": 923, "geocodes": {"main": {"latitude": 55.875514, "longitude": -4.282626}, "roof": {"latitude": 55.875514, "longitude": -4.282626}}, "link": "/v3/places/4b5a3ffff964a52078b728e3", "location": {"address": "499 Great Western Rd", "admin_region": "Scotland", "country": "GB", "cross_street": "", "formatted_address": "499 Great Western Rd, Glasgow, Glasgow City, G12 8HN", "locality": "Glasgow", "post_town": "Glasgow", "postcode": "G12 8HN", "region": "Glasgow City"}, "name": "Coopers", "related_places": {}, "timezone": "Europe/London"}, {"fsq_id": "52ed2996498ea5581915641f", "categories": [{"id": 13018, "name": "Pub", "short_name": "Pub", "plural_name": "Pubs", "icon": {"prefix": "https://ss3.4sqi.net/img/categories_v2/nightlife/pub_", "suffix": ".png"}}], "chains": [], "closed_bucket": "VeryLikelyOpen", "distance": 410, "geocodes": {"main": {"latitude": 55.87533, "longitude": -4.271087}, "roof": {"latitude": 55.87533, "longitude": -4.271087}}, "link": "/v3/places/52ed2996498ea5581915641f", "location": {"address": "239 Maryhill Rd", "admin_region": "Scotland", "country": "GB", "cross_street": "", "formatted_address": "239 Maryhill Rd, Glasgow, G20 7YB", "locality": "Glasgow", "post_town": "Glasgow", "postcode": "G20 7YB"}, "name": "The Woodside Inn", "related_places": {}, "timezone": "Europe/London"}, {"fsq_id": "4c90d73a490376b0b26ada36", "categories": [{"id": 13145, "name": "Fast Food Restaurant", "short_name": "Fast Food", "plural_name": "Fast Food Restaurants", "icon": {"prefix": "https://ss3.4sqi.net/img/categories_v2/food/fastfood_", "suffix": ".png"}}, {"id": 13334, "name": "Sandwich Spot", "short_name": "Sandwich Spot", "plural_name": "Sandwich Spots", "icon": {"prefix": "https://ss3.4sqi.net/img/categories_v2/food/deli_", "suffix": ".png"}}], "chains": [], "closed_bucket": "VeryLikelyOpen", "distance": 561, "geocodes": {"main": {"latitude": 55.880603, "longitude": -4.272827}, "roof": {"latitude": 55.880603, "longitude": -4.272827}}, "link": "/v3/places/4c90d73a490376b0b26ada36", "location": {"address": "14 Northpark St", "admin_region": "Scotland", "country": "GB", "cross_street": "Off Maryhill Road", "formatted_address": "14 Northpark St (Off Maryhill Road), Glasgow, Glasgow City, G20 7AB", "locality": "Glasgow", "post_town": "Glasgow", "postcode": "G20 7AB", "region": "Glasgow City"}, "name": "Roll in", "related_places": {}, "timezone": "Europe/London"}, {"fsq_id": "4c50268638b0be9a35ad06fd", "categories": [{"id": 13018, "name": "Pub", "short_name": "Pub", "plural_name": "Pubs", "icon": {"prefix": "https://ss3.4sqi.net/img/categories_v2/nightlife/pub_", "suffix": ".png"}}, {"id": 13022, "name": "Sports Bar", "short_name": "Sports Bar", "plural_name": "Sports Bars", "icon": {"prefix": "https://ss3.4sqi.net/img/categories_v2/nightlife/sportsbar_", "suffix": ".png"}}], "chains": [], "closed_bucket": "VeryLikelyOpen", "distance": 607, "geocodes": {"main": {"latitude": 55.873363, "longitude": -4.269555}, "roof": {"latitude": 55.873363, "longitude": -4.269555}}, "link": "/v3/places/4c50268638b0be9a35ad06fd", "location": {"address": "144 Maryhill Rd", "admin_region": "Scotland", "country": "GB", "cross_street": "", "formatted_address": "144 Maryhill Rd, Glasgow, Glasgow City, G20 7QS", "locality": "Glasgow", "post_town": "Glasgow", "postcode": "G20 7QS", "region": "Glasgow City"}, "name": "The Royalty Bar", "related_places": {}, "timezone": "Europe/London"}, {"fsq_id": "5db171e193417700084350c6", "categories": [{"id": 13145, "name": "Fast Food Restaurant", "short_name": "Fast Food", "plural_name": "Fast Food Restaurants", "icon": {"prefix": "https://ss3.4sqi.net/img/categories_v2/food/fastfood_", "suffix": ".png"}}, {"id": 13199, "name": "Indian Restaurant", "short_name": "Indian", "plural_name": "Indian Restaurants", "icon": {"prefix": "https://ss3.4sqi.net/img/categories_v2/food/indian_", "suffix": ".png"}}], "chains": [], "closed_bucket": "LikelyOpen", "distance": 640, "geocodes": {"drop_off": {"latitude": 55.873025, "longitude": -4.265723}, "main": {"latitude": 55.873154, "longitude": -4.265833}, "roof": {"latitude": 55.873154, "longitude": -4.265833}}, "link": "/v3/places/5db171e193417700084350c6", "location": {"address": "427 St. Georges Rd", "admin_region": "Scotland", "country": "GB", "cross_street": "", "formatted_address": "427 St. Georges Rd, Glasgow, Glasgow City, G3 6JX", "locality": "Glasgow", "post_town": "Glasgow", "postcode": "G3 6JX", "region": "Glasgow City"}, "name": "Panlasa", "related_places": {}, "timezone": "Europe/London"}, {"fsq_id": "606ed3d998c2fc262d5a9d8d", "categories": [{"id": 13199, "name": "Indian Restaurant", "short_name": "Indian", "plural_name": "Indian Restaurants", "icon": {"prefix": "https://ss3.4sqi.net/img/categories_v2/food/indian_", "suffix": ".png"}}], "chains": [], "closed_bucket": "LikelyOpen", "distance": 687, "geocodes": {"drop_off": {"latitude": 55.872712, "longitude": -4.268713}, "main": {"latitude": 55.872622, "longitude": -4.268691}, "roof": {"latitude": 55.872622, "longitude": -4.268691}}, "link": "/v3/places/606ed3d998c2fc262d5a9d8d", "location": {"address": "10 Clarendon St", "admin_region": "Scotland", "country": "GB", "cross_street": "", "formatted_address": "10 Clarendon St, Glasgow, Glasgow City, G20 7QD", "locality": "Glasgow", "post_town": "Glasgow", "postcode": "G20 7QD", "region": "Glasgow City"}, "name": "Raunak Raseeli India", "related_places": {}, "timezone": "Europe/London"}, {"fsq_id": "f11537f55aaf4adccb9a4243", "categories": [{"id": 13003, "name": "Bar", "short_name": "Bar", "plural_name": "Bars", "icon": {"prefix": "https://ss3.4sqi.net/img/categories_v2/nightlife/pub_", "suffix": ".png"}}], "chains": [], "closed_bucket": "LikelyOpen", "distance": 728, "geocodes": {"drop_off": {"latitude": 55.87364, "longitude": -4.27634}, "main": {"latitude": 55.873769, "longitude": -4.276297}, "roof": {"latitude": 55.873769, "longitude": -4.276297}}, "link": "/v3/places/f11537f55aaf4adccb9a4243", "location": {"address": "372 Great Western Rd", "admin_region": "Scotland", "country": "GB", "formatted_address": "372 Great Western Rd, Glasgow, G4 9HT", "locality": "Glasgow", "post_town": "Glasgow", "postcode": "G4 9HT"}, "name": "Republic Bier Halle", "related_places": {}, "timezone": "Europe/London"}, {"fsq_id": "5a5a94f9da5e56453179eaff", "categories": [{"id": 13003, "name": "Bar", "short_name": "Bar", "plural_name": "Bars", "icon": {"prefix": "https://ss3.4sqi.net/img/categories_v2/nightlife/pub_", "suffix": ".png"}}, {"id": 13065, "name": "Restaurant", "short_name": "Restaurant", "plural_name": "Restaurants", "icon": {"prefix": "https://ss3.4sqi.net/img/categories_v2/food/default_", "suffix": ".png"}}], "chains": [], "closed_bucket": "VeryLikelyOpen", "distance": 733, "geocodes": {"drop_off": {"latitude": 55.873527, "longitude": -4.275995}, "main": {"latitude": 55.873683, "longitude": -4.275944}, "roof": {"latitude": 55.873683, "longitude": -4.275944}}, "link": "/v3/places/5a5a94f9da5e56453179eaff", "location": {"address": "360 Great Western Rd", "admin_region": "Scotland", "country": "GB", "cross_street": "", "formatted_address": "360 Great Western Rd, Glasgow", "locality": "Glasgow", "post_town": "Glasgow"}, "name": "Banana Moon", "related_places": {}, "timezone": "Europe/London"}, {"fsq_id": "5172d05be4b04648d9e70ccb", "categories": [{"id": 13305, "name": "Burrito Restaurant", "short_name": "Burritos", "plural_name": "Burrito Restaurants", "icon": {"prefix": "https://ss3.4sqi.net/img/categories_v2/food/burrito_", "suffix": ".png"}}], "chains": [], "closed_bucket": "VeryLikelyOpen", "distance": 744, "geocodes": {"drop_off": {"latitude": 55.873606, "longitude": -4.276238}, "main": {"latitude": 55.873453, "longitude": -4.276288}, "roof": {"latitude": 55.873453, "longitude": -4.276288}}, "link": "/v3/places/5172d05be4b04648d9e70ccb", "location": {"address": "372-374 Great Western Rd", "country": "GB", "cross_street": "", "formatted_address": "372-374 Great Western Rd, Glasgow, Glasgow City", "locality": "Glasgow", "post_town": "Glasgow", "region": "Glasgow City"}, "name": "Nacho Average Pop-Up", "related_places": {}, "timezone": "Europe/London"}, {"fsq_id": "5751c720cd10abbe87162bf5", "categories": [{"id": 13065, "name": "Restaurant", "short_name": "Restaurant", "plural_name": "Restaurants", "icon": {"prefix": "https://ss3.4sqi.net/img/categories_v2/food/default_", "suffix": ".png"}}, {"id": 17067, "name": "Fruit and Vegetable Store", "short_name": "Fruit and Vegetable Store", "plural_name": "Fruit and Vegetable Stores", "icon": {"prefix": "https://ss3.4sqi.net/img/categories_v2/shops/food_grocery_", "suffix": ".png"}}], "chains": [], "closed_bucket": "LikelyOpen", "distance": 746, "geocodes": {"drop_off": {"latitude": 55.873218, "longitude": -4.275047}, "main": {"latitude": 55.8731, "longitude": -4.275085}, "roof": {"latitude": 55.8731, "longitude": -4.275085}}, "link": "/v3/places/5751c720cd10abbe87162bf5", "location": {"address": "Great Western Rd", "admin_region": "Scotland", "country": "GB", "cross_street": "", "formatted_address": "Great Western Rd, Glasgow, Glasgow City", "locality": "Glasgow", "post_town": "Glasgow", "region": "Glasgow City"}, "name": "Stalks & Stems", "related_places": {}, "timezone": "Europe/London"}, {"fsq_id": "4c546f35728920a16f4bc182", "categories": [{"id": 13018, "name": "Pub", "short_name": "Pub", "plural_name": "Pubs", "icon": {"prefix": "https://ss3.4sqi.net/img/categories_v2/nightlife/pub_", "suffix": ".png"}}], "chains": [], "closed_bucket": "VeryLikelyOpen", "distance": 748, "geocodes": {"main": {"latitude": 55.872052, "longitude": -4.268533}, "roof": {"latitude": 55.872052, "longitude": -4.268533}}, "link": "/v3/places/4c546f35728920a16f4bc182", "location": {"country": "GB", "cross_street": "", "formatted_address": ""}, "name": "Thistle Bar", "related_places": {}, "timezone": "Europe/London"}, {"fsq_id": "608c598e6a36c31fc10942f1", "categories": [{"id": 13003, "name": "Bar", "short_name": "Bar", "plural_name": "Bars", "icon": {"prefix": "https://ss3.4sqi.net/img/categories_v2/nightlife/pub_", "suffix": ".png"}}, {"id": 13337, "name": "Scottish Restaurant", "short_name": "Scottish", "plural_name": "Scottish Restaurants", "icon": {"prefix": "https://ss3.4sqi.net/img/categories_v2/food/default_", "suffix": ".png"}}], "chains": [], "closed_bucket": "LikelyOpen", "distance": 754, "geocodes": {"drop_off": {"latitude": 55.873637, "longitude": -4.276331}, "main": {"latitude": 55.873447, "longitude": -4.276393}, "roof": {"latitude": 55.873447, "longitude": -4.276393}}, "link": "/v3/places/608c598e6a36c31fc10942f1", "location": {"address": "333 Great Western Rd", "admin_region": "Scotland", "country": "GB", "cross_street": "", "formatted_address": "333 Great Western Rd, Glasgow, Glasgow City, G4 9HS", "locality": "Glasgow", "post_town": "Glasgow", "postcode": "G4 9HS", "region": "Glasgow City"}, "name": "The Loveable Rogue", "related_places": {}, "timezone": "Europe/London"}, {"fsq_id": "5bf14af38c35dc002c8b13a8", "categories": [{"id": 13018, "name": "Pub", "short_name": "Pub", "plural_name": "Pubs", "icon": {"prefix": "https://ss3.4sqi.net/img/categories_v2/nightlife/pub_", "suffix": ".png"}}, {"id": 13065, "name": "Restaurant", "short_name": "Restaurant", "plural_name": "Restaurants", "icon": {"prefix": "https://ss3.4sqi.net/img/categories_v2/food/default_", "suffix": ".png"}}], "chains": [], "closed_bucket": "LikelyOpen", "distance": 766, "geocodes": {"main": {"latitude": 55.882567, "longitude": -4.279023}, "roof": {"latitude": 55.882567, "longitude": -4.279023}}, "link": "/v3/places/5bf14af38c35dc002c8b13a8", "location": {"address": "795 Maryhill Rd", "admin_region": "Scotland", "country": "GB", "cross_street": "", "formatted_address": "795 Maryhill Rd, Glasgow, Glasgow City, G20 7TL", "locality": "Glasgow", "post_town": "Glasgow", "postcode": "G20 7TL", "region": "Glasgow City"}, "name": "The Botany Bar & Restaurant", "related_places": {}, "timezone": "Europe/London"}, {"fsq_id": "b5d8a8f8ffc84577663a646e", "categories": [{"id": 13099, "name": "Chinese Restaurant", "short_name": "Chinese", "plural_name": "Chinese Restaurants", "icon": {"prefix": "https://ss3.4sqi.net/img/categories_v2/food/asian_", "suffix": ".png"}}, {"id": 13145, "name": "Fast Food Restaurant", "short_name": "Fast Food", "plural_name": "Fast Food Restaurants", "icon": {"prefix": "https://ss3.4sqi.net/img/categories_v2/food/fastfood_", "suffix": ".png"}}], "chains": [], "closed_bucket": "Unsure", "distance": 782, "geocodes": {"main": {"latitude": 55.871754, "longitude": -4.268209}, "roof": {"latitude": 55.871754, "longitude": -4.268209}}, "link": "/v3/places/b5d8a8f8ffc84577663a646e", "location": {"address": "38 Clarendon Pl", "admin_region": "Scotland", "country": "GB", "formatted_address": "38 Clarendon Pl, Glasgow, G20 7PZ", "locality": "Glasgow", "post_town": "Glasgow", "postcode": "G20 7PZ"}, "name": "Chan's Chinese Takeaway", "related_places": {}, "timezone": "Europe/London"}, {"fsq_id": "6127bc023181a85974e45697", "categories": [{"id": 13065, "name": "Restaurant", "short_name": "Restaurant", "plural_name": "Restaurants", "icon": {"prefix": "https://ss3.4sqi.net/img/categories_v2/food/default_", "suffix": ".png"}}], "chains": [], "closed_bucket": "VeryLikelyOpen", "distance": 784, "geocodes": {"main": {"latitude": 55.874122, "longitude": -4.278412}, "roof": {"latitude": 55.874122, "longitude": -4.278412}}, "link": "/v3/places/6127bc023181a85974e45697", "location": {"admin_region": "Scotland", "country": "GB", "cross_street": "", "formatted_address": "G4 9JA", "post_town": "Glasgow", "postcode": "G4 9JA"}, "name": "Saffron", "related_places": {}, "timezone": "Europe/London"}, {"fsq_id": "4eca332077c8be4925c54baa", "categories": [{"id": 13031, "name": "Burger Joint", "short_name": "Burgers", "plural_name": "Burger Joints", "icon": {"prefix": "https://ss3.4sqi.net/img/categories_v2/food/burger_", "suffix": ".png"}}, {"id": 13035, "name": "Coffee Shop", "short_name": "Coffee Shop", "plural_name": "Coffee Shops", "icon": {"prefix": "https://ss3.4sqi.net/img/categories_v2/food/coffeeshop_", "suffix": ".png"}}, {"id": 13145, "name": "Fast Food Restaurant", "short_name": "Fast Food", "plural_name": "Fast Food Restaurants", "icon": {"prefix": "https://ss3.4sqi.net/img/categories_v2/food/fastfood_", "suffix": ".png"}}], "chains": [], "closed_bucket": "LikelyOpen", "distance": 788, "geocodes": {"main": {"latitude": 55.871803, "longitude": -4.26828}, "roof": {"latitude": 55.871803, "longitude": -4.26828}}, "link": "/v3/places/4eca332077c8be4925c54baa", "location": {"address": "48 Clarendon Pl", "admin_region": "Scotland", "country": "GB", "cross_street": "St Georges Cross", "formatted_address": "48 Clarendon Pl (St Georges Cross), Glasgow, Glasgow City, G20 7PZ", "locality": "Glasgow", "post_town": "Glasgow", "postcode": "G20 7PZ", "region": "Glasgow City"}, "name": "Paul n Kal Cafe' n Catering", "related_places": {}, "timezone": "Europe/London"}, {"fsq_id": "5d84de07f516bc000834ca9c", "categories": [{"id": 13002, "name": "Bakery", "short_name": "Bakery", "plural_name": "Bakeries", "icon": {"prefix": "https://ss3.4sqi.net/img/categories_v2/food/bakery_", "suffix": ".png"}}, {"id": 13032, "name": "Cafe, Coffee, and Tea House", "short_name": "Cafe, Coffee, and Tea House", "plural_name": "Cafes, Coffee, and Tea Houses", "icon": {"prefix": "https://ss3.4sqi.net/img/categories_v2/food/coffeeshop_", "suffix": ".png"}}, {"id": 13065, "name": "Restaurant", "short_name": "Restaurant", "plural_name": "Restaurants", "icon": {"prefix": "https://ss3.4sqi.net/img/categories_v2/food/default_", "suffix": ".png"}}], "chains": [], "closed_bucket": "VeryLikelyOpen", "distance": 823, "geocodes": {"drop_off": {"latitude": 55.873813, "longitude": -4.278368}, "main": {"latitude": 55.873958, "longitude": -4.278512}, "roof": {"latitude": 55.873958, "longitude": -4.278512}}, "link": "/v3/places/5d84de07f516bc000834ca9c", "location": {"address": "10 Park Rd", "admin_region": "Scotland", "country": "GB", "cross_street": "", "formatted_address": "10 Park Rd, Glasgow, G4 9JG", "locality": "Glasgow", "post_town": "Glasgow", "postcode": "G4 9JG"}, "name": "Broken Clock Cafe & Patisserie", "related_places": {}, "timezone": "Europe/London"}, {"fsq_id": "4bdec1a6be5120a14399fe70", "categories": [{"id": 13039, "name": "Deli", "short_name": "Deli", "plural_name": "Delis", "icon": {"prefix": "https://ss3.4sqi.net/img/categories_v2/food/deli_", "suffix": ".png"}}], "chains": [], "closed_bucket": "VeryLikelyOpen", "distance": 826, "geocodes": {"drop_off": {"latitude": 55.87367, "longitude": -4.278513}, "main": {"latitude": 55.873843, "longitude": -4.278683}, "roof": {"latitude": 55.873843, "longitude": -4.278683}}, "link": "/v3/places/4bdec1a6be5120a14399fe70", "location": {"address": "6 Park Rd", "admin_region": "Scotland", "country": "GB", "cross_street": "", "formatted_address": "6 Park Rd, Glasgow, G4 9JG", "locality": "Glasgow", "post_town": "Glasgow", "postcode": "G4 9JG"}, "name": "Del'Ziri", "related_places": {}, "timezone": "Europe/London"}, {"fsq_id": "5c812eac92e7a9002c6bee7e", "categories": [{"id": 13236, "name": "Italian Restaurant", "short_name": "Italian", "plural_name": "Italian Restaurants", "icon": {"prefix": "https://ss3.4sqi.net/img/categories_v2/food/italian_", "suffix": ".png"}}], "chains": [], "closed_bucket": "VeryLikelyOpen", "distance": 840, "geocodes": {"main": {"latitude": 55.875064, "longitude": -4.280369}, "roof": {"latitude": 55.875064, "longitude": -4.280369}}, "link": "/v3/places/5c812eac92e7a9002c6bee7e", "location": {"country": "GB", "cross_street": "", "formatted_address": "Glasgow, Glasgow City", "locality": "Glasgow", "post_town": "Glasgow", "region": "Glasgow City"}, "name": "La Lanterna West End", "related_places": {}, "timezone": "Europe/London"}, {"fsq_id": "510d7d99e4b0809a84d0aea9", "categories": [{"id": 13003, "name": "Bar", "short_name": "Bar", "plural_name": "Bars", "icon": {"prefix": "https://ss3.4sqi.net/img/categories_v2/nightlife/pub_", "suffix": ".png"}}], "chains": [], "closed_bucket": "VeryLikelyOpen", "distance": 887, "geocodes": {"main": {"latitude": 55.882247, "longitude": -4.281853}, "roof": {"latitude": 55.882247, "longitude": -4.281853}}, "link": "/v3/places/510d7d99e4b0809a84d0aea9", "location": {"country": "GB", "cross_street": "", "formatted_address": ""}, "name": "The Bugle & Elephant", "related_places": {}, "timezone": "Europe/London"}, {"fsq_id": "59a54f608134884bd0648431", "categories": [{"id": 13035, "name": "Coffee Shop", "short_name": "Coffee Shop", "plural_name": "Coffee Shops", "icon": {"prefix": "https://ss3.4sqi.net/img/categories_v2/food/coffeeshop_", "suffix": ".png"}}, {"id": 13065, "name": "Restaurant", "short_name": "Restaurant", "plural_name": "Restaurants", "icon": {"prefix": "https://ss3.4sqi.net/img/categories_v2/food/default_", "suffix": ".png"}}], "chains": [], "closed_bucket": "VeryLikelyOpen", "distance": 918, "geocodes": {"main": {"latitude": 55.875884, "longitude": -4.282603}, "roof": {"latitude": 55.875884, "longitude": -4.282603}}, "link": "/v3/places/59a54f608134884bd0648431", "location": {"admin_region": "Scotland", "country": "GB", "cross_street": "", "formatted_address": "Glasgow, Glasgow City, G12 8EN", "locality": "Glasgow", "post_town": "Glasgow", "postcode": "G12 8EN", "region": "Glasgow City"}, "name": "Papercup Roastery", "related_places": {}, "timezone": "Europe/London"}, {"fsq_id": "60b3c5b5304b4549722e7d24", "categories": [{"id": 13018, "name": "Pub", "short_name": "Pub", "plural_name": "Pubs", "icon": {"prefix": "https://ss3.4sqi.net/img/categories_v2/nightlife/pub_", "suffix": ".png"}}, {"id": 13065, "name": "Restaurant", "short_name": "Restaurant", "plural_name": "Restaurants", "icon": {"prefix": "https://ss3.4sqi.net/img/categories_v2/food/default_", "suffix": ".png"}}], "chains": [], "closed_bucket": "LikelyOpen", "distance": 919, "geocodes": {"main": {"latitude": 55.88182050214226, "longitude": -4.2825002086119675}}, "link": "/v3/places/60b3c5b5304b4549722e7d24", "location": {"address": "182 Queen Margaret Dr", "admin_region": "Scotland", "country": "GB", "cross_street": "", "formatted_address": "182 Queen Margaret Dr, Glasgow, Glasgow City, G20 8NX", "locality": "Glasgow", "post_town": "Glasgow", "postcode": "G20 8NX", "region": "Glasgow City"}, "name": "The Brewhaus", "related_places": {}, "timezone": "Europe/London"}, {"fsq_id": "4bd24b6f77b29c74fe878e82", "categories": [{"id": 10032, "name": "Night Club", "short_name": "Night Club", "plural_name": "Night Clubs", "icon": {"prefix": "https://ss3.4sqi.net/img/categories_v2/nightlife/nightclub_", "suffix": ".png"}}, {"id": 13003, "name": "Bar", "short_name": "Bar", "plural_name": "Bars", "icon": {"prefix": "https://ss3.4sqi.net/img/categories_v2/nightlife/pub_", "suffix": ".png"}}], "chains": [], "closed_bucket": "VeryLikelyOpen", "distance": 924, "geocodes": {"main": {"latitude": 55.875739, "longitude": -4.282388}, "roof": {"latitude": 55.875739, "longitude": -4.282388}}, "link": "/v3/places/4bd24b6f77b29c74fe878e82", "location": {"address": "500 Great Western Rd", "admin_region": "Scotland", "country": "GB", "cross_street": "", "formatted_address": "500 Great Western Rd, Glasgow, G12 8EN", "locality": "Glasgow", "post_town": "Glasgow", "postcode": "G12 8EN"}, "name": "Viper", "related_places": {}, "timezone": "Europe/London"}, {"fsq_id": "4bf90c665ec320a10da689d3", "categories": [{"id": 13034, "name": "Caf\u00e9", "short_name": "Caf\u00e9", "plural_name": "Caf\u00e9s", "icon": {"prefix": "https://ss3.4sqi.net/img/categories_v2/food/cafe_", "suffix": ".png"}}, {"id": 13039, "name": "Deli", "short_name": "Deli", "plural_name": "Delis", "icon": {"prefix": "https://ss3.4sqi.net/img/categories_v2/food/deli_", "suffix": ".png"}}, {"id": 13334, "name": "Sandwich Spot", "short_name": "Sandwich Spot", "plural_name": "Sandwich Spots", "icon": {"prefix": "https://ss3.4sqi.net/img/categories_v2/food/deli_", "suffix": ".png"}}], "chains": [], "closed_bucket": "LikelyOpen", "distance": 981, "geocodes": {"main": {"latitude": 55.875551, "longitude": -4.282908}, "roof": {"latitude": 55.875551, "longitude": -4.282908}}, "link": "/v3/places/4bf90c665ec320a10da689d3", "location": {"address": "517A Great Western Rd", "admin_region": "Scotland", "country": "GB", "cross_street": "", "formatted_address": "517A Great Western Rd, Glasgow, Glasgow City, G12 8HN", "locality": "Glasgow", "post_town": "Glasgow", "postcode": "G12 8HN", "region": "Glasgow City"}, "name": "The Flavour Co", "related_places": {}, "timezone": "Europe/London"}, {"fsq_id": "55d8d3a6498eb6bcf7a64bda", "categories": [{"id": 13299, "name": "Malay Restaurant", "short_name": "Malay", "plural_name": "Malay Restaurants", "icon": {"prefix": "https://ss3.4sqi.net/img/categories_v2/food/malaysian_", "suffix": ".png"}}], "chains": [], "closed_bucket": "Unsure", "distance": 1004, "geocodes": {"drop_off": {"latitude": 55.869698, "longitude": -4.2691}, "main": {"latitude": 55.869802, "longitude": -4.2692}, "roof": {"latitude": 55.869802, "longitude": -4.2692}}, "link": "/v3/places/55d8d3a6498eb6bcf7a64bda", "location": {"address": "185 St. Georges Rd", "admin_region": "Scotland", "country": "GB", "cross_street": "", "formatted_address": "185 St. Georges Rd, Glasgow, G3 6JD", "locality": "Glasgow", "post_town": "Glasgow", "postcode": "G3 6JD"}, "name": "Asiama", "related_places": {}, "timezone": "Europe/London"}], "context": {"geo_bounds": {"circle": {"center": {"latitude": 55.878787, "longitude": -4.26877}, "radius": 1000}}}}