{"results": [{"fsq_id": "fa1891e323bf467ab6eb23ea", "categories": [{"id": 13065, "name": "Restaurant", "short_name": "Restaurant", "plural_name": "Restaurants", "icon": {"prefix": "https://ss3.4sqi.net/img/categories_v2/food/default_", "suffix": ".png"}}], "chains": [], "closed_bucket": "VeryLikelyOpen", "distance": 876, "geocodes": {"drop_off": {"latitude": 55.846548, "longitude": -4.144229}, "main": {"latitude": 55.846433, "longitude": -4.144171}, "roof": {"latitude": 55.846433, "longitude": -4.144171}}, "link": "/v3/places/fa1891e323bf467ab6eb23ea", "location": {"address": "21 Grantlea Terrace", "admin_region": "Scotland", "country": "GB", "formatted_address": "21 Grantlea Terrace, Glasgow, Glasgow City", "locality": "Glasgow", "post_town": "Glasgow", "region": "Glasgow City"}, "name": "Nonna Rina's", "related_places": {}, "timezone": "Europe/London"}, {"fsq_id": "4cb1eac31463a1435e2ca9a9", "categories": [{"id": 13034, "name": "Caf\u00e9", "short_name": "Caf\u00e9", "plural_name": "Caf\u00e9s", "icon": {"prefix": "https://ss3.4sqi.net/img/categories_v2/food/cafe_", "suffix": ".png"}}, {"id": 13145, "name": "Fast Food Restaurant", "short_name": "Fast Food", "plural_name": "Fast Food Restaurants", "icon": {"prefix": "https://ss3.4sqi.net/img/categories_v2/food/fastfood_", "suffix": ".png"}}, {"id": 13199, "name": "Indian Restaurant", "short_name": "Indian", "plural_name": "Indian Restaurants", "icon": {"prefix": "https://ss3.4sqi.net/img/categories_v2/food/indian_", "suffix": ".png"}}], "chains": [], "closed_bucket": "LikelyOpen", "distance": 884, "geocodes": {"drop_off": {"latitude": 55.846548, "longitude": -4.144229}, "main": {"latitude": 55.846433, "longitude": -4.144171}, "roof": {"latitude": 55.846433, "longitude": -4.144171}}, "link": "/v3/places/4cb1eac31463a1435e2ca9a9", "location": {"address": "21 Grantlea Terrace", "admin_region": "Scotland", "country": "GB", "cross_street": "", "formatted_address": "21 Grantlea Terrace, Glasgow, Glasgow City, G32 9JN", "locality": "Glasgow", "post_town": "Glasgow", "postcode": "G32 9JN", "region": "Glasgow City"}, "name": "Naseeb Cuisine", "related_places": {}, "timezone": "Europe/London"}, {"fsq_id": "579cec07498e0fe839c7cec6", "categories": [{"id": 13064, "name": "Pizzeria", "short_name": "Pizza", "plural_name": "Pizzerias", "icon": {"prefix": "https://ss3.4sqi.net/img/categories_v2/food/pizza_", "suffix": ".png"}}], "chains": [], "closed_bucket": "VeryLikelyOpen", "distance": 890, "geocodes": {"drop_off": {"latitude": 55.846548, "longitude": -4.144229}, "main": {"latitude": 55.846433, "longitude": -4.144171}, "roof": {"latitude": 55.846433, "longitude": -4.144171}}, "link": "/v3/places/579cec07498e0fe839c7cec6", "location": {"address": "21 Grantlea Terrace", "admin_region": "Scotland", "country": "GB", "cross_street": "", "formatted_address": "21 Grantlea Terrace, Glasgow, Glasgow City, G32 9JN", "locality": "Glasgow", "post_town": "Glasgow", "postcode": "G32 9JN", "region": "Glasgow City"}, "name": "Cibo", "related_places": {}, "timezone": "Europe/London"}, {"fsq_id": "4eb2b1bd5c5cd1bad446c7f9", "categories": [{"id": 13035, "name": "Coffee Shop", "short_name": "Coffee Shop", "plural_name": "Coffee Shops", "icon": {"prefix": "https://ss3.4sqi.net/img/categories_v2/food/coffeeshop_", "suffix": ".png"}}, {"id": 13236, "name": "Italian Restaurant", "short_name": "Italian", "plural_name": "Italian Restaurants", "icon": {"prefix": "https://ss3.4sqi.net/img/categories_v2/food/italian_", "suffix": ".png"}}], "chains": [], "closed_bucket": "LikelyOpen", "distance": 897, "geocodes": {"main": {"latitude": 55.846318, "longitude": -4.144343}, "roof": {"latitude": 55.846318, "longitude": -4.144343}}, "link": "/v3/places/4eb2b1bd5c5cd1bad446c7f9", "location": {"address": "16 Grantlea Terrace", "admin_region": "Scotland", "country": "GB", "cross_street": "Mount Vernon", "formatted_address": "16 Grantlea Terrace (Mount Vernon), Glasgow, G32 9JN", "locality": "Glasgow", "post_town": "Glasgow", "postcode": "G32 9JN"}, "name": "Rustico", "related_places": {}, "timezone": "Europe/London"}], "context": {"geo_bounds": {"circle": {"center": {"latitude": 55.840336, "longitude": -4.135251}, "radius": 1000}}}}