{"results": [{"fsq_id": "4c51b6c5250dd13a5ab5b37d", "categories": [{"id": 13018, "name": "Pub", "short_name": "Pub", "plural_name": "Pubs", "icon": {"prefix": "https://ss3.4sqi.net/img/categories_v2/nightlife/pub_", "suffix": ".png"}}, {"id": 13065, "name": "Restaurant", "short_name": "Restaurant", "plural_name": "Restaurants", "icon": {"prefix": "https://ss3.4sqi.net/img/categories_v2/food/default_", "suffix": ".png"}}], "chains": [], "closed_bucket": "VeryLikelyOpen", "distance": 404, "geocodes": {"drop_off": {"latitude": 55.815026, "longitude": -4.257603}, "front_door": {"latitude": 55.814989, "longitude": -4.257654}, "main": {"latitude": 55.814989, "longitude": -4.257654}, "roof": {"latitude": 55.81509, "longitude": -4.257583}}, "link": "/v3/places/4c51b6c5250dd13a5ab5b37d", "location": {"address": "131 Old Castle Rd", "admin_region": "Scotland", "country": "GB", "cross_street": "", "formatted_address": "131 Old Castle Rd, Glasgow, Glasgow City, G44 5TJ", "locality": "Glasgow", "post_town": "Glasgow", "postcode": "G44 5TJ", "region": "Glasgow City"}, "name": "The Old Smiddy", "related_places": {}, "timezone": "Europe/London"}, {"fsq_id": "4bae5929f964a5201ea63be3", "categories": [{"id": 13003, "name": "Bar", "short_name": "Bar", "plural_name": "Bars", "icon": {"prefix": "https://ss3.4sqi.net/img/categories_v2/nightlife/pub_", "suffix": ".png"}}, {"id": 13057, "name": "Gastropub", "short_name": "Gastropub", "plural_name": "Gastropubs", "icon": {"prefix": "https://ss3.4sqi.net/img/categories_v2/food/gastropub_", "suffix": ".png"}}], "chains": [], "closed_bucket": "LikelyOpen", "distance": 720, "geocodes": {"main": {"latitude": 55.823189, "longitude": -4.25881}, "roof": {"latitude": 55.823189, "longitude": -4.25881}}, "link": "/v3/places/4bae5929f964a5201ea63be3", "location": {"address": "1153-1155 Cathcart Rd", "admin_region": "Scotland", "country": "GB", "formatted_address": "1153-1155 Cathcart Rd, Glasgow, Glasgow City, G42 9HB", "locality": "Glasgow", "post_town": "Glasgow", "postcode": "G42 9HB", "region": "Glasgow City"}, "name": "Clockwork Beer Co", "related_places": {}, "timezone": "Europe/London"}, {"fsq_id": "4bae53f1f964a52045a33be3", "categories": [{"id": 13025, "name": "Wine Bar", "short_name": "Wine Bar", "plural_name": "Wine Bars", "icon": {"prefix": "https://ss3.4sqi.net/img/categories_v2/food/winery_", "suffix": ".png"}}, {"id": 13065, "name": "Restaurant", "short_name": "Restaurant", "plural_name": "Restaurants", "icon": {"prefix": "https://ss3.4sqi.net/img/categories_v2/food/default_", "suffix": ".png"}}], "chains": [], "closed_bucket": "Unsure", "distance": 936, "geocodes": {"main": {"latitude": 55.810175, "longitude": -4.270702}, "roof": {"latitude": 55.810175, "longitude": -4.270702}}, "link": "/v3/places/4bae53f1f964a52045a33be3", "location": {"address": "443 Clarkston Rd", "admin_region": "Scotland", "country": "GB", "formatted_address": "443 Clarkston Rd, Muirend, Glasgow City, G44 3LL", "locality": "Glasgow", "post_town": "Glasgow", "postcode": "G44 3LL", "region": "Glasgow City"}, "name": "The Bank", "related_places": {}, "timezone": "Europe/London"}, {"fsq_id": "4e36e8adb61cddd1cd4cd4c0", "categories": [{"id": 13199, "name": "Indian Restaurant", "short_name": "Indian", "plural_name": "Indian Restaurants", "icon": {"prefix": "https://ss3.4sqi.net/img/categories_v2/food/indian_", "suffix": ".png"}}], "chains": [], "closed_bucket": "VeryLikelyOpen", "distance": 874, "geocodes": {"main": {"latitude": 55.824909, "longitude": -4.261908}, "roof": {"latitude": 55.824909, "longitude": -4.261908}}, "link": "/v3/places/4e36e8adb61cddd1cd4cd4c0", "location": {"address": "250 Battlefield Rd", "admin_region": "Scotland", "country": "GB", "formatted_address": "250 Battlefield Rd, Glasgow, G42 9HU", "locality": "Glasgow", "post_town": "Glasgow", "postcode": "G42 9HU"}, "name": "Alishan Tandoori", "related_places": {}, "timezone": "Europe/London"}, {"fsq_id": "4dfa38ae2271faf21feed4a5", "categories": [{"id": 13051, "name": "Fish and Chips Shop", "short_name": "Fish and Chips Shop", "plural_name": "Fish and Chips Shops", "icon": {"prefix": "https://ss3.4sqi.net/img/categories_v2/food/fishandchips_", "suffix": ".png"}}, {"id": 13145, "name": "Fast Food Restaurant", "short_name": "Fast Food", "plural_name": "Fast Food Restaurants", "icon": {"prefix": "https://ss3.4sqi.net/img/categories_v2/food/fastfood_", "suffix": ".png"}}, {"id": 13338, "name": "Seafood Restaurant", "short_name": "Seafood", "plural_name": "Seafood Restaurants", "icon": {"prefix": "https://ss3.4sqi.net/img/categories_v2/food/seafood_", "suffix": ".png"}}], "chains": [], "closed_bucket": "LikelyOpen", "distance": 3, "geocodes": {"main": {"latitude": 55.817388, "longitude": -4.262555}, "roof": {"latitude": 55.817388, "longitude": -4.262555}}, "link": "/v3/places/4dfa38ae2271faf21feed4a5", "location": {"address": "243 Newlands Rd", "admin_region": "Scotland", "country": "GB", "cross_street": "", "formatted_address": "243 Newlands Rd, Glasgow, G44 4EJ", "locality": "Glasgow", "post_town": "Glasgow", "postcode": "G44 4EJ"}, "name": "White Cart Chippy", "related_places": {}, "timezone": "Europe/London"}, {"fsq_id": "4ee8e23061afa438e1cbcf3d", "categories": [{"id": 13003, "name": "Bar", "short_name": "Bar", "plural_name": "Bars", "icon": {"prefix": "https://ss3.4sqi.net/img/categories_v2/nightlife/pub_", "suffix": ".png"}}], "chains": [], "closed_bucket": "VeryLikelyOpen", "distance": 29, "geocodes": {"main": {"latitude": 55.817394, "longitude": -4.26245}, "roof": {"latitude": 55.817394, "longitude": -4.26245}}, "link": "/v3/places/4ee8e23061afa438e1cbcf3d", "location": {"country": "GB", "cross_street": "", "formatted_address": "Glasgow, Glasgow City", "locality": "Glasgow", "post_town": "Glasgow", "region": "Glasgow City"}, "name": "Beechings", "related_places": {}, "timezone": "Europe/London"}, {"fsq_id": "61e87190d6acc324e46b6f85", "categories": [{"id": 13065, "name": "Restaurant", "short_name": "Restaurant", "plural_name": "Restaurants", "icon": {"prefix": "https://ss3.4sqi.net/img/categories_v2/food/default_", "suffix": ".png"}}], "chains": [], "closed_bucket": "Unsure", "distance": 80, "geocodes": {"main": {"latitude": 55.817758, "longitude": -4.261621}, "roof": {"latitude": 55.817758, "longitude": -4.261621}}, "link": "/v3/places/61e87190d6acc324e46b6f85", "location": {"address": "3 Clarkston Rd", "admin_region": "Scotland", "country": "GB", "cross_street": "", "formatted_address": "3 Clarkston Rd, Glasgow, Glasgow City, G44 4EF", "locality": "Glasgow", "post_town": "Glasgow", "postcode": "G44 4EF", "region": "Glasgow City"}, "name": "Velvet Sparrow", "related_places": {}, "timezone": "Europe/London"}, {"fsq_id": "ecdce768e2fd4f8964360dab", "categories": [{"id": 13065, "name": "Restaurant", "short_name": "Restaurant", "plural_name": "Restaurants", "icon": {"prefix": "https://ss3.4sqi.net/img/categories_v2/food/default_", "suffix": ".png"}}], "chains": [], "closed_bucket": "Unsure", "distance": 86, "geocodes": {"main": {"latitude": 55.817812, "longitude": -4.261587}, "roof": {"latitude": 55.817812, "longitude": -4.261587}}, "link": "/v3/places/ecdce768e2fd4f8964360dab", "location": {"address": "3-5 Clarkston Rd", "admin_region": "Scotland", "country": "GB", "formatted_address": "3-5 Clarkston Rd, Glasgow, Glasgow City, G44 4EF", "locality": "Glasgow", "post_town": "Glasgow", "postcode": "G44 4EF", "region": "Glasgow City"}, "name": "The Cellar Southside", "related_places": {}, "timezone": "Europe/London"}, {"fsq_id": "4ecff3e493ad987b4c816944", "categories": [{"id": 13022, "name": "Sports Bar", "short_name": "Sports Bar", "plural_name": "Sports Bars", "icon": {"prefix": "https://ss3.4sqi.net/img/categories_v2/nightlife/sportsbar_", "suffix": ".png"}}], "chains": [], "closed_bucket": "VeryLikelyOpen", "distance": 156, "geocodes": {"main": {"latitude": 55.817396, "longitude": -4.265181}, "roof": {"latitude": 55.817396, "longitude": -4.265181}}, "link": "/v3/places/4ecff3e493ad987b4c816944", "location": {"country": "GB", "cross_street": "", "formatted_address": ""}, "name": "Cathcart Bowling Club", "related_places": {}, "timezone": "Europe/London"}, {"fsq_id": "4cb328b71168a093a3254023", "categories": [{"id": 13034, "name": "Caf\u00e9", "short_name": "Caf\u00e9", "plural_name": "Caf\u00e9s", "icon": {"prefix": "https://ss3.4sqi.net/img/categories_v2/food/cafe_", "suffix": ".png"}}, {"id": 13035, "name": "Coffee Shop", "short_name": "Coffee Shop", "plural_name": "Coffee Shops", "icon": {"prefix": "https://ss3.4sqi.net/img/categories_v2/food/coffeeshop_", "suffix": ".png"}}, {"id": 13334, "name": "Sandwich Spot", "short_name": "Sandwich Spot", "plural_name": "Sandwich Spots", "icon": {"prefix": "https://ss3.4sqi.net/img/categories_v2/food/deli_", "suffix": ".png"}}], "chains": [], "closed_bucket": "LikelyOpen", "distance": 284, "geocodes": {"drop_off": {"latitude": 55.81654, "longitude": -4.258269}, "main": {"latitude": 55.81659, "longitude": -4.258084}, "roof": {"latitude": 55.81659, "longitude": -4.258084}}, "link": "/v3/places/4cb328b71168a093a3254023", "location": {"address": "61 Old Castle Rd", "admin_region": "Scotland", "country": "GB", "cross_street": "", "formatted_address": "61 Old Castle Rd, Glasgow, Glasgow City, G44 5TG", "locality": "Glasgow", "post_town": "Glasgow", "postcode": "G44 5TG", "region": "Glasgow City"}, "name": "Cafe Castello", "related_places": {}, "timezone": "Europe/London"}, {"fsq_id": "612e75c06a92f97d4c7847e5", "categories": [{"id": 13127, "name": "Szechuan Restaurant", "short_name": "Szechuan", "plural_name": "Szechuan Restaurants", "icon": {"prefix": "https://ss3.4sqi.net/img/categories_v2/food/asian_", "suffix": ".png"}}], "chains": [], "closed_bucket": "VeryLikelyOpen", "distance": 288, "geocodes": {"drop_off": {"latitude": 55.818123, "longitude": -4.267348}, "main": {"latitude": 55.81801, "longitude": -4.267335}, "roof": {"latitude": 55.81801, "longitude": -4.267335}}, "link": "/v3/places/612e75c06a92f97d4c7847e5", "location": {"address": "134 Newlands Rd", "admin_region": "Scotland", "country": "GB", "cross_street": "", "formatted_address": "134 Newlands Rd, Glasgow, Glasgow City, G44 4ER", "locality": "Glasgow", "post_town": "Glasgow", "postcode": "G44 4ER", "region": "Glasgow City"}, "name": "The Real Wan", "related_places": {}, "timezone": "Europe/London"}, {"fsq_id": "5a103eaf6a595038628d92f1", "categories": [{"id": 13035, "name": "Coffee Shop", "short_name": "Coffee Shop", "plural_name": "Coffee Shops", "icon": {"prefix": "https://ss3.4sqi.net/img/categories_v2/food/coffeeshop_", "suffix": ".png"}}, {"id": 13336, "name": "Scandinavian Restaurant", "short_name": "Scandinavian", "plural_name": "Scandinavian Restaurants", "icon": {"prefix": "https://ss3.4sqi.net/img/categories_v2/food/scandinavian_", "suffix": ".png"}}], "chains": [], "closed_bucket": "Unsure", "distance": 292, "geocodes": {"main": {"latitude": 55.818016, "longitude": -4.26723}, "roof": {"latitude": 55.818016, "longitude": -4.26723}}, "link": "/v3/places/5a103eaf6a595038628d92f1", "location": {"address": "134 Newlands Rd", "admin_region": "Scotland", "country": "GB", "cross_street": "", "formatted_address": "134 Newlands Rd, Glasgow, Glasgow City, G44 4ER", "locality": "Glasgow", "post_town": "Glasgow", "postcode": "G44 4ER", "region": "Glasgow City"}, "name": "Fylkir of Copenhagen", "related_places": {}, "timezone": "Europe/London"}, {"fsq_id": "5638ff7a60b2753ece75b790", "categories": [{"id": 13065, "name": "Restaurant", "short_name": "Restaurant", "plural_name": "Restaurants", "icon": {"prefix": "https://ss3.4sqi.net/img/categories_v2/food/default_", "suffix": ".png"}}], "chains": [], "closed_bucket": "VeryLikelyOpen", "distance": 326, "geocodes": {"drop_off": {"latitude": 55.815893, "longitude": -4.258083}, "main": {"latitude": 55.81597, "longitude": -4.257855}, "roof": {"latitude": 55.81597, "longitude": -4.257855}}, "link": "/v3/places/5638ff7a60b2753ece75b790", "location": {"address": "73 Old Castle Rd", "admin_region": "Scotland", "country": "GB", "formatted_address": "73 Old Castle Rd, Glasgow, G44 5TG", "locality": "Glasgow", "post_town": "Glasgow", "postcode": "G44 5TG"}, "name": "American Pizza Planet", "related_places": {}, "timezone": "Europe/London"}, {"fsq_id": "19161bdfece64fbc3dd786a7", "categories": [{"id": 13034, "name": "Caf\u00e9", "short_name": "Caf\u00e9", "plural_name": "Caf\u00e9s", "icon": {"prefix": "https://ss3.4sqi.net/img/categories_v2/food/cafe_", "suffix": ".png"}}, {"id": 13145, "name": "Fast Food Restaurant", "short_name": "Fast Food", "plural_name": "Fast Food Restaurants", "icon": {"prefix": "https://ss3.4sqi.net/img/categories_v2/food/fastfood_", "suffix": ".png"}}, {"id": 13199, "name": "Indian Restaurant", "short_name": "Indian", "plural_name": "Indian Restaurants", "icon": {"prefix": "https://ss3.4sqi.net/img/categories_v2/food/indian_", "suffix": ".png"}}], "chains": [], "closed_bucket": "VeryLikelyOpen", "distance": 409, "geocodes": {"main": {"latitude": 55.814228, "longitude": -4.266204}, "roof": {"latitude": 55.814228, "longitude": -4.266204}}, "link": "/v3/places/19161bdfece64fbc3dd786a7", "location": {"address": "185 Clarkston Rd", "admin_region": "Scotland", "country": "GB", "formatted_address": "185 Clarkston Rd, Glasgow, G44 3BS", "locality": "Glasgow", "post_town": "Glasgow", "postcode": "G44 3BS"}, "name": "Real Madras", "related_places": {}, "timezone": "Europe/London"}, {"fsq_id": "16468cfc4fda4695ae633a92", "categories": [{"id": 13145, "name": "Fast Food Restaurant", "short_name": "Fast Food", "plural_name": "Fast Food Restaurants", "icon": {"prefix": "https://ss3.4sqi.net/img/categories_v2/food/fastfood_", "suffix": ".png"}}], "chains": [], "closed_bucket": "VeryLikelyOpen", "distance": 409, "geocodes": {"main": {"latitude": 55.814228, "longitude": -4.266204}, "roof": {"latitude": 55.814228, "longitude": -4.266204}}, "link": "/v3/places/16468cfc4fda4695ae633a92", "location": {"address": "185 Clarkston Rd", "admin_region": "Scotland", "country": "GB", "formatted_address": "185 Clarkston Rd, Glasgow, Glasgow City, G44 3BS", "locality": "Glasgow", "post_town": "Glasgow", "postcode": "G44 3BS", "region": "Glasgow City"}, "name": "Glasgow Grill", "related_places": {}, "timezone": "Europe/London"}, {"fsq_id": "b361a8fb0d9748fc09049d43", "categories": [{"id": 13199, "name": "Indian Restaurant", "short_name": "Indian", "plural_name": "Indian Restaurants", "icon": {"prefix": "https://ss3.4sqi.net/img/categories_v2/food/indian_", "suffix": ".png"}}], "chains": [], "closed_bucket": "LikelyOpen", "distance": 449, "geocodes": {"main": {"latitude": 55.814216, "longitude": -4.258117}, "roof": {"latitude": 55.814216, "longitude": -4.258117}}, "link": "/v3/places/b361a8fb0d9748fc09049d43", "location": {"address": "123 Old Castle Rd", "admin_region": "Scotland", "country": "GB", "formatted_address": "123 Old Castle Rd, Glasgow, G44 5TJ", "locality": "Glasgow", "post_town": "Glasgow", "postcode": "G44 5TJ"}, "name": "The Master Moti Mahal", "related_places": {}, "timezone": "Europe/London"}, {"fsq_id": "5018f77de4b06fb71b57fa90", "categories": [{"id": 13034, "name": "Caf\u00e9", "short_name": "Caf\u00e9", "plural_name": "Caf\u00e9s", "icon": {"prefix": "https://ss3.4sqi.net/img/categories_v2/food/cafe_", "suffix": ".png"}}, {"id": 13065, "name": "Restaurant", "short_name": "Restaurant", "plural_name": "Restaurants", "icon": {"prefix": "https://ss3.4sqi.net/img/categories_v2/food/default_", "suffix": ".png"}}], "chains": [], "closed_bucket": "VeryLikelyOpen", "distance": 533, "geocodes": {"main": {"latitude": 55.822256, "longitude": -4.261302}, "roof": {"latitude": 55.822256, "longitude": -4.261302}}, "link": "/v3/places/5018f77de4b06fb71b57fa90", "location": {"address": "172 Holmlea Rd", "admin_region": "Scotland", "country": "GB", "cross_street": "", "formatted_address": "172 Holmlea Rd, Glasgow, G44 4BA", "locality": "Glasgow", "post_town": "Glasgow", "postcode": "G44 4BA"}, "name": "Cafe Royale", "related_places": {}, "timezone": "Europe/London"}, {"fsq_id": "5287ccc2498e7691a8f4c68b", "categories": [{"id": 13018, "name": "Pub", "short_name": "Pub", "plural_name": "Pubs", "icon": {"prefix": "https://ss3.4sqi.net/img/categories_v2/nightlife/pub_", "suffix": ".png"}}], "chains": [], "closed_bucket": "VeryLikelyOpen", "distance": 556, "geocodes": {"main": {"latitude": 55.813701, "longitude": -4.268954}, "roof": {"latitude": 55.813701, "longitude": -4.268954}}, "link": "/v3/places/5287ccc2498e7691a8f4c68b", "location": {"country": "GB", "cross_street": "", "formatted_address": ""}, "name": "The White Elephant", "related_places": {}, "timezone": "Europe/London"}, {"fsq_id": "4d84f14d8de9721e56133c51", "categories": [{"id": 13199, "name": "Indian Restaurant", "short_name": "Indian", "plural_name": "Indian Restaurants", "icon": {"prefix": "https://ss3.4sqi.net/img/categories_v2/food/indian_", "suffix": ".png"}}], "chains": [], "closed_bucket": "LikelyOpen", "distance": 707, "geocodes": {"main": {"latitude": 55.812141, "longitude": -4.269502}, "roof": {"latitude": 55.812141, "longitude": -4.269502}}, "link": "/v3/places/4d84f14d8de9721e56133c51", "location": {"address": "268 Clarkston Rd", "admin_region": "Scotland", "country": "GB", "cross_street": "", "formatted_address": "268 Clarkston Rd, Glasgow, G44 3EA", "locality": "Glasgow", "post_town": "Glasgow", "postcode": "G44 3EA"}, "name": "Ashoka Southside", "related_places": {}, "timezone": "Europe/London"}, {"fsq_id": "4c76b8d3f247370434d363eb", "categories": [{"id": 13003, "name": "Bar", "short_name": "Bar", "plural_name": "Bars", "icon": {"prefix": "https://ss3.4sqi.net/img/categories_v2/nightlife/pub_", "suffix": ".png"}}], "chains": [], "closed_bucket": "LikelyOpen", "distance": 804, "geocodes": {"main": {"latitude": 55.824343, "longitude": -4.259825}, "roof": {"latitude": 55.824343, "longitude": -4.259825}}, "link": "/v3/places/4c76b8d3f247370434d363eb", "location": {"address": "318 Battlefield Rd", "admin_region": "Scotland", "country": "GB", "cross_street": "", "formatted_address": "318 Battlefield Rd, Glasgow, G42 9JD", "locality": "Glasgow", "post_town": "Glasgow", "postcode": "G42 9JD"}, "name": "The Florida Park", "related_places": {}, "timezone": "Europe/London"}, {"fsq_id": "4dbc1c090cb691071c99db56", "categories": [{"id": 13099, "name": "Chinese Restaurant", "short_name": "Chinese", "plural_name": "Chinese Restaurants", "icon": {"prefix": "https://ss3.4sqi.net/img/categories_v2/food/asian_", "suffix": ".png"}}, {"id": 13145, "name": "Fast Food Restaurant", "short_name": "Fast Food", "plural_name": "Fast Food Restaurants", "icon": {"prefix": "https://ss3.4sqi.net/img/categories_v2/food/fastfood_", "suffix": ".png"}}], "chains": [], "closed_bucket": "Unsure", "distance": 834, "geocodes": {"main": {"latitude": 55.817882, "longitude": -4.249301}, "roof": {"latitude": 55.817882, "longitude": -4.249301}}, "link": "/v3/places/4dbc1c090cb691071c99db56", "location": {"address": "1115 Aikenhead Rd", "admin_region": "Scotland", "country": "GB", "cross_street": "", "formatted_address": "1115 Aikenhead Rd, Glasgow, Glasgow City, G44 5SL", "locality": "Glasgow", "post_town": "Glasgow", "postcode": "G44 5SL", "region": "Glasgow City"}, "name": "Wing Wah", "related_places": {}, "timezone": "Europe/London"}, {"fsq_id": "53124e1911d2ef03eecedb37", "categories": [{"id": 13145, "name": "Fast Food Restaurant", "short_name": "Fast Food", "plural_name": "Fast Food Restaurants", "icon": {"prefix": "https://ss3.4sqi.net/img/categories_v2/food/fastfood_", "suffix": ".png"}}, {"id": 13199, "name": "Indian Restaurant", "short_name": "Indian", "plural_name": "Indian Restaurants", "icon": {"prefix": "https://ss3.4sqi.net/img/categories_v2/food/indian_", "suffix": ".png"}}], "chains": [], "closed_bucket": "Unsure", "distance": 841, "geocodes": {"main": {"latitude": 55.817882, "longitude": -4.249301}, "roof": {"latitude": 55.817882, "longitude": -4.249301}}, "link": "/v3/places/53124e1911d2ef03eecedb37", "location": {"address": "1117 Aikenhead Rd", "admin_region": "Scotland", "country": "GB", "cross_street": "", "formatted_address": "1117 Aikenhead Rd, Glasgow, Glasgow City, G44 5SL", "locality": "Glasgow", "post_town": "Glasgow", "postcode": "G44 5SL", "region": "Glasgow City"}, "name": "Natural Spice Fast Foods", "related_places": {}, "timezone": "Europe/London"}, {"fsq_id": "51939472498e6951c3cb9485", "categories": [{"id": 10045, "name": "Pool Hall", "short_name": "Billiards", "plural_name": "Pool Halls", "icon": {"prefix": "https://ss3.4sqi.net/img/categories_v2/arts_entertainment/billiards_", "suffix": ".png"}}, {"id": 13022, "name": "Sports Bar", "short_name": "Sports Bar", "plural_name": "Sports Bars", "icon": {"prefix": "https://ss3.4sqi.net/img/categories_v2/nightlife/sportsbar_", "suffix": ".png"}}], "chains": [], "closed_bucket": "Unsure", "distance": 854, "geocodes": {"main": {"latitude": 55.824621, "longitude": -4.267853}, "roof": {"latitude": 55.824621, "longitude": -4.267853}}, "link": "/v3/places/51939472498e6951c3cb9485", "location": {"address": "130 Ledard Rd", "admin_region": "Scotland", "country": "GB", "cross_street": "", "formatted_address": "130 Ledard Rd, Glasgow, G42 9RA", "locality": "Glasgow", "post_town": "Glasgow", "postcode": "G42 9RA"}, "name": "The Ball Room", "related_places": {}, "timezone": "Europe/London"}, {"fsq_id": "58680f5d7b43b43605889c8d", "categories": [{"id": 13099, "name": "Chinese Restaurant", "short_name": "Chinese", "plural_name": "Chinese Restaurants", "icon": {"prefix": "https://ss3.4sqi.net/img/categories_v2/food/asian_", "suffix": ".png"}}], "chains": [], "closed_bucket": "VeryLikelyOpen", "distance": 895, "geocodes": {"drop_off": {"latitude": 55.825292, "longitude": -4.263038}, "main": {"latitude": 55.825158, "longitude": -4.263072}, "roof": {"latitude": 55.825158, "longitude": -4.263072}}, "link": "/v3/places/58680f5d7b43b43605889c8d", "location": {"address": "224-226 Battlefield Rd", "admin_region": "Scotland", "country": "GB", "cross_street": "", "formatted_address": "224-226 Battlefield Rd, Glasgow", "locality": "Glasgow", "post_town": "Glasgow"}, "name": "Honeymoon", "related_places": {}, "timezone": "Europe/London"}, {"fsq_id": "5ee60c788ad9840008889362", "categories": [{"id": 13035, "name": "Coffee Shop", "short_name": "Coffee Shop", "plural_name": "Coffee Shops", "icon": {"prefix": "https://ss3.4sqi.net/img/categories_v2/food/coffeeshop_", "suffix": ".png"}}, {"id": 13065, "name": "Restaurant", "short_name": "Restaurant", "plural_name": "Restaurants", "icon": {"prefix": "https://ss3.4sqi.net/img/categories_v2/food/default_", "suffix": ".png"}}], "chains": [], "closed_bucket": "LikelyOpen", "distance": 896, "geocodes": {"main": {"latitude": 55.810563, "longitude": -4.270364}, "roof": {"latitude": 55.810563, "longitude": -4.270364}}, "link": "/v3/places/5ee60c788ad9840008889362", "location": {"address": "421 Clarkston Rd", "admin_region": "Scotland", "country": "GB", "cross_street": "", "formatted_address": "421 Clarkston Rd, Glasgow, Glasgow City, G44 3LL", "locality": "Glasgow", "post_town": "Glasgow", "postcode": "G44 3LL", "region": "Glasgow City"}, "name": "The E Street Cafe", "related_places": {}, "timezone": "Europe/London"}, {"fsq_id": "60b3a51315095275b53785d1", "categories": [{"id": 13040, "name": "Dessert Shop", "short_name": "Desserts", "plural_name": "Dessert Shops", "icon": {"prefix": "https://ss3.4sqi.net/img/categories_v2/food/dessert_", "suffix": ".png"}}, {"id": 13065, "name": "Restaurant", "short_name": "Restaurant", "plural_name": "Restaurants", "icon": {"prefix": "https://ss3.4sqi.net/img/categories_v2/food/default_", "suffix": ".png"}}], "chains": [], "closed_bucket": "VeryLikelyOpen", "distance": 898, "geocodes": {"drop_off": {"latitude": 55.825632, "longitude": -4.264023}, "main": {"latitude": 55.825469, "longitude": -4.264096}, "roof": {"latitude": 55.825469, "longitude": -4.264096}}, "link": "/v3/places/60b3a51315095275b53785d1", "location": {"address": "192-194 Battlefield Rd", "admin_region": "Scotland", "country": "GB", "cross_street": "", "formatted_address": "192-194 Battlefield Rd, Glasgow, G42 9HN", "locality": "Glasgow", "post_town": "Glasgow", "postcode": "G42 9HN"}, "name": "Pure Munchied", "related_places": {}, "timezone": "Europe/London"}, {"fsq_id": "8f12beccb76340b1604a9d3c", "categories": [{"id": 13236, "name": "Italian Restaurant", "short_name": "Italian", "plural_name": "Italian Restaurants", "icon": {"prefix": "https://ss3.4sqi.net/img/categories_v2/food/italian_", "suffix": ".png"}}], "chains": [], "closed_bucket": "VeryLikelyOpen", "distance": 907, "geocodes": {"main": {"latitude": 55.825451, "longitude": -4.264411}, "roof": {"latitude": 55.825451, "longitude": -4.264411}}, "link": "/v3/places/8f12beccb76340b1604a9d3c", "location": {"address": "9 Lochleven Rd", "admin_region": "Scotland", "country": "GB", "formatted_address": "9 Lochleven Rd, Glasgow, G42 9JU", "locality": "Glasgow", "post_town": "Glasgow", "postcode": "G42 9JU"}, "name": "Trevi", "related_places": {}, "timezone": "Europe/London"}, {"fsq_id": "6151ef46c34ad50db6d92f73", "categories": [{"id": 13040, "name": "Dessert Shop", "short_name": "Desserts", "plural_name": "Dessert Shops", "icon": {"prefix": "https://ss3.4sqi.net/img/categories_v2/food/dessert_", "suffix": ".png"}}, {"id": 13065, "name": "Restaurant", "short_name": "Restaurant", "plural_name": "Restaurants", "icon": {"prefix": "https://ss3.4sqi.net/img/categories_v2/food/default_", "suffix": ".png"}}], "chains": [], "closed_bucket": "VeryLikelyOpen", "distance": 911, "geocodes": {"drop_off": {"latitude": 55.825667, "longitude": -4.264101}, "main": {"latitude": 55.825517, "longitude": -4.264168}, "roof": {"latitude": 55.825517, "longitude": -4.264168}}, "link": "/v3/places/6151ef46c34ad50db6d92f73", "location": {"address": "194 Battlefield Rd", "admin_region": "Scotland", "country": "GB", "cross_street": "Lochleven Street", "formatted_address": "194 Battlefield Rd (Lochleven Street), Glasgow, Glasgow City, G42 9HN", "locality": "Glasgow", "post_town": "Glasgow", "postcode": "G42 9HN", "region": "Glasgow City"}, "name": "Guilty", "related_places": {}, "timezone": "Europe/London"}, {"fsq_id": "4decae94b0fb8293f80c752a", "categories": [{"id": 13049, "name": "Diner", "short_name": "Diner", "plural_name": "Diners", "icon": {"prefix": "https://ss3.4sqi.net/img/categories_v2/food/diner_", "suffix": ".png"}}], "chains": [], "closed_bucket": "LikelyOpen", "distance": 914, "geocodes": {"drop_off": {"latitude": 55.825061, "longitude": -4.257016}, "main": {"latitude": 55.825093, "longitude": -4.256837}, "roof": {"latitude": 55.825093, "longitude": -4.256837}}, "link": "/v3/places/4decae94b0fb8293f80c752a", "location": {"address": "19 Carmunnock Rd", "admin_region": "Scotland", "country": "GB", "cross_street": "", "formatted_address": "19 Carmunnock Rd, Glasgow, Glasgow City", "locality": "Glasgow", "post_town": "Glasgow", "region": "Glasgow City"}, "name": "Cafe Amalfi", "related_places": {}, "timezone": "Europe/London"}, {"fsq_id": "4daf5b3efa8c123fa7ecba58", "categories": [{"id": 13145, "name": "Fast Food Restaurant", "short_name": "Fast Food", "plural_name": "Fast Food Restaurants", "icon": {"prefix": "https://ss3.4sqi.net/img/categories_v2/food/fastfood_", "suffix": ".png"}}, {"id": 13199, "name": "Indian Restaurant", "short_name": "Indian", "plural_name": "Indian Restaurants", "icon": {"prefix": "https://ss3.4sqi.net/img/categories_v2/food/indian_", "suffix": ".png"}}], "chains": [], "closed_bucket": "VeryLikelyOpen", "distance": 917, "geocodes": {"main": {"latitude": 55.825154, "longitude": -4.257609}, "roof": {"latitude": 55.825154, "longitude": -4.257609}}, "link": "/v3/places/4daf5b3efa8c123fa7ecba58", "location": {"address": "1154 Cathcart Rd", "admin_region": "Scotland", "country": "GB", "cross_street": "", "formatted_address": "1154 Cathcart Rd, Glasgow, Glasgow City, G42 9EG", "locality": "Glasgow", "post_town": "Glasgow", "postcode": "G42 9EG", "region": "Glasgow City"}, "name": "Lassani Tandoori Halal", "related_places": {}, "timezone": "Europe/London"}, {"fsq_id": "5ffa1ff883f8904fe590fac1", "categories": [{"id": 13035, "name": "Coffee Shop", "short_name": "Coffee Shop", "plural_name": "Coffee Shops", "icon": {"prefix": "https://ss3.4sqi.net/img/categories_v2/food/coffeeshop_", "suffix": ".png"}}, {"id": 13065, "name": "Restaurant", "short_name": "Restaurant", "plural_name": "Restaurants", "icon": {"prefix": "https://ss3.4sqi.net/img/categories_v2/food/default_", "suffix": ".png"}}], "chains": [], "closed_bucket": "LikelyOpen", "distance": 932, "geocodes": {"drop_off": {"latitude": 55.825002, "longitude": -4.257006}, "main": {"latitude": 55.825044, "longitude": -4.256765}, "roof": {"latitude": 55.825044, "longitude": -4.256765}}, "link": "/v3/places/5ffa1ff883f8904fe590fac1", "location": {"address": "25 Carmunnock Rd", "admin_region": "Scotland", "country": "GB", "cross_street": "", "formatted_address": "25 Carmunnock Rd, Glasgow, Glasgow City, G44 4TZ", "locality": "Glasgow", "post_town": "Glasgow", "postcode": "G44 4TZ", "region": "Glasgow City"}, "name": "Honey & Salt", "related_places": {}, "timezone": "Europe/London"}, {"fsq_id": "61222929076ec67cbd687f38", "categories": [{"id": 13035, "name": "Coffee Shop", "short_name": "Coffee Shop", "plural_name": "Coffee Shops", "icon": {"prefix": "https://ss3.4sqi.net/img/categories_v2/food/coffeeshop_", "suffix": ".png"}}, {"id": 13065, "name": "Restaurant", "short_name": "Restaurant", "plural_name": "Restaurants", "icon": {"prefix": "https://ss3.4sqi.net/img/categories_v2/food/default_", "suffix": ".png"}}], "chains": [], "closed_bucket": "Unsure", "distance": 934, "geocodes": {"main": {"latitude": 55.82576, "longitude": -4.264526}, "roof": {"latitude": 55.82576, "longitude": -4.264526}}, "link": "/v3/places/61222929076ec67cbd687f38", "location": {"address": "186 Battlefield Rd", "admin_region": "Scotland", "country": "GB", "cross_street": "", "formatted_address": "186 Battlefield Rd, Glasgow, Glasgow City, G42 9JT", "locality": "Glasgow", "post_town": "Glasgow", "postcode": "G42 9JT", "region": "Glasgow City"}, "name": "Common Ground", "related_places": {}, "timezone": "Europe/London"}, {"fsq_id": "55165a8a498e8ce4f855fca0", "categories": [{"id": 10032, "name": "Night Club", "short_name": "Night Club", "plural_name": "Night Clubs", "icon": {"prefix": "https://ss3.4sqi.net/img/categories_v2/nightlife/nightclub_", "suffix": ".png"}}, {"id": 13003, "name": "Bar", "short_name": "Bar", "plural_name": "Bars", "icon": {"prefix": "https://ss3.4sqi.net/img/categories_v2/nightlife/pub_", "suffix": ".png"}}], "chains": [], "closed_bucket": "LikelyOpen", "distance": 940, "geocodes": {"drop_off": {"latitude": 55.810175, "longitude": -4.270764}, "front_door": {"latitude": 55.810155, "longitude": -4.270774}, "main": {"latitude": 55.810155, "longitude": -4.270774}, "roof": {"latitude": 55.810175, "longitude": -4.270702}}, "link": "/v3/places/55165a8a498e8ce4f855fca0", "location": {"address": "443 Clarkston Rd", "admin_region": "Scotland", "country": "GB", "formatted_address": "443 Clarkston Rd, Glasgow, Glasgow City, G44 3LL", "locality": "Glasgow", "post_town": "Glasgow", "postcode": "G44 3LL", "region": "Glasgow City"}, "name": "The Bank Cafe Bar", "related_places": {}, "timezone": "Europe/London"}, {"fsq_id": "3b49014687214d4ddc096726", "categories": [{"id": 13006, "name": "Beer Bar", "short_name": "Beer Bar", "plural_name": "Beer Bars", "icon": {"prefix": "https://ss3.4sqi.net/img/categories_v2/nightlife/pub_", "suffix": ".png"}}, {"id": 13065, "name": "Restaurant", "short_name": "Restaurant", "plural_name": "Restaurants", "icon": {"prefix": "https://ss3.4sqi.net/img/categories_v2/food/default_", "suffix": ".png"}}], "chains": [], "closed_bucket": "VeryLikelyOpen", "distance": 940, "geocodes": {"drop_off": {"latitude": 55.810267, "longitude": -4.270831}, "main": {"latitude": 55.810175, "longitude": -4.270702}, "roof": {"latitude": 55.810175, "longitude": -4.270702}}, "link": "/v3/places/3b49014687214d4ddc096726", "location": {"address": "443 Clarkston Rd", "admin_region": "Scotland", "country": "GB", "formatted_address": "443 Clarkston Rd, Glasgow, Glasgow City, G44 3LL", "locality": "Glasgow", "post_town": "Glasgow", "postcode": "G44 3LL", "region": "Glasgow City"}, "name": "The Bank Cafe Bar Glasgow", "related_places": {}, "timezone": "Europe/London"}, {"fsq_id": "4f7dffd6e4b0d0d3d0b78575", "categories": [{"id": 13099, "name": "Chinese Restaurant", "short_name": "Chinese", "plural_name": "Chinese Restaurants", "icon": {"prefix": "https://ss3.4sqi.net/img/categories_v2/food/asian_", "suffix": ".png"}}, {"id": 13145, "name": "Fast Food Restaurant", "short_name": "Fast Food", "plural_name": "Fast Food Restaurants", "icon": {"prefix": "https://ss3.4sqi.net/img/categories_v2/food/fastfood_", "suffix": ".png"}}], "chains": [], "closed_bucket": "VeryLikelyOpen", "distance": 944, "geocodes": {"main": {"latitude": 55.825657, "longitude": -4.264487}, "roof": {"latitude": 55.825657, "longitude": -4.264487}}, "link": "/v3/places/4f7dffd6e4b0d0d3d0b78575", "location": {"address": "5 Lochleven Rd", "admin_region": "Scotland", "country": "GB", "cross_street": "", "formatted_address": "5 Lochleven Rd, Glasgow, G42 9JU", "locality": "Glasgow", "post_town": "Glasgow", "postcode": "G42 9JU"}, "name": "Golden Dragon", "related_places": {}, "timezone": "Europe/London"}, {"fsq_id": "5188f63b498eaddd9d66aeef", "categories": [{"id": 13039, "name": "Deli", "short_name": "Deli", "plural_name": "Delis", "icon": {"prefix": "https://ss3.4sqi.net/img/categories_v2/food/deli_", "suffix": ".png"}}], "chains": [], "closed_bucket": "VeryLikelyOpen", "distance": 972, "geocodes": {"main": {"latitude": 55.825299, "longitude": -4.256913}, "roof": {"latitude": 55.825299, "longitude": -4.256913}}, "link": "/v3/places/5188f63b498eaddd9d66aeef", "location": {"address": "1 Carmunnock Rd", "admin_region": "Scotland", "country": "GB", "cross_street": "", "formatted_address": "1 Carmunnock Rd, Glasgow, G44 4TZ", "locality": "Glasgow", "post_town": "Glasgow", "postcode": "G44 4TZ"}, "name": "Arturos Deli", "related_places": {}, "timezone": "Europe/London"}, {"fsq_id": "49ef00967e96454e21ed9234", "categories": [{"id": 13003, "name": "Bar", "short_name": "Bar", "plural_name": "Bars", "icon": {"prefix": "https://ss3.4sqi.net/img/categories_v2/nightlife/pub_", "suffix": ".png"}}], "chains": [], "closed_bucket": "LikelyOpen", "distance": 990, "geocodes": {"main": {"latitude": 55.826149, "longitude": -4.265098}, "roof": {"latitude": 55.826149, "longitude": -4.265098}}, "link": "/v3/places/49ef00967e96454e21ed9234", "location": {"address": "160-162 Battlefield Rd", "admin_region": "Scotland", "country": "GB", "formatted_address": "160-162 Battlefield Rd, Glasgow, G42 9JT", "locality": "Glasgow", "post_town": "Glasgow", "postcode": "G42 9JT"}, "name": "The Mission Bar", "related_places": {}, "timezone": "Europe/London"}, {"fsq_id": "8f041b9cdcc646e6b0864769", "categories": [{"id": 13051, "name": "Fish and Chips Shop", "short_name": "Fish and Chips Shop", "plural_name": "Fish and Chips Shops", "icon": {"prefix": "https://ss3.4sqi.net/img/categories_v2/food/fishandchips_", "suffix": ".png"}}, {"id": 13145, "name": "Fast Food Restaurant", "short_name": "Fast Food", "plural_name": "Fast Food Restaurants", "icon": {"prefix": "https://ss3.4sqi.net/img/categories_v2/food/fastfood_", "suffix": ".png"}}], "chains": [], "closed_bucket": "Unsure", "distance": 990, "geocodes": {"main": {"latitude": 55.826149, "longitude": -4.265098}, "roof": {"latitude": 55.826149, "longitude": -4.265098}}, "link": "/v3/places/8f041b9cdcc646e6b0864769", "location": {"address": "118 Battlefield Rd", "admin_region": "Scotland", "country": "GB", "formatted_address": "118 Battlefield Rd, Glasgow, G42 9JT", "locality": "Glasgow", "post_town": "Glasgow", "postcode": "G42 9JT"}, "name": "Mr V's Fast Food", "related_places": {}, "timezone": "Europe/London"}, {"fsq_id": "5aa2d6046c08d133ac75c700", "categories": [{"id": 13025, "name": "Wine Bar", "short_name": "Wine Bar", "plural_name": "Wine Bars", "icon": {"prefix": "https://ss3.4sqi.net/img/categories_v2/food/winery_", "suffix": ".png"}}, {"id": 13031, "name": "Burger Joint", "short_name": "Burgers", "plural_name": "Burger Joints", "icon": {"prefix": "https://ss3.4sqi.net/img/categories_v2/food/burger_", "suffix": ".png"}}, {"id": 13068, "name": "American Restaurant", "short_name": "American", "plural_name": "American Restaurants", "icon": {"prefix": "https://ss3.4sqi.net/img/categories_v2/food/default_", "suffix": ".png"}}], "chains": [], "closed_bucket": "VeryLikelyOpen", "distance": 1002, "geocodes": {"drop_off": {"latitude": 55.826111, "longitude": -4.257507}, "main": {"latitude": 55.825883, "longitude": -4.257771}, "roof": {"latitude": 55.825883, "longitude": -4.257771}}, "link": "/v3/places/5aa2d6046c08d133ac75c700", "location": {"address": "1102 Cathcart Rd", "admin_region": "Scotland", "country": "GB", "cross_street": "", "formatted_address": "1102 Cathcart Rd, Glasgow, Glasgow City, G42 9EG", "locality": "Glasgow", "post_town": "Glasgow", "postcode": "G42 9EG", "region": "Glasgow City"}, "name": "Hoagies", "related_places": {}, "timezone": "Europe/London"}, {"fsq_id": "6d7ac74e2ef846fdd68512c1", "categories": [{"id": 13003, "name": "Bar", "short_name": "Bar", "plural_name": "Bars", "icon": {"prefix": "https://ss3.4sqi.net/img/categories_v2/nightlife/pub_", "suffix": ".png"}}], "chains": [], "closed_bucket": "Unsure", "distance": 48, "geocodes": {"main": {"latitude": 55.816903, "longitude": -4.26275}, "roof": {"latitude": 55.816903, "longitude": -4.26275}}, "link": "/v3/places/6d7ac74e2ef846fdd68512c1", "location": {"address": "34 Clarkston Rd", "admin_region": "Scotland", "country": "GB", "formatted_address": "34 Clarkston Rd, Glasgow, G44 3QH", "locality": "Glasgow", "post_town": "Glasgow", "postcode": "G44 3QH"}, "name": "Beechings Public House", "related_places": {}}, {"fsq_id": "b7db5cf0a4a146d65e48b398", "categories": [{"id": 11076, "name": "Home Improvement Service", "short_name": "Home Improvement Service", "plural_name": "Home Improvement Services", "icon": {"prefix": "https://ss3.4sqi.net/img/categories_v2/shops/hardware_", "suffix": ".png"}}, {"id": 13046, "name": "Ice Cream Parlor", "short_name": "Ice Cream", "plural_name": "Ice Cream Parlors", "icon": {"prefix": "https://ss3.4sqi.net/img/categories_v2/food/icecream_", "suffix": ".png"}}, {"id": 13065, "name": "Restaurant", "short_name": "Restaurant", "plural_name": "Restaurants", "icon": {"prefix": "https://ss3.4sqi.net/img/categories_v2/food/default_", "suffix": ".png"}}, {"id": 17082, "name": "Furniture and Home Store", "short_name": "Furniture and Home Store", "plural_name": "Furniture and Home Stores", "icon": {"prefix": "https://ss3.4sqi.net/img/categories_v2/shops/furniture_", "suffix": ".png"}}], "chains": [], "closed_bucket": "LikelyOpen", "distance": 992, "geocodes": {"drop_off": {"latitude": 55.826012, "longitude": -4.257979}, "main": {"latitude": 55.825871, "longitude": -4.257981}, "roof": {"latitude": 55.825871, "longitude": -4.257981}}, "link": "/v3/places/b7db5cf0a4a146d65e48b398", "location": {"address": "7 Bolton Dr", "admin_region": "Scotland", "country": "GB", "formatted_address": "7 Bolton Dr, Glasgow, G42 9DX", "locality": "Glasgow", "post_town": "Glasgow", "postcode": "G42 9DX"}, "name": "Mount Florida Scoopalicious", "related_places": {}}], "context": {"geo_bounds": {"circle": {"center": {"latitude": 55.817338, "longitude": -4.262688}, "radius": 1000}}}}