{"results": [{"fsq_id": "4bcb2e8e511f952190e1b0c7", "categories": [{"id": 10000, "name": "Arts and Entertainment", "short_name": "Arts & Entertainment", "plural_name": "Arts and Entertainment", "icon": {"prefix": "https://ss3.4sqi.net/img/categories_v2/arts_entertainment/default_", "suffix": ".png"}}, {"id": 13018, "name": "Pub", "short_name": "Pub", "plural_name": "Pubs", "icon": {"prefix": "https://ss3.4sqi.net/img/categories_v2/nightlife/pub_", "suffix": ".png"}}, {"id": 13022, "name": "Sports Bar", "short_name": "Sports Bar", "plural_name": "Sports Bars", "icon": {"prefix": "https://ss3.4sqi.net/img/categories_v2/nightlife/sportsbar_", "suffix": ".png"}}], "chains": [], "closed_bucket": "Unsure", "distance": 737, "geocodes": {"main": {"latitude": 55.836841, "longitude": -4.269802}, "roof": {"latitude": 55.836841, "longitude": -4.269802}}, "link": "/v3/places/4bcb2e8e511f952190e1b0c7", "location": {"address": "720 Pollokshaws Rd", "admin_region": "Scotland", "country": "GB", "formatted_address": "720 Pollokshaws Rd, Glasgow, Glasgow City, G41 2AD", "locality": "Glasgow", "post_town": "Glasgow", "postcode": "G41 2AD", "region": "Glasgow City"}, "name": "Allison Arms", "related_places": {}, "timezone": "Europe/London"}, {"fsq_id": "4bfcc91c4cf820a1e390ebf4", "categories": [{"id": 13236, "name": "Italian Restaurant", "short_name": "Italian", "plural_name": "Italian Restaurants", "icon": {"prefix": "https://ss3.4sqi.net/img/categories_v2/food/italian_", "suffix": ".png"}}], "chains": [], "closed_bucket": "LikelyOpen", "distance": 905, "geocodes": {"main": {"latitude": 55.827133, "longitude": -4.266318}, "roof": {"latitude": 55.827133, "longitude": -4.266318}}, "link": "/v3/places/4bfcc91c4cf820a1e390ebf4", "location": {"address": "55 Battlefield Rd", "admin_region": "Scotland", "country": "GB", "formatted_address": "55 Battlefield Rd, Glasgow, G42 9JL", "locality": "Glasgow", "post_town": "Glasgow", "postcode": "G42 9JL"}, "name": "Battlefield Rest", "related_places": {}, "timezone": "Europe/London"}, {"fsq_id": "4b83f936f964a520191931e3", "categories": [{"id": 13236, "name": "Italian Restaurant", "short_name": "Italian", "plural_name": "Italian Restaurants", "icon": {"prefix": "https://ss3.4sqi.net/img/categories_v2/food/italian_", "suffix": ".png"}}], "chains": [], "closed_bucket": "LikelyOpen", "distance": 509, "geocodes": {"drop_off": {"latitude": 55.828575, "longitude": -4.283373}, "main": {"latitude": 55.828431, "longitude": -4.283239}, "roof": {"latitude": 55.828431, "longitude": -4.283239}}, "link": "/v3/places/4b83f936f964a520191931e3", "location": {"address": "85 Kilmarnock Rd", "admin_region": "Scotland", "country": "GB", "formatted_address": "85 Kilmarnock Rd, Glasgow, Glasgow City, G41 3YR", "locality": "Glasgow", "post_town": "Glasgow", "postcode": "G41 3YR", "region": "Glasgow City"}, "name": "Oro", "related_places": {}, "timezone": "Europe/London"}, {"fsq_id": "4ee51e01e30005f8b882bbd3", "categories": [{"id": 13003, "name": "Bar", "short_name": "Bar", "plural_name": "Bars", "icon": {"prefix": "https://ss3.4sqi.net/img/categories_v2/nightlife/pub_", "suffix": ".png"}}, {"id": 13065, "name": "Restaurant", "short_name": "Restaurant", "plural_name": "Restaurants", "icon": {"prefix": "https://ss3.4sqi.net/img/categories_v2/food/default_", "suffix": ".png"}}], "chains": [], "closed_bucket": "LikelyOpen", "distance": 670, "geocodes": {"main": {"latitude": 55.836587, "longitude": -4.271476}, "roof": {"latitude": 55.836587, "longitude": -4.271476}}, "link": "/v3/places/4ee51e01e30005f8b882bbd3", "location": {"address": "17-21 Nithsdale Rd", "admin_region": "Scotland", "country": "GB", "formatted_address": "17-21 Nithsdale Rd, Glasgow, G41 2AL", "locality": "Glasgow", "post_town": "Glasgow", "postcode": "G41 2AL"}, "name": "The Bungo", "related_places": {}, "timezone": "Europe/London"}, {"fsq_id": "5af6b5d1c876c8002cdb8a28", "categories": [{"id": 13035, "name": "Coffee Shop", "short_name": "Coffee Shop", "plural_name": "Coffee Shops", "icon": {"prefix": "https://ss3.4sqi.net/img/categories_v2/food/coffeeshop_", "suffix": ".png"}}, {"id": 13065, "name": "Restaurant", "short_name": "Restaurant", "plural_name": "Restaurants", "icon": {"prefix": "https://ss3.4sqi.net/img/categories_v2/food/default_", "suffix": ".png"}}], "chains": [], "closed_bucket": "LikelyOpen", "distance": 806, "geocodes": {"drop_off": {"latitude": 55.827276, "longitude": -4.268118}, "main": {"latitude": 55.827134, "longitude": -4.268139}, "roof": {"latitude": 55.827134, "longitude": -4.268139}}, "link": "/v3/places/5af6b5d1c876c8002cdb8a28", "location": {"address": "50 Battlefield Rd", "admin_region": "Scotland", "country": "GB", "cross_street": "", "formatted_address": "50 Battlefield Rd, Glasgow, Glasgow City, G42 9QF", "locality": "Glasgow", "post_town": "Glasgow", "postcode": "G42 9QF", "region": "Glasgow City"}, "name": "Grain and Grind", "related_places": {}, "timezone": "Europe/London"}, {"fsq_id": "54a1633e498e3242ba8466d5", "categories": [{"id": 13039, "name": "Deli", "short_name": "Deli", "plural_name": "Delis", "icon": {"prefix": "https://ss3.4sqi.net/img/categories_v2/food/deli_", "suffix": ".png"}}], "chains": [], "closed_bucket": "VeryLikelyOpen", "distance": 299, "geocodes": {"drop_off": {"latitude": 55.82981, "longitude": -4.280968}, "main": {"latitude": 55.829935, "longitude": -4.280903}, "roof": {"latitude": 55.829935, "longitude": -4.280903}}, "link": "/v3/places/54a1633e498e3242ba8466d5", "location": {"address": "11 Skirving St, Shawlands", "admin_region": "Scotland", "country": "GB", "cross_street": "", "formatted_address": "11 Skirving St, Shawlands, Glasgow, Glasgow City", "locality": "Glasgow", "post_town": "Glasgow", "region": "Glasgow City"}, "name": "Deli Zola Glasgow", "related_places": {}, "timezone": "Europe/London"}, {"fsq_id": "56e55931498e9430413d1959", "categories": [{"id": 13034, "name": "Caf\u00e9", "short_name": "Caf\u00e9", "plural_name": "Caf\u00e9s", "icon": {"prefix": "https://ss3.4sqi.net/img/categories_v2/food/cafe_", "suffix": ".png"}}, {"id": 13065, "name": "Restaurant", "short_name": "Restaurant", "plural_name": "Restaurants", "icon": {"prefix": "https://ss3.4sqi.net/img/categories_v2/food/default_", "suffix": ".png"}}], "chains": [], "closed_bucket": "VeryLikelyOpen", "distance": 181, "geocodes": {"main": {"latitude": 55.830657, "longitude": -4.28026}, "roof": {"latitude": 55.830657, "longitude": -4.28026}}, "link": "/v3/places/56e55931498e9430413d1959", "location": {"address": "1109 Pollokshaws Rd", "admin_region": "Scotland", "country": "GB", "cross_street": "", "formatted_address": "1109 Pollokshaws Rd, Glasgow, G41 3YG", "locality": "Glasgow", "post_town": "Glasgow", "postcode": "G41 3YG"}, "name": "Cafe Strange Brew", "related_places": {}, "timezone": "Europe/London"}, {"fsq_id": "5030ca70e4b047efee0958cf", "categories": [{"id": 10039, "name": "Music Venue", "short_name": "Music Venue", "plural_name": "Music Venues", "icon": {"prefix": "https://ss3.4sqi.net/img/categories_v2/arts_entertainment/musicvenue_", "suffix": ".png"}}, {"id": 13034, "name": "Caf\u00e9", "short_name": "Caf\u00e9", "plural_name": "Caf\u00e9s", "icon": {"prefix": "https://ss3.4sqi.net/img/categories_v2/food/cafe_", "suffix": ".png"}}, {"id": 13065, "name": "Restaurant", "short_name": "Restaurant", "plural_name": "Restaurants", "icon": {"prefix": "https://ss3.4sqi.net/img/categories_v2/food/default_", "suffix": ".png"}}], "chains": [], "closed_bucket": "LikelyOpen", "distance": 15, "geocodes": {"main": {"latitude": 55.832088, "longitude": -4.278273}, "roof": {"latitude": 55.832088, "longitude": -4.278273}}, "link": "/v3/places/5030ca70e4b047efee0958cf", "location": {"address": "1006a Pollokshaws Rd", "admin_region": "Scotland", "country": "GB", "formatted_address": "1006a Pollokshaws Rd, Glasgow, G41 2HG", "locality": "Glasgow", "post_town": "Glasgow", "postcode": "G41 2HG"}, "name": "The Glad Cafe", "related_places": {}, "timezone": "Europe/London"}, {"fsq_id": "54384207498e7f9326a7d50e", "categories": [{"id": 13009, "name": "Cocktail Bar", "short_name": "Cocktail", "plural_name": "Cocktail Bars", "icon": {"prefix": "https://ss3.4sqi.net/img/categories_v2/nightlife/cocktails_", "suffix": ".png"}}, {"id": 13097, "name": "Caribbean Restaurant", "short_name": "Caribbean", "plural_name": "Caribbean Restaurants", "icon": {"prefix": "https://ss3.4sqi.net/img/categories_v2/food/caribbean_", "suffix": ".png"}}], "chains": [], "closed_bucket": "LikelyOpen", "distance": 746, "geocodes": {"main": {"latitude": 55.836646, "longitude": -4.269516}, "roof": {"latitude": 55.836646, "longitude": -4.269516}}, "link": "/v3/places/54384207498e7f9326a7d50e", "location": {"address": "657-659 Pollokshaws Rd", "admin_region": "Scotland", "country": "GB", "cross_street": "", "formatted_address": "657-659 Pollokshaws Rd, Glasgow, Glasgow City, G41 2AB", "locality": "Glasgow", "post_town": "Glasgow", "postcode": "G41 2AB", "region": "Glasgow City"}, "name": "Rum Shack", "related_places": {}, "timezone": "Europe/London"}, {"fsq_id": "4c8a19302e3337048b47c041", "categories": [{"id": 13034, "name": "Caf\u00e9", "short_name": "Caf\u00e9", "plural_name": "Caf\u00e9s", "icon": {"prefix": "https://ss3.4sqi.net/img/categories_v2/food/cafe_", "suffix": ".png"}}, {"id": 13065, "name": "Restaurant", "short_name": "Restaurant", "plural_name": "Restaurants", "icon": {"prefix": "https://ss3.4sqi.net/img/categories_v2/food/default_", "suffix": ".png"}}], "chains": [], "closed_bucket": "LikelyOpen", "distance": 92, "geocodes": {"main": {"latitude": 55.831797, "longitude": -4.279665}, "roof": {"latitude": 55.831797, "longitude": -4.279665}}, "link": "/v3/places/4c8a19302e3337048b47c041", "location": {"address": "21-23 Minard Rd", "admin_region": "Scotland", "country": "GB", "cross_street": "Frankfort Street", "formatted_address": "21-23 Minard Rd (Frankfort Street), Glasgow, Glasgow City, G41 2HR", "locality": "Glasgow", "post_town": "Glasgow", "postcode": "G41 2HR", "region": "Glasgow City"}, "name": "Brooklyn Cafe", "related_places": {}, "timezone": "Europe/London"}, {"fsq_id": "59b2bda1b54618784f105664", "categories": [{"id": 13006, "name": "Beer Bar", "short_name": "Beer Bar", "plural_name": "Beer Bars", "icon": {"prefix": "https://ss3.4sqi.net/img/categories_v2/nightlife/pub_", "suffix": ".png"}}, {"id": 13025, "name": "Wine Bar", "short_name": "Wine Bar", "plural_name": "Wine Bars", "icon": {"prefix": "https://ss3.4sqi.net/img/categories_v2/food/winery_", "suffix": ".png"}}], "chains": [], "closed_bucket": "Unsure", "distance": 808, "geocodes": {"drop_off": {"latitude": 55.837179, "longitude": -4.269069}, "main": {"latitude": 55.837296, "longitude": -4.269221}, "roof": {"latitude": 55.837296, "longitude": -4.269221}}, "link": "/v3/places/59b2bda1b54618784f105664", "location": {"address": "686-688 Pollokshaws Rd", "admin_region": "Scotland", "country": "GB", "cross_street": "", "formatted_address": "686-688 Pollokshaws Rd, Glasgow, Glasgow City, G41 2QB", "locality": "Glasgow", "post_town": "Glasgow", "postcode": "G41 2QB", "region": "Glasgow City"}, "name": "Koelschip Yard", "related_places": {}, "timezone": "Europe/London"}, {"fsq_id": "4c0ba0c3ffb8c9b6667b6d61", "categories": [{"id": 13236, "name": "Italian Restaurant", "short_name": "Italian", "plural_name": "Italian Restaurants", "icon": {"prefix": "https://ss3.4sqi.net/img/categories_v2/food/italian_", "suffix": ".png"}}], "chains": [], "closed_bucket": "Unsure", "distance": 9, "geocodes": {"main": {"latitude": 55.831967, "longitude": -4.278549}, "roof": {"latitude": 55.831967, "longitude": -4.278549}}, "link": "/v3/places/4c0ba0c3ffb8c9b6667b6d61", "location": {"address": "1012 Pollokshaws Rd", "admin_region": "Scotland", "country": "GB", "formatted_address": "1012 Pollokshaws Rd, Glasgow, Glasgow City, G41 2HG", "locality": "Glasgow", "post_town": "Glasgow", "postcode": "G41 2HG", "region": "Glasgow City"}, "name": "Buongiorno", "related_places": {}, "timezone": "Europe/London"}, {"fsq_id": "4ba55019f964a5207af938e3", "categories": [{"id": 13018, "name": "Pub", "short_name": "Pub", "plural_name": "Pubs", "icon": {"prefix": "https://ss3.4sqi.net/img/categories_v2/nightlife/pub_", "suffix": ".png"}}, {"id": 13065, "name": "Restaurant", "short_name": "Restaurant", "plural_name": "Restaurants", "icon": {"prefix": "https://ss3.4sqi.net/img/categories_v2/food/default_", "suffix": ".png"}}], "chains": [], "closed_bucket": "Unsure", "distance": 617, "geocodes": {"main": {"latitude": 55.827677, "longitude": -4.271553}, "roof": {"latitude": 55.827677, "longitude": -4.271553}}, "link": "/v3/places/4ba55019f964a5207af938e3", "location": {"address": "16 Algie St", "admin_region": "Scotland", "country": "GB", "formatted_address": "16 Algie St, Glasgow, Glasgow City, G41 3DJ", "locality": "Glasgow", "post_town": "Glasgow", "postcode": "G41 3DJ", "region": "Glasgow City"}, "name": "Church on the Hill", "related_places": {}, "timezone": "Europe/London"}, {"fsq_id": "4c066f06761ac9b6fce92074", "categories": [{"id": 13025, "name": "Wine Bar", "short_name": "Wine Bar", "plural_name": "Wine Bars", "icon": {"prefix": "https://ss3.4sqi.net/img/categories_v2/food/winery_", "suffix": ".png"}}, {"id": 13065, "name": "Restaurant", "short_name": "Restaurant", "plural_name": "Restaurants", "icon": {"prefix": "https://ss3.4sqi.net/img/categories_v2/food/default_", "suffix": ".png"}}], "chains": [], "closed_bucket": "LikelyOpen", "distance": 228, "geocodes": {"main": {"latitude": 55.830675, "longitude": -4.280856}, "roof": {"latitude": 55.830675, "longitude": -4.280856}}, "link": "/v3/places/4c066f06761ac9b6fce92074", "location": {"address": "1110 Pollokshaws Rd", "admin_region": "Scotland", "country": "GB", "cross_street": "", "formatted_address": "1110 Pollokshaws Rd, Glasgow, Glasgow City, G41 2HG", "locality": "Glasgow", "post_town": "Glasgow", "postcode": "G41 2HG", "region": "Glasgow City"}, "name": "Linen 1906", "related_places": {}, "timezone": "Europe/London"}, {"fsq_id": "5597fed9498e6d42e6120ea3", "categories": [{"id": 13018, "name": "Pub", "short_name": "Pub", "plural_name": "Pubs", "icon": {"prefix": "https://ss3.4sqi.net/img/categories_v2/nightlife/pub_", "suffix": ".png"}}], "chains": [], "closed_bucket": "VeryLikelyOpen", "distance": 701, "geocodes": {"drop_off": {"latitude": 55.837421, "longitude": -4.272374}, "main": {"latitude": 55.837268, "longitude": -4.272478}, "roof": {"latitude": 55.837268, "longitude": -4.272478}}, "link": "/v3/places/5597fed9498e6d42e6120ea3", "location": {"address": "69 Nithsdale Rd", "country": "GB", "cross_street": "", "formatted_address": "69 Nithsdale Rd, Glasgow, Glasgow City", "locality": "Glasgow", "post_town": "Glasgow", "region": "Glasgow City"}, "name": "Don Cazcabel", "related_places": {}, "timezone": "Europe/London"}, {"fsq_id": "4c1e4e76b9f876b03fde7e46", "categories": [{"id": 13064, "name": "Pizzeria", "short_name": "Pizza", "plural_name": "Pizzerias", "icon": {"prefix": "https://ss3.4sqi.net/img/categories_v2/food/pizza_", "suffix": ".png"}}, {"id": 13236, "name": "Italian Restaurant", "short_name": "Italian", "plural_name": "Italian Restaurants", "icon": {"prefix": "https://ss3.4sqi.net/img/categories_v2/food/italian_", "suffix": ".png"}}], "chains": [], "closed_bucket": "VeryLikelyOpen", "distance": 77, "geocodes": {"main": {"latitude": 55.83156, "longitude": -4.279202}, "roof": {"latitude": 55.83156, "longitude": -4.279202}}, "link": "/v3/places/4c1e4e76b9f876b03fde7e46", "location": {"address": "1038-1040 Pollokshaws Rd", "admin_region": "Scotland", "country": "GB", "formatted_address": "1038-1040 Pollokshaws Rd, Shawlands, Glasgow City, G41 3EB", "locality": "Shawlands", "post_town": "Glasgow", "postcode": "G41 3EB", "region": "Glasgow City"}, "name": "Di Maggio's - South Side", "related_places": {}, "timezone": "Europe/London"}, {"fsq_id": "4bc74c7d6501c9b6b0243e29", "categories": [{"id": 13065, "name": "Restaurant", "short_name": "Restaurant", "plural_name": "Restaurants", "icon": {"prefix": "https://ss3.4sqi.net/img/categories_v2/food/default_", "suffix": ".png"}}], "chains": [], "closed_bucket": "LikelyOpen", "distance": 459, "geocodes": {"main": {"latitude": 55.828558, "longitude": -4.273646}, "roof": {"latitude": 55.828558, "longitude": -4.273646}}, "link": "/v3/places/4bc74c7d6501c9b6b0243e29", "location": {"address": "2-4 Camphill Ave", "admin_region": "Scotland", "country": "GB", "cross_street": "", "formatted_address": "2-4 Camphill Ave, Glasgow, Glasgow City, G41 3AY", "locality": "Glasgow", "post_town": "Glasgow", "postcode": "G41 3AY", "region": "Glasgow City"}, "name": "The Ivory Hotel", "related_places": {}, "timezone": "Europe/London"}, {"fsq_id": "4fca1c23e4b04ba0d0d27d2b", "categories": [{"id": 13003, "name": "Bar", "short_name": "Bar", "plural_name": "Bars", "icon": {"prefix": "https://ss3.4sqi.net/img/categories_v2/nightlife/pub_", "suffix": ".png"}}], "chains": [], "closed_bucket": "LikelyOpen", "distance": 59, "geocodes": {"main": {"latitude": 55.832561, "longitude": -4.277377}, "roof": {"latitude": 55.832561, "longitude": -4.277377}}, "link": "/v3/places/4fca1c23e4b04ba0d0d27d2b", "location": {"address": "962 Pollokshaws Rd", "admin_region": "Scotland", "country": "GB", "cross_street": "", "formatted_address": "962 Pollokshaws Rd, Glasgow, G41 2ET", "locality": "Glasgow", "post_town": "Glasgow", "postcode": "G41 2ET"}, "name": "Sweeney's on the Park", "related_places": {}, "timezone": "Europe/London"}, {"fsq_id": "4c265dd9a852c928a587e66c", "categories": [{"id": 13067, "name": "African Restaurant", "short_name": "African", "plural_name": "African Restaurants", "icon": {"prefix": "https://ss3.4sqi.net/img/categories_v2/food/african_", "suffix": ".png"}}, {"id": 13145, "name": "Fast Food Restaurant", "short_name": "Fast Food", "plural_name": "Fast Food Restaurants", "icon": {"prefix": "https://ss3.4sqi.net/img/categories_v2/food/fastfood_", "suffix": ".png"}}], "chains": [], "closed_bucket": "LikelyOpen", "distance": 23, "geocodes": {"main": {"latitude": 55.832088, "longitude": -4.278273}, "roof": {"latitude": 55.832088, "longitude": -4.278273}}, "link": "/v3/places/4c265dd9a852c928a587e66c", "location": {"address": "1006A Pollokshaws Rd", "admin_region": "Scotland", "country": "GB", "formatted_address": "1006A Pollokshaws Rd, Glasgow, Glasgow City, G41 2HG", "locality": "Glasgow", "post_town": "Glasgow", "postcode": "G41 2HG", "region": "Glasgow City"}, "name": "Camflava", "related_places": {}, "timezone": "Europe/London"}, {"fsq_id": "4df3944714954f21cf2ea7b5", "categories": [{"id": 13003, "name": "Bar", "short_name": "Bar", "plural_name": "Bars", "icon": {"prefix": "https://ss3.4sqi.net/img/categories_v2/nightlife/pub_", "suffix": ".png"}}], "chains": [], "closed_bucket": "LikelyOpen", "distance": 82, "geocodes": {"main": {"latitude": 55.833264, "longitude": -4.276137}, "roof": {"latitude": 55.833264, "longitude": -4.276137}}, "link": "/v3/places/4df3944714954f21cf2ea7b5", "location": {"address": "962 Pollokshaws Rd", "admin_region": "Scotland", "country": "GB", "formatted_address": "962 Pollokshaws Rd, Glasgow, Glasgow City, G41 2ET", "locality": "Glasgow", "post_town": "Glasgow", "postcode": "G41 2ET", "region": "Glasgow City"}, "name": "The Bay Horse", "related_places": {}, "timezone": "Europe/London"}, {"fsq_id": "4c261d64905a0f47099c6260", "categories": [{"id": 13003, "name": "Bar", "short_name": "Bar", "plural_name": "Bars", "icon": {"prefix": "https://ss3.4sqi.net/img/categories_v2/nightlife/pub_", "suffix": ".png"}}, {"id": 13065, "name": "Restaurant", "short_name": "Restaurant", "plural_name": "Restaurants", "icon": {"prefix": "https://ss3.4sqi.net/img/categories_v2/food/default_", "suffix": ".png"}}], "chains": [], "closed_bucket": "LikelyOpen", "distance": 97, "geocodes": {"main": {"latitude": 55.831311, "longitude": -4.278949}, "roof": {"latitude": 55.831311, "longitude": -4.278949}}, "link": "/v3/places/4c261d64905a0f47099c6260", "location": {"address": "1039 Pollokshaws Rd", "admin_region": "Scotland", "country": "GB", "cross_street": "", "formatted_address": "1039 Pollokshaws Rd, Glasgow, Glasgow City, G41 3YF", "locality": "Glasgow", "post_town": "Glasgow", "postcode": "G41 3YF", "region": "Glasgow City"}, "name": "Corona Bar", "related_places": {}, "timezone": "Europe/London"}, {"fsq_id": "4ef678717ee5bf7993b51c0c", "categories": [{"id": 13145, "name": "Fast Food Restaurant", "short_name": "Fast Food", "plural_name": "Fast Food Restaurants", "icon": {"prefix": "https://ss3.4sqi.net/img/categories_v2/food/fastfood_", "suffix": ".png"}}], "chains": [], "closed_bucket": "VeryLikelyOpen", "distance": 126, "geocodes": {"main": {"latitude": 55.831129, "longitude": -4.279364}, "roof": {"latitude": 55.831129, "longitude": -4.279364}}, "link": "/v3/places/4ef678717ee5bf7993b51c0c", "location": {"address": "1059 Pollokshaws Rd", "admin_region": "Scotland", "country": "GB", "formatted_address": "1059 Pollokshaws Rd, Glasgow, Glasgow City, G41 3YF", "locality": "Glasgow", "post_town": "Glasgow", "postcode": "G41 3YF", "region": "Glasgow City"}, "name": "Baba Tandoori", "related_places": {}, "timezone": "Europe/London"}, {"fsq_id": "5c016a32894eac002cdaafff", "categories": [{"id": 10018, "name": "Gaming Cafe", "short_name": "Gaming Cafe", "plural_name": "Gaming Cafes", "icon": {"prefix": "https://ss3.4sqi.net/img/categories_v2/shops/gamingcafe_", "suffix": ".png"}}, {"id": 13035, "name": "Coffee Shop", "short_name": "Coffee Shop", "plural_name": "Coffee Shops", "icon": {"prefix": "https://ss3.4sqi.net/img/categories_v2/food/coffeeshop_", "suffix": ".png"}}, {"id": 13065, "name": "Restaurant", "short_name": "Restaurant", "plural_name": "Restaurants", "icon": {"prefix": "https://ss3.4sqi.net/img/categories_v2/food/default_", "suffix": ".png"}}, {"id": 13382, "name": "Snack Place", "short_name": "Snacks", "plural_name": "Snack Places", "icon": {"prefix": "https://ss3.4sqi.net/img/categories_v2/food/snacks_", "suffix": ".png"}}, {"id": 17027, "name": "Video Games Store", "short_name": "Video Game Store", "plural_name": "Video Game Stores", "icon": {"prefix": "https://ss3.4sqi.net/img/categories_v2/shops/videogames_", "suffix": ".png"}}, {"id": 17057, "name": "Food and Beverage Retail", "short_name": "Food & Beverage", "plural_name": "Food and Beverage Retail", "icon": {"prefix": "https://ss3.4sqi.net/img/categories_v2/shops/foodanddrink_", "suffix": ".png"}}], "chains": [], "closed_bucket": "Unsure", "distance": 172, "geocodes": {"drop_off": {"latitude": 55.830935, "longitude": -4.280006}, "main": {"latitude": 55.830832, "longitude": -4.27995}, "roof": {"latitude": 55.830832, "longitude": -4.27995}}, "link": "/v3/places/5c016a32894eac002cdaafff", "location": {"address": "1091 Pollokshaws Rd", "admin_region": "Scotland", "country": "GB", "cross_street": "", "formatted_address": "1091 Pollokshaws Rd, Glasgow, Glasgow City, G41 3YG", "locality": "Glasgow", "post_town": "Glasgow", "postcode": "G41 3YG", "region": "Glasgow City"}, "name": "Lucky Sparrow Games", "related_places": {}, "timezone": "Europe/London"}, {"fsq_id": "5b016d69a89b5a0024efece1", "categories": [{"id": 13299, "name": "Malay Restaurant", "short_name": "Malay", "plural_name": "Malay Restaurants", "icon": {"prefix": "https://ss3.4sqi.net/img/categories_v2/food/malaysian_", "suffix": ".png"}}], "chains": [], "closed_bucket": "Unsure", "distance": 203, "geocodes": {"drop_off": {"latitude": 55.830749, "longitude": -4.280368}, "main": {"latitude": 55.830602, "longitude": -4.280294}, "roof": {"latitude": 55.830602, "longitude": -4.280294}}, "link": "/v3/places/5b016d69a89b5a0024efece1", "location": {"address": "1109 Pollokshaws Rd", "admin_region": "Scotland", "country": "GB", "cross_street": "", "formatted_address": "1109 Pollokshaws Rd, Glasgow, Glasgow City, G41 3YG", "locality": "Glasgow", "post_town": "Glasgow", "postcode": "G41 3YG", "region": "Glasgow City"}, "name": "Julie's Kopitiam", "related_places": {}, "timezone": "Europe/London"}, {"fsq_id": "5b98a85ea91d4616fc30484d", "categories": [{"id": 13065, "name": "Restaurant", "short_name": "Restaurant", "plural_name": "Restaurants", "icon": {"prefix": "https://ss3.4sqi.net/img/categories_v2/food/default_", "suffix": ".png"}}], "chains": [], "closed_bucket": "Unsure", "distance": 218, "geocodes": {"drop_off": {"latitude": 55.830681, "longitude": -4.280502}, "main": {"latitude": 55.830541, "longitude": -4.280432}, "roof": {"latitude": 55.830541, "longitude": -4.280432}}, "link": "/v3/places/5b98a85ea91d4616fc30484d", "location": {"address": "1117a Pollokshaws Rd", "admin_region": "Scotland", "country": "GB", "formatted_address": "1117a Pollokshaws Rd, Glasgow, Glasgow City, G41 3YH", "locality": "Glasgow", "post_town": "Glasgow", "postcode": "G41 3YH", "region": "Glasgow City"}, "name": "The Coffee Garden", "related_places": {}, "timezone": "Europe/London"}, {"fsq_id": "5b5701b22463d8004481da88", "categories": [{"id": 13034, "name": "Caf\u00e9", "short_name": "Caf\u00e9", "plural_name": "Caf\u00e9s", "icon": {"prefix": "https://ss3.4sqi.net/img/categories_v2/food/cafe_", "suffix": ".png"}}, {"id": 13035, "name": "Coffee Shop", "short_name": "Coffee Shop", "plural_name": "Coffee Shops", "icon": {"prefix": "https://ss3.4sqi.net/img/categories_v2/food/coffeeshop_", "suffix": ".png"}}, {"id": 13065, "name": "Restaurant", "short_name": "Restaurant", "plural_name": "Restaurants", "icon": {"prefix": "https://ss3.4sqi.net/img/categories_v2/food/default_", "suffix": ".png"}}], "chains": [], "closed_bucket": "VeryLikelyOpen", "distance": 228, "geocodes": {"main": {"latitude": 55.833646, "longitude": -4.275904}, "roof": {"latitude": 55.833646, "longitude": -4.275904}}, "link": "/v3/places/5b5701b22463d8004481da88", "location": {"address": "890 Pollokshaws Rd", "admin_region": "Scotland", "country": "GB", "cross_street": "", "formatted_address": "890 Pollokshaws Rd, Glasgow, Glasgow City, G41 2ET", "locality": "Glasgow", "post_town": "Glasgow", "postcode": "G41 2ET", "region": "Glasgow City"}, "name": "Wild Bean Caf\u00e9", "related_places": {"parent": {"fsq_id": "4c40ad807beab713b8639555", "categories": [{"id": 19007, "name": "Fuel Station", "short_name": "Fuel Station", "plural_name": "Fuel Stations", "icon": {"prefix": "https://ss3.4sqi.net/img/categories_v2/shops/gas_", "suffix": ".png"}}], "name": "Bp Pulse"}}, "timezone": "Europe/London"}, {"fsq_id": "4cc1d4f982388cfa7ef65b35", "categories": [{"id": 13099, "name": "Chinese Restaurant", "short_name": "Chinese", "plural_name": "Chinese Restaurants", "icon": {"prefix": "https://ss3.4sqi.net/img/categories_v2/food/asian_", "suffix": ".png"}}], "chains": [], "closed_bucket": "VeryLikelyOpen", "distance": 292, "geocodes": {"drop_off": {"latitude": 55.829327, "longitude": -4.280038}, "main": {"latitude": 55.82957, "longitude": -4.279912}, "roof": {"latitude": 55.82957, "longitude": -4.279912}}, "link": "/v3/places/4cc1d4f982388cfa7ef65b35", "location": {"address": "44 Skirving St", "admin_region": "Scotland", "country": "GB", "cross_street": "", "formatted_address": "44 Skirving St, Glasgow, Glasgow City", "locality": "Glasgow", "post_town": "Glasgow", "region": "Glasgow City"}, "name": "Skirving Limited", "related_places": {}, "timezone": "Europe/London"}, {"fsq_id": "5182b140498e5b375e6bc442", "categories": [{"id": 13099, "name": "Chinese Restaurant", "short_name": "Chinese", "plural_name": "Chinese Restaurants", "icon": {"prefix": "https://ss3.4sqi.net/img/categories_v2/food/asian_", "suffix": ".png"}}], "chains": [], "closed_bucket": "LikelyOpen", "distance": 297, "geocodes": {"main": {"latitude": 55.827114, "longitude": -4.285054}, "roof": {"latitude": 55.827114, "longitude": -4.285054}}, "link": "/v3/places/5182b140498e5b375e6bc442", "location": {"address": "162 Kilmarnock Rd", "admin_region": "Scotland", "country": "GB", "cross_street": "", "formatted_address": "162 Kilmarnock Rd, Glasgow, G41 3PG", "locality": "Glasgow", "post_town": "Glasgow", "postcode": "G41 3PG"}, "name": "Tao Chinese Takeaway", "related_places": {}, "timezone": "Europe/London"}, {"fsq_id": "724fbd2de4d5ef30a1a81f2e", "categories": [{"id": 13199, "name": "Indian Restaurant", "short_name": "Indian", "plural_name": "Indian Restaurants", "icon": {"prefix": "https://ss3.4sqi.net/img/categories_v2/food/indian_", "suffix": ".png"}}], "chains": [], "closed_bucket": "VeryLikelyOpen", "distance": 346, "geocodes": {"drop_off": {"latitude": 55.82914, "longitude": -4.27968}, "main": {"latitude": 55.828999, "longitude": -4.279754}, "roof": {"latitude": 55.828999, "longitude": -4.279754}}, "link": "/v3/places/724fbd2de4d5ef30a1a81f2e", "location": {"address": "44 Skirving St", "admin_region": "Scotland", "country": "GB", "formatted_address": "44 Skirving St, Glasgow, Glasgow City", "locality": "Glasgow", "post_town": "Glasgow", "region": "Glasgow City"}, "name": "Yaars", "related_places": {}, "timezone": "Europe/London"}, {"fsq_id": "6efaf11ba2d149c0bb701ad4", "categories": [{"id": 13035, "name": "Coffee Shop", "short_name": "Coffee Shop", "plural_name": "Coffee Shops", "icon": {"prefix": "https://ss3.4sqi.net/img/categories_v2/food/coffeeshop_", "suffix": ".png"}}, {"id": 13036, "name": "Tea Room", "short_name": "Tea Room", "plural_name": "Tea Rooms", "icon": {"prefix": "https://ss3.4sqi.net/img/categories_v2/food/tearoom_", "suffix": ".png"}}, {"id": 13065, "name": "Restaurant", "short_name": "Restaurant", "plural_name": "Restaurants", "icon": {"prefix": "https://ss3.4sqi.net/img/categories_v2/food/default_", "suffix": ".png"}}], "chains": [], "closed_bucket": "VeryLikelyOpen", "distance": 354, "geocodes": {"main": {"latitude": 55.829954, "longitude": -4.28241}, "roof": {"latitude": 55.829954, "longitude": -4.28241}}, "link": "/v3/places/6efaf11ba2d149c0bb701ad4", "location": {"address": "1171 Pollokshaws Rd", "admin_region": "Scotland", "country": "GB", "formatted_address": "1171 Pollokshaws Rd, Glasgow, G41 3NG", "locality": "Glasgow", "post_town": "Glasgow", "postcode": "G41 3NG"}, "name": "Eats by Heavenly Treats", "related_places": {}, "timezone": "Europe/London"}, {"fsq_id": "4c4dd46d51c2c928272b719d", "categories": [{"id": 12097, "name": "Social Club", "short_name": "Social Club", "plural_name": "Social Clubs", "icon": {"prefix": "https://ss3.4sqi.net/img/categories_v2/building/default_", "suffix": ".png"}}, {"id": 13065, "name": "Restaurant", "short_name": "Restaurant", "plural_name": "Restaurants", "icon": {"prefix": "https://ss3.4sqi.net/img/categories_v2/food/default_", "suffix": ".png"}}], "chains": [], "closed_bucket": "VeryLikelyOpen", "distance": 360, "geocodes": {"main": {"latitude": 55.829753, "longitude": -4.282229}, "roof": {"latitude": 55.829753, "longitude": -4.282229}}, "link": "/v3/places/4c4dd46d51c2c928272b719d", "location": {"address": "1179 Pollokshaws Rd", "admin_region": "Scotland", "country": "GB", "cross_street": "", "formatted_address": "1179 Pollokshaws Rd, Glasgow, G41 3YH", "locality": "Glasgow", "post_town": "Glasgow", "postcode": "G41 3YH"}, "name": "Social Southside", "related_places": {}, "timezone": "Europe/London"}, {"fsq_id": "588ddcc46d349d3000c56b41", "categories": [{"id": 13035, "name": "Coffee Shop", "short_name": "Coffee Shop", "plural_name": "Coffee Shops", "icon": {"prefix": "https://ss3.4sqi.net/img/categories_v2/food/coffeeshop_", "suffix": ".png"}}, {"id": 13377, "name": "Vegan and Vegetarian Restaurant", "short_name": "Vegan and Vegetarian Restaurant", "plural_name": "Vegan and Vegetarian Restaurants", "icon": {"prefix": "https://ss3.4sqi.net/img/categories_v2/food/vegetarian_", "suffix": ".png"}}], "chains": [], "closed_bucket": "LikelyOpen", "distance": 427, "geocodes": {"drop_off": {"latitude": 55.829316, "longitude": -4.282513}, "main": {"latitude": 55.829165, "longitude": -4.282386}, "roof": {"latitude": 55.829165, "longitude": -4.282386}}, "link": "/v3/places/588ddcc46d349d3000c56b41", "location": {"address": "51 Kilmarnock Rd", "admin_region": "Scotland", "country": "GB", "cross_street": "", "formatted_address": "51 Kilmarnock Rd, Glasgow, G41 3YN", "locality": "Glasgow", "post_town": "Glasgow", "postcode": "G41 3YN"}, "name": "Soy Division", "related_places": {}, "timezone": "Europe/London"}, {"fsq_id": "597c6c71898bdc5ce5ec4332", "categories": [{"id": 13354, "name": "Theme Restaurant", "short_name": "Theme Restaurant", "plural_name": "Theme Restaurants", "icon": {"prefix": "https://ss3.4sqi.net/img/categories_v2/food/default_", "suffix": ".png"}}], "chains": [], "closed_bucket": "Unsure", "distance": 481, "geocodes": {"main": {"latitude": 55.828655, "longitude": -4.283}, "roof": {"latitude": 55.828655, "longitude": -4.283}}, "link": "/v3/places/597c6c71898bdc5ce5ec4332", "location": {"address": "69 Kilmarnock Rd", "admin_region": "Scotland", "country": "GB", "cross_street": "", "formatted_address": "69 Kilmarnock Rd, Glasgow, Glasgow City, G41 3YR", "locality": "Glasgow", "post_town": "Glasgow", "postcode": "G41 3YR", "region": "Glasgow City"}, "name": "Lean Canteen", "related_places": {}, "timezone": "Europe/London"}, {"fsq_id": "5e4c02c6a1c4c2000870ef6e", "categories": [{"id": 13035, "name": "Coffee Shop", "short_name": "Coffee Shop", "plural_name": "Coffee Shops", "icon": {"prefix": "https://ss3.4sqi.net/img/categories_v2/food/coffeeshop_", "suffix": ".png"}}, {"id": 13065, "name": "Restaurant", "short_name": "Restaurant", "plural_name": "Restaurants", "icon": {"prefix": "https://ss3.4sqi.net/img/categories_v2/food/default_", "suffix": ".png"}}], "chains": [], "closed_bucket": "VeryLikelyOpen", "distance": 632, "geocodes": {"drop_off": {"latitude": 55.836095, "longitude": -4.270841}, "main": {"latitude": 55.835943, "longitude": -4.270756}, "roof": {"latitude": 55.835943, "longitude": -4.270756}}, "link": "/v3/places/5e4c02c6a1c4c2000870ef6e", "location": {"address": "719 Pollokshaws Rd", "admin_region": "Scotland", "country": "GB", "cross_street": "", "formatted_address": "719 Pollokshaws Rd, G41 2AA", "post_town": "Glasgow", "postcode": "G41 2AA"}, "name": "Gray's Kitchen", "related_places": {}, "timezone": "Europe/London"}, {"fsq_id": "57e52004498e3f88fc8d140f", "categories": [{"id": 13236, "name": "Italian Restaurant", "short_name": "Italian", "plural_name": "Italian Restaurants", "icon": {"prefix": "https://ss3.4sqi.net/img/categories_v2/food/italian_", "suffix": ".png"}}], "chains": [], "closed_bucket": "LikelyOpen", "distance": 657, "geocodes": {"drop_off": {"latitude": 55.836207, "longitude": -4.2704}, "main": {"latitude": 55.836064, "longitude": -4.270479}, "roof": {"latitude": 55.836064, "longitude": -4.270479}}, "link": "/v3/places/57e52004498e3f88fc8d140f", "location": {"address": "10 Torrisdale St", "admin_region": "Scotland", "country": "GB", "cross_street": "", "formatted_address": "10 Torrisdale St, Glasgow, Glasgow City, G42 8PZ", "locality": "Glasgow", "post_town": "Glasgow", "postcode": "G42 8PZ", "region": "Glasgow City"}, "name": "Al Forno", "related_places": {}, "timezone": "Europe/London"}, {"fsq_id": "4c3786b693db0f47a9f31f92", "categories": [{"id": 13018, "name": "Pub", "short_name": "Pub", "plural_name": "Pubs", "icon": {"prefix": "https://ss3.4sqi.net/img/categories_v2/nightlife/pub_", "suffix": ".png"}}], "chains": [], "closed_bucket": "VeryLikelyOpen", "distance": 658, "geocodes": {"drop_off": {"latitude": 55.827314, "longitude": -4.284604}, "main": {"latitude": 55.827448, "longitude": -4.284749}, "roof": {"latitude": 55.827448, "longitude": -4.284749}}, "link": "/v3/places/4c3786b693db0f47a9f31f92", "location": {"address": "137 Kilmarnock Road", "country": "GB", "formatted_address": "137 Kilmarnock Road, Glasgow, Glasgow City, G41 3YT", "locality": "Glasgow", "postcode": "G41 3YT", "region": "Glasgow City"}, "name": "The Millwood", "related_places": {}, "timezone": "Europe/London"}, {"fsq_id": "5c9a80804928220034aaa434", "categories": [{"id": 13177, "name": "Greek Restaurant", "short_name": "Greek", "plural_name": "Greek Restaurants", "icon": {"prefix": "https://ss3.4sqi.net/img/categories_v2/food/greek_", "suffix": ".png"}}], "chains": [], "closed_bucket": "LikelyOpen", "distance": 673, "geocodes": {"main": {"latitude": 55.836289, "longitude": -4.270241}, "roof": {"latitude": 55.836289, "longitude": -4.270241}}, "link": "/v3/places/5c9a80804928220034aaa434", "location": {"address": "697 Pollokshaws Rd", "admin_region": "Scotland", "country": "GB", "cross_street": "", "formatted_address": "697 Pollokshaws Rd, Glasgow, Glasgow City, G41 2AB", "locality": "Glasgow", "post_town": "Glasgow", "postcode": "G41 2AB", "region": "Glasgow City"}, "name": "Halloumi", "related_places": {}, "timezone": "Europe/London"}, {"fsq_id": "4c265a46136d20a18434e561", "categories": [{"id": 13018, "name": "Pub", "short_name": "Pub", "plural_name": "Pubs", "icon": {"prefix": "https://ss3.4sqi.net/img/categories_v2/nightlife/pub_", "suffix": ".png"}}], "chains": [], "closed_bucket": "LikelyOpen", "distance": 676, "geocodes": {"main": {"latitude": 55.83706, "longitude": -4.27149}, "roof": {"latitude": 55.83706, "longitude": -4.27149}}, "link": "/v3/places/4c265a46136d20a18434e561", "location": {"address": "52-58 Nithsdale Rd", "admin_region": "Scotland", "country": "GB", "cross_street": "", "formatted_address": "52-58 Nithsdale Rd, Glasgow, G41 2AN", "locality": "Glasgow", "post_town": "Glasgow", "postcode": "G41 2AN"}, "name": "Titwood Bar", "related_places": {}, "timezone": "Europe/London"}, {"fsq_id": "632e04f72f5dc66afe8b057c", "categories": [{"id": 13009, "name": "Cocktail Bar", "short_name": "Cocktail", "plural_name": "Cocktail Bars", "icon": {"prefix": "https://ss3.4sqi.net/img/categories_v2/nightlife/cocktails_", "suffix": ".png"}}, {"id": 13016, "name": "Lounge", "short_name": "Lounge", "plural_name": "Lounges", "icon": {"prefix": "https://ss3.4sqi.net/img/categories_v2/nightlife/default_", "suffix": ".png"}}], "chains": [], "closed_bucket": "Unsure", "distance": 704, "geocodes": {"drop_off": {"latitude": 55.83744, "longitude": -4.271698}, "main": {"latitude": 55.837309, "longitude": -4.271743}, "roof": {"latitude": 55.837309, "longitude": -4.271743}}, "link": "/v3/places/632e04f72f5dc66afe8b057c", "location": {"address": "72 Nithsdale St", "admin_region": "Scotland", "country": "GB", "cross_street": "", "formatted_address": "72 Nithsdale St, Glasgow, Glasgow City", "locality": "Glasgow", "post_town": "Glasgow", "region": "Glasgow City"}, "name": "Lunar", "related_places": {}, "timezone": "Europe/London"}, {"fsq_id": "4b9ad6cdf964a520e0da35e3", "categories": [{"id": 13018, "name": "Pub", "short_name": "Pub", "plural_name": "Pubs", "icon": {"prefix": "https://ss3.4sqi.net/img/categories_v2/nightlife/pub_", "suffix": ".png"}}], "chains": [], "closed_bucket": "VeryLikelyOpen", "distance": 757, "geocodes": {"main": {"latitude": 55.836841, "longitude": -4.269802}, "roof": {"latitude": 55.836841, "longitude": -4.269802}}, "link": "/v3/places/4b9ad6cdf964a520e0da35e3", "location": {"address": "708 Pollokshaws Rd", "admin_region": "Scotland", "country": "GB", "cross_street": "at Nithsdale St", "formatted_address": "708 Pollokshaws Rd (at Nithsdale St), Glasgow, Glasgow City, G41 2AD", "locality": "Glasgow", "post_town": "Glasgow", "postcode": "G41 2AD", "region": "Glasgow City"}, "name": "Heraghty's Bar", "related_places": {}, "timezone": "Europe/London"}, {"fsq_id": "4e625c25e4cdf1e2bf430d33", "categories": [{"id": 13007, "name": "Beer Garden", "short_name": "Beer Garden", "plural_name": "Beer Gardens", "icon": {"prefix": "https://ss3.4sqi.net/img/categories_v2/nightlife/beergarden_", "suffix": ".png"}}], "chains": [], "closed_bucket": "VeryLikelyOpen", "distance": 764, "geocodes": {"main": {"latitude": 55.827127, "longitude": -4.286666}, "roof": {"latitude": 55.827127, "longitude": -4.286666}}, "link": "/v3/places/4e625c25e4cdf1e2bf430d33", "location": {"country": "GB", "cross_street": "", "formatted_address": "Glasgow, Glasgow City", "locality": "Glasgow", "post_town": "Glasgow", "region": "Glasgow City"}, "name": "Celtic Pub", "related_places": {}, "timezone": "Europe/London"}, {"fsq_id": "54e5e440498e4ac03ebf30a5", "categories": [{"id": 13142, "name": "English Restaurant", "short_name": "English", "plural_name": "English Restaurants", "icon": {"prefix": "https://ss3.4sqi.net/img/categories_v2/food/default_", "suffix": ".png"}}], "chains": [], "closed_bucket": "VeryLikelyOpen", "distance": 780, "geocodes": {"main": {"latitude": 55.838926, "longitude": -4.274805}, "roof": {"latitude": 55.838926, "longitude": -4.274805}}, "link": "/v3/places/54e5e440498e4ac03ebf30a5", "location": {"address": "122 Nithsdale Rd", "admin_region": "Scotland", "country": "GB", "cross_street": "", "formatted_address": "122 Nithsdale Rd, Glasgow, G41 5RB", "locality": "Glasgow", "post_town": "Glasgow", "postcode": "G41 5RB"}, "name": "Ollie's", "related_places": {}, "timezone": "Europe/London"}, {"fsq_id": "736358a402e84037c6883d6b", "categories": [{"id": 13236, "name": "Italian Restaurant", "short_name": "Italian", "plural_name": "Italian Restaurants", "icon": {"prefix": "https://ss3.4sqi.net/img/categories_v2/food/italian_", "suffix": ".png"}}], "chains": [], "closed_bucket": "LikelyOpen", "distance": 814, "geocodes": {"drop_off": {"latitude": 55.838952, "longitude": -4.275277}, "main": {"latitude": 55.839114, "longitude": -4.275196}, "roof": {"latitude": 55.839114, "longitude": -4.275196}}, "link": "/v3/places/736358a402e84037c6883d6b", "location": {"address": "142 Nithsdale Rd", "admin_region": "Scotland", "country": "GB", "formatted_address": "142 Nithsdale Rd, Glasgow, G41 5RB", "locality": "Glasgow", "post_town": "Glasgow", "postcode": "G41 5RB"}, "name": "Zeno", "related_places": {}, "timezone": "Europe/London"}, {"fsq_id": "5b2f6a934a7aae003984d41f", "categories": [{"id": 13035, "name": "Coffee Shop", "short_name": "Coffee Shop", "plural_name": "Coffee Shops", "icon": {"prefix": "https://ss3.4sqi.net/img/categories_v2/food/coffeeshop_", "suffix": ".png"}}, {"id": 13065, "name": "Restaurant", "short_name": "Restaurant", "plural_name": "Restaurants", "icon": {"prefix": "https://ss3.4sqi.net/img/categories_v2/food/default_", "suffix": ".png"}}], "chains": [], "closed_bucket": "LikelyOpen", "distance": 822, "geocodes": {"main": {"latitude": 55.834647, "longitude": -4.265777}, "roof": {"latitude": 55.834647, "longitude": -4.265777}}, "link": "/v3/places/5b2f6a934a7aae003984d41f", "location": {"address": "510 Victoria Rd", "admin_region": "Scotland", "country": "GB", "cross_street": "", "formatted_address": "510 Victoria Rd, Glasgow, Glasgow City, G42 8PQ", "locality": "Glasgow", "post_town": "Glasgow", "postcode": "G42 8PQ", "region": "Glasgow City"}, "name": "Crema Coffee", "related_places": {}, "timezone": "Europe/London"}, {"fsq_id": "5a033d44805e3f472304e501", "categories": [{"id": 13040, "name": "Dessert Shop", "short_name": "Desserts", "plural_name": "Dessert Shops", "icon": {"prefix": "https://ss3.4sqi.net/img/categories_v2/food/dessert_", "suffix": ".png"}}, {"id": 13065, "name": "Restaurant", "short_name": "Restaurant", "plural_name": "Restaurants", "icon": {"prefix": "https://ss3.4sqi.net/img/categories_v2/food/default_", "suffix": ".png"}}], "chains": [], "closed_bucket": "LikelyOpen", "distance": 824, "geocodes": {"main": {"latitude": 55.834647, "longitude": -4.265777}, "roof": {"latitude": 55.834647, "longitude": -4.265777}}, "link": "/v3/places/5a033d44805e3f472304e501", "location": {"address": "504 Victoria Rd", "admin_region": "Scotland", "country": "GB", "cross_street": "", "formatted_address": "504 Victoria Rd, Glasgow, Glasgow City, G42 8PQ", "locality": "Glasgow", "post_town": "Glasgow", "postcode": "G42 8PQ", "region": "Glasgow City"}, "name": "What the Fudge", "related_places": {}, "timezone": "Europe/London"}, {"fsq_id": "51eb0818498efde263ff3f40", "categories": [{"id": 13066, "name": "Afghan Restaurant", "short_name": "Afghan", "plural_name": "Afghan Restaurants", "icon": {"prefix": "https://ss3.4sqi.net/img/categories_v2/food/afghan_", "suffix": ".png"}}], "chains": [], "closed_bucket": "VeryLikelyOpen", "distance": 834, "geocodes": {"drop_off": {"latitude": 55.837565, "longitude": -4.268767}, "main": {"latitude": 55.837435, "longitude": -4.26863}, "roof": {"latitude": 55.837435, "longitude": -4.26863}}, "link": "/v3/places/51eb0818498efde263ff3f40", "location": {"address": "607 Pollokshaws Rd Glasgow", "admin_region": "Scotland", "country": "GB", "cross_street": "", "formatted_address": "607 Pollokshaws Rd Glasgow, Glasgow, Glasgow City, G41 2QG", "locality": "Glasgow", "post_town": "Glasgow", "postcode": "G41 2QG", "region": "Glasgow City"}, "name": "Afghan Village", "related_places": {}, "timezone": "Europe/London"}, {"fsq_id": "61840fb322589805172dc95c", "categories": [{"id": 13034, "name": "Caf\u00e9", "short_name": "Caf\u00e9", "plural_name": "Caf\u00e9s", "icon": {"prefix": "https://ss3.4sqi.net/img/categories_v2/food/cafe_", "suffix": ".png"}}, {"id": 13065, "name": "Restaurant", "short_name": "Restaurant", "plural_name": "Restaurants", "icon": {"prefix": "https://ss3.4sqi.net/img/categories_v2/food/default_", "suffix": ".png"}}], "chains": [], "closed_bucket": "Unsure", "distance": 855, "geocodes": {"drop_off": {"latitude": 55.834757, "longitude": -4.265453}, "main": {"latitude": 55.834677, "longitude": -4.265253}, "roof": {"latitude": 55.834677, "longitude": -4.265253}}, "link": "/v3/places/61840fb322589805172dc95c", "location": {"address": "505 Victoria Rd", "admin_region": "Scotland", "country": "GB", "cross_street": "Albert Road", "formatted_address": "505 Victoria Rd (Albert Road), Glasgow, Glasgow City, G42 8RL", "locality": "Glasgow", "post_town": "Glasgow", "postcode": "G42 8RL", "region": "Glasgow City"}, "name": "Mi Chaii", "related_places": {}, "timezone": "Europe/London"}, {"fsq_id": "5b5c6fae56c89f002c8290db", "categories": [{"id": 13034, "name": "Caf\u00e9", "short_name": "Caf\u00e9", "plural_name": "Caf\u00e9s", "icon": {"prefix": "https://ss3.4sqi.net/img/categories_v2/food/cafe_", "suffix": ".png"}}, {"id": 13065, "name": "Restaurant", "short_name": "Restaurant", "plural_name": "Restaurants", "icon": {"prefix": "https://ss3.4sqi.net/img/categories_v2/food/default_", "suffix": ".png"}}], "chains": [], "closed_bucket": "LikelyOpen", "distance": 858, "geocodes": {"drop_off": {"latitude": 55.834874, "longitude": -4.265406}, "main": {"latitude": 55.834786, "longitude": -4.265186}, "roof": {"latitude": 55.834786, "longitude": -4.265186}}, "link": "/v3/places/5b5c6fae56c89f002c8290db", "location": {"address": "501 Victoria Rd", "admin_region": "Scotland", "country": "GB", "cross_street": "", "formatted_address": "501 Victoria Rd, Glasgow, Glasgow City, G42 8RL", "locality": "Glasgow", "post_town": "Glasgow", "postcode": "G42 8RL", "region": "Glasgow City"}, "name": "Short Long Black", "related_places": {}, "timezone": "Europe/London"}, {"fsq_id": "589cd2aa005a0f1cef9e9343", "categories": [{"id": 13064, "name": "Pizzeria", "short_name": "Pizza", "plural_name": "Pizzerias", "icon": {"prefix": "https://ss3.4sqi.net/img/categories_v2/food/pizza_", "suffix": ".png"}}, {"id": 13145, "name": "Fast Food Restaurant", "short_name": "Fast Food", "plural_name": "Fast Food Restaurants", "icon": {"prefix": "https://ss3.4sqi.net/img/categories_v2/food/fastfood_", "suffix": ".png"}}], "chains": [{"id": "ab4afc60-d68a-012e-5619-003048cad9da", "name": "Domino's Pizza"}], "closed_bucket": "VeryLikelyOpen", "distance": 863, "geocodes": {"main": {"latitude": 55.825634, "longitude": -4.286059}, "roof": {"latitude": 55.825634, "longitude": -4.286059}}, "link": "/v3/places/589cd2aa005a0f1cef9e9343", "location": {"address": "228-232 Kilmarnock Rd", "admin_region": "Scotland", "country": "GB", "cross_street": "", "formatted_address": "228-232 Kilmarnock Rd, Glasgow, Glasgow City, G43 1TY", "locality": "Glasgow", "post_town": "Glasgow", "postcode": "G43 1TY", "region": "Glasgow City"}, "name": "Domino's Pizza", "related_places": {}, "timezone": "Europe/London"}, {"fsq_id": "55f217e7498ed2c826fcc40f", "categories": [{"id": 12082, "name": "Organization", "short_name": "Organization", "plural_name": "Organizations", "icon": {"prefix": "https://ss3.4sqi.net/img/categories_v2/building/default_", "suffix": ".png"}}, {"id": 13034, "name": "Caf\u00e9", "short_name": "Caf\u00e9", "plural_name": "Caf\u00e9s", "icon": {"prefix": "https://ss3.4sqi.net/img/categories_v2/food/cafe_", "suffix": ".png"}}, {"id": 13065, "name": "Restaurant", "short_name": "Restaurant", "plural_name": "Restaurants", "icon": {"prefix": "https://ss3.4sqi.net/img/categories_v2/food/default_", "suffix": ".png"}}], "chains": [], "closed_bucket": "LikelyOpen", "distance": 908, "geocodes": {"drop_off": {"latitude": 55.835856, "longitude": -4.265059}, "main": {"latitude": 55.835939, "longitude": -4.265292}, "roof": {"latitude": 55.835939, "longitude": -4.265292}}, "link": "/v3/places/55f217e7498ed2c826fcc40f", "location": {"address": "452 Victoria Rd", "admin_region": "Scotland", "country": "GB", "cross_street": "", "formatted_address": "452 Victoria Rd, Glasgow, Glasgow City, G42 8YU", "locality": "Glasgow", "post_town": "Glasgow", "postcode": "G42 8YU", "region": "Glasgow City"}, "name": "MILK cafe", "related_places": {}, "timezone": "Europe/London"}], "context": {"geo_bounds": {"circle": {"center": {"latitude": 55.831951, "longitude": -4.277989}, "radius": 1000}}}}