{"results": [{"fsq_id": "4b83f936f964a520191931e3", "categories": [{"id": 13236, "name": "Italian Restaurant", "short_name": "Italian", "plural_name": "Italian Restaurants", "icon": {"prefix": "https://ss3.4sqi.net/img/categories_v2/food/italian_", "suffix": ".png"}}], "chains": [], "closed_bucket": "LikelyOpen", "distance": 782, "geocodes": {"drop_off": {"latitude": 55.828575, "longitude": -4.283373}, "main": {"latitude": 55.828431, "longitude": -4.283239}, "roof": {"latitude": 55.828431, "longitude": -4.283239}}, "link": "/v3/places/4b83f936f964a520191931e3", "location": {"address": "85 Kilmarnock Rd", "admin_region": "Scotland", "country": "GB", "formatted_address": "85 Kilmarnock Rd, Glasgow, Glasgow City, G41 3YR", "locality": "Glasgow", "post_town": "Glasgow", "postcode": "G41 3YR", "region": "Glasgow City"}, "name": "Oro", "related_places": {}, "timezone": "Europe/London"}, {"fsq_id": "54a1633e498e3242ba8466d5", "categories": [{"id": 13039, "name": "Deli", "short_name": "Deli", "plural_name": "Delis", "icon": {"prefix": "https://ss3.4sqi.net/img/categories_v2/food/deli_", "suffix": ".png"}}], "chains": [], "closed_bucket": "VeryLikelyOpen", "distance": 961, "geocodes": {"drop_off": {"latitude": 55.82981, "longitude": -4.280968}, "main": {"latitude": 55.829935, "longitude": -4.280903}, "roof": {"latitude": 55.829935, "longitude": -4.280903}}, "link": "/v3/places/54a1633e498e3242ba8466d5", "location": {"address": "11 Skirving St, Shawlands", "admin_region": "Scotland", "country": "GB", "cross_street": "", "formatted_address": "11 Skirving St, Shawlands, Glasgow, Glasgow City", "locality": "Glasgow", "post_town": "Glasgow", "region": "Glasgow City"}, "name": "Deli Zola Glasgow", "related_places": {}, "timezone": "Europe/London"}, {"fsq_id": "546df31e498eeca6e6ab282c", "categories": [{"id": 13065, "name": "Restaurant", "short_name": "Restaurant", "plural_name": "Restaurants", "icon": {"prefix": "https://ss3.4sqi.net/img/categories_v2/food/default_", "suffix": ".png"}}], "chains": [], "closed_bucket": "VeryLikelyOpen", "distance": 640, "geocodes": {"main": {"latitude": 55.823516, "longitude": -4.28806}, "roof": {"latitude": 55.823516, "longitude": -4.28806}}, "link": "/v3/places/546df31e498eeca6e6ab282c", "location": {"address": "16 Newlandsfield Rd", "admin_region": "Scotland", "country": "GB", "cross_street": "", "formatted_address": "16 Newlandsfield Rd, Glasgow, G43 2XU", "locality": "Glasgow", "post_town": "Glasgow", "postcode": "G43 2XU"}, "name": "Loks Bar & Kitchen", "related_places": {}, "timezone": "Europe/London"}, {"fsq_id": "4eabdf0cb6347a596aa599db", "categories": [{"id": 13034, "name": "Caf\u00e9", "short_name": "Caf\u00e9", "plural_name": "Caf\u00e9s", "icon": {"prefix": "https://ss3.4sqi.net/img/categories_v2/food/cafe_", "suffix": ".png"}}, {"id": 13035, "name": "Coffee Shop", "short_name": "Coffee Shop", "plural_name": "Coffee Shops", "icon": {"prefix": "https://ss3.4sqi.net/img/categories_v2/food/coffeeshop_", "suffix": ".png"}}, {"id": 13065, "name": "Restaurant", "short_name": "Restaurant", "plural_name": "Restaurants", "icon": {"prefix": "https://ss3.4sqi.net/img/categories_v2/food/default_", "suffix": ".png"}}], "chains": [], "closed_bucket": "VeryLikelyOpen", "distance": 860, "geocodes": {"main": {"latitude": 55.829334, "longitude": -4.282181}, "roof": {"latitude": 55.829334, "longitude": -4.282181}}, "link": "/v3/places/4eabdf0cb6347a596aa599db", "location": {"address": "35 Kilmarnock Rd", "admin_region": "Scotland", "country": "GB", "cross_street": "", "formatted_address": "35 Kilmarnock Rd, Glasgow, Glasgow City, G41 3YN", "locality": "Glasgow", "post_town": "Glasgow", "postcode": "G41 3YN", "region": "Glasgow City"}, "name": "Gizzi Espresso Bar", "related_places": {}, "timezone": "Europe/London"}, {"fsq_id": "4c066f06761ac9b6fce92074", "categories": [{"id": 13025, "name": "Wine Bar", "short_name": "Wine Bar", "plural_name": "Wine Bars", "icon": {"prefix": "https://ss3.4sqi.net/img/categories_v2/food/winery_", "suffix": ".png"}}, {"id": 13065, "name": "Restaurant", "short_name": "Restaurant", "plural_name": "Restaurants", "icon": {"prefix": "https://ss3.4sqi.net/img/categories_v2/food/default_", "suffix": ".png"}}], "chains": [], "closed_bucket": "LikelyOpen", "distance": 997, "geocodes": {"main": {"latitude": 55.830675, "longitude": -4.280856}, "roof": {"latitude": 55.830675, "longitude": -4.280856}}, "link": "/v3/places/4c066f06761ac9b6fce92074", "location": {"address": "1110 Pollokshaws Rd", "admin_region": "Scotland", "country": "GB", "cross_street": "", "formatted_address": "1110 Pollokshaws Rd, Glasgow, Glasgow City, G41 2HG", "locality": "Glasgow", "post_town": "Glasgow", "postcode": "G41 2HG", "region": "Glasgow City"}, "name": "Linen 1906", "related_places": {}, "timezone": "Europe/London"}, {"fsq_id": "4c23556599282d7f817168b0", "categories": [{"id": 10032, "name": "Night Club", "short_name": "Night Club", "plural_name": "Night Clubs", "icon": {"prefix": "https://ss3.4sqi.net/img/categories_v2/nightlife/nightclub_", "suffix": ".png"}}, {"id": 13018, "name": "Pub", "short_name": "Pub", "plural_name": "Pubs", "icon": {"prefix": "https://ss3.4sqi.net/img/categories_v2/nightlife/pub_", "suffix": ".png"}}, {"id": 13057, "name": "Gastropub", "short_name": "Gastropub", "plural_name": "Gastropubs", "icon": {"prefix": "https://ss3.4sqi.net/img/categories_v2/food/gastropub_", "suffix": ".png"}}], "chains": [], "closed_bucket": "VeryLikelyOpen", "distance": 820, "geocodes": {"drop_off": {"latitude": 55.828815, "longitude": -4.282811}, "front_door": {"latitude": 55.828853, "longitude": -4.282794}, "main": {"latitude": 55.828853, "longitude": -4.282794}, "roof": {"latitude": 55.828825, "longitude": -4.282796}}, "link": "/v3/places/4c23556599282d7f817168b0", "location": {"address": "63-65 Kilmarnock Rd", "admin_region": "Scotland", "country": "GB", "cross_street": "", "formatted_address": "63-65 Kilmarnock Rd, Glasgow, Glasgow City, G41 3YR", "locality": "Glasgow", "post_town": "Glasgow", "postcode": "G41 3YR", "region": "Glasgow City"}, "name": "James Tassie", "related_places": {}, "timezone": "Europe/London"}, {"fsq_id": "529634c311d21b0f7e41c474", "categories": [{"id": 10000, "name": "Arts and Entertainment", "short_name": "Arts & Entertainment", "plural_name": "Arts and Entertainment", "icon": {"prefix": "https://ss3.4sqi.net/img/categories_v2/arts_entertainment/default_", "suffix": ".png"}}, {"id": 13003, "name": "Bar", "short_name": "Bar", "plural_name": "Bars", "icon": {"prefix": "https://ss3.4sqi.net/img/categories_v2/nightlife/pub_", "suffix": ".png"}}, {"id": 13031, "name": "Burger Joint", "short_name": "Burgers", "plural_name": "Burger Joints", "icon": {"prefix": "https://ss3.4sqi.net/img/categories_v2/food/burger_", "suffix": ".png"}}], "chains": [], "closed_bucket": "VeryLikelyOpen", "distance": 6, "geocodes": {"main": {"latitude": 55.823219, "longitude": -4.303321}, "roof": {"latitude": 55.823219, "longitude": -4.303321}}, "link": "/v3/places/529634c311d21b0f7e41c474", "location": {"address": "2060 Pollockshaw Rd", "admin_region": "Scotland", "country": "GB", "cross_street": "", "formatted_address": "2060 Pollockshaw Rd, Glasgow, G43 1AT", "locality": "Glasgow", "post_town": "Glasgow", "postcode": "G43 1AT"}, "name": "Burrell Restaurant", "related_places": {}, "timezone": "Europe/London"}, {"fsq_id": "526ea7df498e5b63e521e724", "categories": [{"id": 13003, "name": "Bar", "short_name": "Bar", "plural_name": "Bars", "icon": {"prefix": "https://ss3.4sqi.net/img/categories_v2/nightlife/pub_", "suffix": ".png"}}], "chains": [], "closed_bucket": "VeryLikelyOpen", "distance": 26, "geocodes": {"main": {"latitude": 55.827611, "longitude": -4.295682}, "roof": {"latitude": 55.827611, "longitude": -4.295682}}, "link": "/v3/places/526ea7df498e5b63e521e724", "location": {"admin_region": "Scotland", "country": "GB", "cross_street": "", "formatted_address": "Glasgow, Glasgow City, G43 1RF", "locality": "Glasgow", "post_town": "Glasgow", "postcode": "G43 1RF", "region": "Glasgow City"}, "name": "Burrell", "related_places": {}, "timezone": "Europe/London"}, {"fsq_id": "cedaf863c895467a9d350648", "categories": [{"id": 13003, "name": "Bar", "short_name": "Bar", "plural_name": "Bars", "icon": {"prefix": "https://ss3.4sqi.net/img/categories_v2/nightlife/pub_", "suffix": ".png"}}, {"id": 13347, "name": "Tapas Restaurant", "short_name": "Tapas", "plural_name": "Tapas Restaurants", "icon": {"prefix": "https://ss3.4sqi.net/img/categories_v2/food/tapas_", "suffix": ".png"}}], "chains": [], "closed_bucket": "Unsure", "distance": 27, "geocodes": {"main": {"latitude": 55.827617, "longitude": -4.295577}, "roof": {"latitude": 55.827617, "longitude": -4.295577}}, "link": "/v3/places/cedaf863c895467a9d350648", "location": {"address": "1543 Pollokshaws Rd", "admin_region": "Scotland", "country": "GB", "formatted_address": "1543 Pollokshaws Rd, Glasgow, Glasgow City, G43 1RF", "locality": "Glasgow", "post_town": "Glasgow", "postcode": "G43 1RF", "region": "Glasgow City"}, "name": "Nineteenoone Bar", "related_places": {}, "timezone": "Europe/London"}, {"fsq_id": "4e3e88846365a251c703ceef", "categories": [{"id": 13145, "name": "Fast Food Restaurant", "short_name": "Fast Food", "plural_name": "Fast Food Restaurants", "icon": {"prefix": "https://ss3.4sqi.net/img/categories_v2/food/fastfood_", "suffix": ".png"}}, {"id": 13199, "name": "Indian Restaurant", "short_name": "Indian", "plural_name": "Indian Restaurants", "icon": {"prefix": "https://ss3.4sqi.net/img/categories_v2/food/indian_", "suffix": ".png"}}], "chains": [], "closed_bucket": "LikelyOpen", "distance": 181, "geocodes": {"main": {"latitude": 55.825583, "longitude": -4.295199}, "roof": {"latitude": 55.825583, "longitude": -4.295199}}, "link": "/v3/places/4e3e88846365a251c703ceef", "location": {"address": "29 Shawbridge Arcade", "admin_region": "Scotland", "country": "GB", "formatted_address": "29 Shawbridge Arcade, Glasgow, Glasgow City, G43 1RT", "locality": "Glasgow", "post_town": "Glasgow", "postcode": "G43 1RT", "region": "Glasgow City"}, "name": "Spice Routes", "related_places": {}, "timezone": "Europe/London"}, {"fsq_id": "4e3bc7586365a251c7023f9f", "categories": [{"id": 13099, "name": "Chinese Restaurant", "short_name": "Chinese", "plural_name": "Chinese Restaurants", "icon": {"prefix": "https://ss3.4sqi.net/img/categories_v2/food/asian_", "suffix": ".png"}}, {"id": 13145, "name": "Fast Food Restaurant", "short_name": "Fast Food", "plural_name": "Fast Food Restaurants", "icon": {"prefix": "https://ss3.4sqi.net/img/categories_v2/food/fastfood_", "suffix": ".png"}}], "chains": [], "closed_bucket": "LikelyOpen", "distance": 182, "geocodes": {"main": {"latitude": 55.825632, "longitude": -4.29527}, "roof": {"latitude": 55.825632, "longitude": -4.29527}}, "link": "/v3/places/4e3bc7586365a251c7023f9f", "location": {"address": "33 Shawbridge Arcade", "admin_region": "Scotland", "country": "GB", "formatted_address": "33 Shawbridge Arcade, Glasgow, Glasgow City, G43 1RT", "locality": "Glasgow", "post_town": "Glasgow", "postcode": "G43 1RT", "region": "Glasgow City"}, "name": "Lucky Star", "related_places": {}, "timezone": "Europe/London"}, {"fsq_id": "51c25663454a342160dc7b34", "categories": [{"id": 13003, "name": "Bar", "short_name": "Bar", "plural_name": "Bars", "icon": {"prefix": "https://ss3.4sqi.net/img/categories_v2/nightlife/pub_", "suffix": ".png"}}], "chains": [], "closed_bucket": "VeryLikelyOpen", "distance": 240, "geocodes": {"drop_off": {"latitude": 55.825502, "longitude": -4.293661}, "main": {"latitude": 55.825407, "longitude": -4.293687}, "roof": {"latitude": 55.825407, "longitude": -4.293687}}, "link": "/v3/places/51c25663454a342160dc7b34", "location": {"address": "12 Greenview St", "admin_region": "Scotland", "country": "GB", "formatted_address": "12 Greenview St, Glasgow, Glasgow City, G43 1SN", "locality": "Glasgow", "post_town": "Glasgow", "postcode": "G43 1SN", "region": "Glasgow City"}, "name": "Taps Oan", "related_places": {}, "timezone": "Europe/London"}, {"fsq_id": "4c092db47e3fc928277df182", "categories": [{"id": 13018, "name": "Pub", "short_name": "Pub", "plural_name": "Pubs", "icon": {"prefix": "https://ss3.4sqi.net/img/categories_v2/nightlife/pub_", "suffix": ".png"}}], "chains": [], "closed_bucket": "LikelyOpen", "distance": 547, "geocodes": {"drop_off": {"latitude": 55.825513, "longitude": -4.28753}, "main": {"latitude": 55.825392, "longitude": -4.287523}, "roof": {"latitude": 55.825392, "longitude": -4.287523}}, "link": "/v3/places/4c092db47e3fc928277df182", "location": {"address": "52 Coustonholm Rd", "admin_region": "Scotland", "country": "GB", "formatted_address": "52 Coustonholm Rd, Glasgow, Glasgow City, G43 1UF", "locality": "Glasgow", "post_town": "Glasgow", "postcode": "G43 1UF", "region": "Glasgow City"}, "name": "Quaich", "related_places": {}, "timezone": "Europe/London"}, {"fsq_id": "4e625c25e4cdf1e2bf430d33", "categories": [{"id": 13007, "name": "Beer Garden", "short_name": "Beer Garden", "plural_name": "Beer Gardens", "icon": {"prefix": "https://ss3.4sqi.net/img/categories_v2/nightlife/beergarden_", "suffix": ".png"}}], "chains": [], "closed_bucket": "VeryLikelyOpen", "distance": 554, "geocodes": {"main": {"latitude": 55.827127, "longitude": -4.286666}, "roof": {"latitude": 55.827127, "longitude": -4.286666}}, "link": "/v3/places/4e625c25e4cdf1e2bf430d33", "location": {"country": "GB", "cross_street": "", "formatted_address": "Glasgow, Glasgow City", "locality": "Glasgow", "post_town": "Glasgow", "region": "Glasgow City"}, "name": "Celtic Pub", "related_places": {}, "timezone": "Europe/London"}, {"fsq_id": "4e3f12836365a251c7041caf", "categories": [{"id": 13051, "name": "Fish and Chips Shop", "short_name": "Fish and Chips Shop", "plural_name": "Fish and Chips Shops", "icon": {"prefix": "https://ss3.4sqi.net/img/categories_v2/food/fishandchips_", "suffix": ".png"}}, {"id": 13145, "name": "Fast Food Restaurant", "short_name": "Fast Food", "plural_name": "Fast Food Restaurants", "icon": {"prefix": "https://ss3.4sqi.net/img/categories_v2/food/fastfood_", "suffix": ".png"}}], "chains": [], "closed_bucket": "VeryLikelyOpen", "distance": 598, "geocodes": {"drop_off": {"latitude": 55.825634, "longitude": -4.286574}, "main": {"latitude": 55.8255, "longitude": -4.286545}, "roof": {"latitude": 55.8255, "longitude": -4.286545}}, "link": "/v3/places/4e3f12836365a251c7041caf", "location": {"address": "74 Coustonholm Rd", "admin_region": "Scotland", "country": "GB", "formatted_address": "74 Coustonholm Rd, Glasgow, Glasgow City, G43 1TZ", "locality": "Glasgow", "post_town": "Glasgow", "postcode": "G43 1TZ", "region": "Glasgow City"}, "name": "Guido's Fish & Chips", "related_places": {}, "timezone": "Europe/London"}, {"fsq_id": "589cd2aa005a0f1cef9e9343", "categories": [{"id": 13064, "name": "Pizzeria", "short_name": "Pizza", "plural_name": "Pizzerias", "icon": {"prefix": "https://ss3.4sqi.net/img/categories_v2/food/pizza_", "suffix": ".png"}}, {"id": 13145, "name": "Fast Food Restaurant", "short_name": "Fast Food", "plural_name": "Fast Food Restaurants", "icon": {"prefix": "https://ss3.4sqi.net/img/categories_v2/food/fastfood_", "suffix": ".png"}}], "chains": [{"id": "ab4afc60-d68a-012e-5619-003048cad9da", "name": "Domino's Pizza"}], "closed_bucket": "VeryLikelyOpen", "distance": 632, "geocodes": {"main": {"latitude": 55.825634, "longitude": -4.286059}, "roof": {"latitude": 55.825634, "longitude": -4.286059}}, "link": "/v3/places/589cd2aa005a0f1cef9e9343", "location": {"address": "228-232 Kilmarnock Rd", "admin_region": "Scotland", "country": "GB", "cross_street": "", "formatted_address": "228-232 Kilmarnock Rd, Glasgow, Glasgow City, G43 1TY", "locality": "Glasgow", "post_town": "Glasgow", "postcode": "G43 1TY", "region": "Glasgow City"}, "name": "Domino's Pizza", "related_places": {}, "timezone": "Europe/London"}, {"fsq_id": "5b6ecdecc9f907002ccedf8f", "categories": [{"id": 13065, "name": "Restaurant", "short_name": "Restaurant", "plural_name": "Restaurants", "icon": {"prefix": "https://ss3.4sqi.net/img/categories_v2/food/default_", "suffix": ".png"}}], "chains": [], "closed_bucket": "LikelyOpen", "distance": 638, "geocodes": {"main": {"latitude": 55.826168, "longitude": -4.285936}, "roof": {"latitude": 55.826168, "longitude": -4.285936}}, "link": "/v3/places/5b6ecdecc9f907002ccedf8f", "location": {"address": "210 Kilmarnock Rd", "admin_region": "Scotland", "country": "GB", "cross_street": "", "formatted_address": "210 Kilmarnock Rd, Glasgow, Glasgow City, G43 1TY", "locality": "Glasgow", "post_town": "Glasgow", "postcode": "G43 1TY", "region": "Glasgow City"}, "name": "Kilmurry & Co", "related_places": {}, "timezone": "Europe/London"}, {"fsq_id": "5e08d3c3743019000856bb99", "categories": [{"id": 13065, "name": "Restaurant", "short_name": "Restaurant", "plural_name": "Restaurants", "icon": {"prefix": "https://ss3.4sqi.net/img/categories_v2/food/default_", "suffix": ".png"}}], "chains": [], "closed_bucket": "LikelyOpen", "distance": 639, "geocodes": {"drop_off": {"latitude": 55.825191, "longitude": -4.285968}, "main": {"latitude": 55.825257, "longitude": -4.286188}, "roof": {"latitude": 55.825257, "longitude": -4.286188}}, "link": "/v3/places/5e08d3c3743019000856bb99", "location": {"address": "248 Kilmarnock Rd", "admin_region": "Scotland", "country": "GB", "cross_street": "", "formatted_address": "248 Kilmarnock Rd, Glasgow, Glasgow City, G43 1TT", "locality": "Glasgow", "post_town": "Glasgow", "postcode": "G43 1TT", "region": "Glasgow City"}, "name": "The Dapper Mongoose", "related_places": {}, "timezone": "Europe/London"}, {"fsq_id": "4cf2520c6c29236a40ec6aa2", "categories": [{"id": 13027, "name": "Bistro", "short_name": "Bistro", "plural_name": "Bistros", "icon": {"prefix": "https://ss3.4sqi.net/img/categories_v2/food/default_", "suffix": ".png"}}, {"id": 13034, "name": "Caf\u00e9", "short_name": "Caf\u00e9", "plural_name": "Caf\u00e9s", "icon": {"prefix": "https://ss3.4sqi.net/img/categories_v2/food/cafe_", "suffix": ".png"}}, {"id": 13035, "name": "Coffee Shop", "short_name": "Coffee Shop", "plural_name": "Coffee Shops", "icon": {"prefix": "https://ss3.4sqi.net/img/categories_v2/food/coffeeshop_", "suffix": ".png"}}], "chains": [], "closed_bucket": "LikelyOpen", "distance": 648, "geocodes": {"main": {"latitude": 55.826841, "longitude": -4.285221}, "roof": {"latitude": 55.826841, "longitude": -4.285221}}, "link": "/v3/places/4cf2520c6c29236a40ec6aa2", "location": {"address": "178 Kilmarnock Rd", "admin_region": "Scotland", "country": "GB", "cross_street": "", "formatted_address": "178 Kilmarnock Rd, Glasgow, Glasgow City, G41 3PG", "locality": "Glasgow", "post_town": "Glasgow", "postcode": "G41 3PG", "region": "Glasgow City"}, "name": "One Seven Ate", "related_places": {}, "timezone": "Europe/London"}, {"fsq_id": "5d27b7d6e7e5fc0023f51248", "categories": [{"id": 13066, "name": "Afghan Restaurant", "short_name": "Afghan", "plural_name": "Afghan Restaurants", "icon": {"prefix": "https://ss3.4sqi.net/img/categories_v2/food/afghan_", "suffix": ".png"}}], "chains": [], "closed_bucket": "LikelyOpen", "distance": 676, "geocodes": {"drop_off": {"latitude": 55.826931, "longitude": -4.28494}, "main": {"latitude": 55.82706, "longitude": -4.285088}, "roof": {"latitude": 55.82706, "longitude": -4.285088}}, "link": "/v3/places/5d27b7d6e7e5fc0023f51248", "location": {"address": "162 164 Kilmarnock Rd", "admin_region": "Scotland", "country": "GB", "cross_street": "", "formatted_address": "162 164 Kilmarnock Rd, Glasgow, Glasgow City", "locality": "Glasgow", "post_town": "Glasgow", "region": "Glasgow City"}, "name": "Bab-e-khyber", "related_places": {}, "timezone": "Europe/London"}, {"fsq_id": "4c3786b693db0f47a9f31f92", "categories": [{"id": 13018, "name": "Pub", "short_name": "Pub", "plural_name": "Pubs", "icon": {"prefix": "https://ss3.4sqi.net/img/categories_v2/nightlife/pub_", "suffix": ".png"}}], "chains": [], "closed_bucket": "VeryLikelyOpen", "distance": 686, "geocodes": {"drop_off": {"latitude": 55.827314, "longitude": -4.284604}, "main": {"latitude": 55.827448, "longitude": -4.284749}, "roof": {"latitude": 55.827448, "longitude": -4.284749}}, "link": "/v3/places/4c3786b693db0f47a9f31f92", "location": {"address": "137 Kilmarnock Road", "country": "GB", "formatted_address": "137 Kilmarnock Road, Glasgow, Glasgow City, G41 3YT", "locality": "Glasgow", "postcode": "G41 3YT", "region": "Glasgow City"}, "name": "The Millwood", "related_places": {}, "timezone": "Europe/London"}, {"fsq_id": "d86ee7df9f534abe9843973d", "categories": [{"id": 13065, "name": "Restaurant", "short_name": "Restaurant", "plural_name": "Restaurants", "icon": {"prefix": "https://ss3.4sqi.net/img/categories_v2/food/default_", "suffix": ".png"}}], "chains": [], "closed_bucket": "VeryLikelyOpen", "distance": 769, "geocodes": {"drop_off": {"latitude": 55.828717, "longitude": -4.283217}, "main": {"latitude": 55.828546, "longitude": -4.283067}, "roof": {"latitude": 55.828546, "longitude": -4.283067}}, "link": "/v3/places/d86ee7df9f534abe9843973d", "location": {"address": "95 Kilmarnock Rd", "admin_region": "Scotland", "country": "GB", "formatted_address": "95 Kilmarnock Rd, Glasgow, Glasgow City, G41 3YR", "locality": "Glasgow", "post_town": "Glasgow", "postcode": "G41 3YR", "region": "Glasgow City"}, "name": "Cathay Cuisine", "related_places": {}, "timezone": "Europe/London"}, {"fsq_id": "4b5dc155f964a520036a29e3", "categories": [{"id": 13003, "name": "Bar", "short_name": "Bar", "plural_name": "Bars", "icon": {"prefix": "https://ss3.4sqi.net/img/categories_v2/nightlife/pub_", "suffix": ".png"}}], "chains": [], "closed_bucket": "VeryLikelyOpen", "distance": 779, "geocodes": {"main": {"latitude": 55.828431, "longitude": -4.283239}, "roof": {"latitude": 55.828431, "longitude": -4.283239}}, "link": "/v3/places/4b5dc155f964a520036a29e3", "location": {"address": "87 Kilmarnock Rd", "admin_region": "Scotland", "country": "GB", "cross_street": "Walton St", "formatted_address": "87 Kilmarnock Rd (Walton St), Glasgow, Glasgow City, G41 3YR", "locality": "Glasgow", "post_town": "Glasgow", "postcode": "G41 3YR", "region": "Glasgow City"}, "name": "Bier Stube", "related_places": {}, "timezone": "Europe/London"}, {"fsq_id": "5c1d4dac971317002e29fc63", "categories": [{"id": 13072, "name": "Asian Restaurant", "short_name": "Asian", "plural_name": "Asian Restaurants", "icon": {"prefix": "https://ss3.4sqi.net/img/categories_v2/food/asian_", "suffix": ".png"}}], "chains": [], "closed_bucket": "LikelyOpen", "distance": 785, "geocodes": {"drop_off": {"latitude": 55.82863, "longitude": -4.283314}, "main": {"latitude": 55.828437, "longitude": -4.283134}, "roof": {"latitude": 55.828437, "longitude": -4.283134}}, "link": "/v3/places/5c1d4dac971317002e29fc63", "location": {"admin_region": "Scotland", "country": "GB", "cross_street": "", "formatted_address": "Glasgow, Glasgow City, G41 3YR", "locality": "Glasgow", "post_town": "Glasgow", "postcode": "G41 3YR", "region": "Glasgow City"}, "name": "Mr Wu's Disco Kitchen", "related_places": {}, "timezone": "Europe/London"}, {"fsq_id": "64e0abc10dc80c1be0b3567d", "categories": [{"id": 13057, "name": "Gastropub", "short_name": "Gastropub", "plural_name": "Gastropubs", "icon": {"prefix": "https://ss3.4sqi.net/img/categories_v2/food/gastropub_", "suffix": ".png"}}], "chains": [], "closed_bucket": "VeryLikelyOpen", "distance": 787, "geocodes": {"main": {"latitude": 55.828365, "longitude": -4.2831707}}, "link": "/v3/places/64e0abc10dc80c1be0b3567d", "location": {"address": "Kilmarnock Rd", "admin_region": "Scotland", "country": "GB", "cross_street": "", "formatted_address": "Kilmarnock Rd, Glasgow, Glasgow City, G41 3YR", "locality": "Glasgow", "post_town": "Glasgow", "postcode": "G41 3YR", "region": "Glasgow City"}, "name": "G41", "related_places": {}, "timezone": "Europe/London"}, {"fsq_id": "597c6c71898bdc5ce5ec4332", "categories": [{"id": 13354, "name": "Theme Restaurant", "short_name": "Theme Restaurant", "plural_name": "Theme Restaurants", "icon": {"prefix": "https://ss3.4sqi.net/img/categories_v2/food/default_", "suffix": ".png"}}], "chains": [], "closed_bucket": "Unsure", "distance": 803, "geocodes": {"main": {"latitude": 55.828655, "longitude": -4.283}, "roof": {"latitude": 55.828655, "longitude": -4.283}}, "link": "/v3/places/597c6c71898bdc5ce5ec4332", "location": {"address": "69 Kilmarnock Rd", "admin_region": "Scotland", "country": "GB", "cross_street": "", "formatted_address": "69 Kilmarnock Rd, Glasgow, Glasgow City, G41 3YR", "locality": "Glasgow", "post_town": "Glasgow", "postcode": "G41 3YR", "region": "Glasgow City"}, "name": "Lean Canteen", "related_places": {}, "timezone": "Europe/London"}, {"fsq_id": "5568ba07498e6e608f3723d9", "categories": [{"id": 13027, "name": "Bistro", "short_name": "Bistro", "plural_name": "Bistros", "icon": {"prefix": "https://ss3.4sqi.net/img/categories_v2/food/default_", "suffix": ".png"}}, {"id": 13039, "name": "Deli", "short_name": "Deli", "plural_name": "Delis", "icon": {"prefix": "https://ss3.4sqi.net/img/categories_v2/food/deli_", "suffix": ".png"}}, {"id": 13057, "name": "Gastropub", "short_name": "Gastropub", "plural_name": "Gastropubs", "icon": {"prefix": "https://ss3.4sqi.net/img/categories_v2/food/gastropub_", "suffix": ".png"}}], "chains": [], "closed_bucket": "LikelyOpen", "distance": 804, "geocodes": {"main": {"latitude": 55.828722, "longitude": -4.282757}, "roof": {"latitude": 55.828722, "longitude": -4.282757}}, "link": "/v3/places/5568ba07498e6e608f3723d9", "location": {"address": "67 Kilmarnock Rd", "admin_region": "Scotland", "country": "GB", "cross_street": "", "formatted_address": "67 Kilmarnock Rd, Glasgow, Glasgow City, G41 3YR", "locality": "Glasgow", "post_town": "Glasgow", "postcode": "G41 3YR", "region": "Glasgow City"}, "name": "Black Dove", "related_places": {}, "timezone": "Europe/London"}, {"fsq_id": "5b8993aa8ad62e002c9882dc", "categories": [{"id": 13194, "name": "Himalayan Restaurant", "short_name": "Himalayan", "plural_name": "Himalayan Restaurants", "icon": {"prefix": "https://ss3.4sqi.net/img/categories_v2/food/default_", "suffix": ".png"}}], "chains": [], "closed_bucket": "VeryLikelyOpen", "distance": 806, "geocodes": {"main": {"latitude": 55.828661, "longitude": -4.282896}, "roof": {"latitude": 55.828661, "longitude": -4.282896}}, "link": "/v3/places/5b8993aa8ad62e002c9882dc", "location": {"address": "71 Kilmarnock Rd", "admin_region": "Scotland", "country": "GB", "cross_street": "", "formatted_address": "71 Kilmarnock Rd, Glasgow, Glasgow City, G41 3YR", "locality": "Glasgow", "post_town": "Glasgow", "postcode": "G41 3YR", "region": "Glasgow City"}, "name": "Himalayan Dine", "related_places": {}, "timezone": "Europe/London"}, {"fsq_id": "588ddcc46d349d3000c56b41", "categories": [{"id": 13035, "name": "Coffee Shop", "short_name": "Coffee Shop", "plural_name": "Coffee Shops", "icon": {"prefix": "https://ss3.4sqi.net/img/categories_v2/food/coffeeshop_", "suffix": ".png"}}, {"id": 13377, "name": "Vegan and Vegetarian Restaurant", "short_name": "Vegan and Vegetarian Restaurant", "plural_name": "Vegan and Vegetarian Restaurants", "icon": {"prefix": "https://ss3.4sqi.net/img/categories_v2/food/vegetarian_", "suffix": ".png"}}], "chains": [], "closed_bucket": "LikelyOpen", "distance": 836, "geocodes": {"drop_off": {"latitude": 55.829316, "longitude": -4.282513}, "main": {"latitude": 55.829165, "longitude": -4.282386}, "roof": {"latitude": 55.829165, "longitude": -4.282386}}, "link": "/v3/places/588ddcc46d349d3000c56b41", "location": {"address": "51 Kilmarnock Rd", "admin_region": "Scotland", "country": "GB", "cross_street": "", "formatted_address": "51 Kilmarnock Rd, Glasgow, G41 3YN", "locality": "Glasgow", "post_town": "Glasgow", "postcode": "G41 3YN"}, "name": "Soy Division", "related_places": {}, "timezone": "Europe/London"}, {"fsq_id": "4e4d101e6284776ee129e240", "categories": [{"id": 13145, "name": "Fast Food Restaurant", "short_name": "Fast Food", "plural_name": "Fast Food Restaurants", "icon": {"prefix": "https://ss3.4sqi.net/img/categories_v2/food/fastfood_", "suffix": ".png"}}, {"id": 13334, "name": "Sandwich Spot", "short_name": "Sandwich Spot", "plural_name": "Sandwich Spots", "icon": {"prefix": "https://ss3.4sqi.net/img/categories_v2/food/deli_", "suffix": ".png"}}], "chains": [], "closed_bucket": "LikelyOpen", "distance": 838, "geocodes": {"main": {"latitude": 55.82911, "longitude": -4.282419}, "roof": {"latitude": 55.82911, "longitude": -4.282419}}, "link": "/v3/places/4e4d101e6284776ee129e240", "location": {"address": "51 Kilmarnock Rd", "admin_region": "Scotland", "country": "GB", "cross_street": "", "formatted_address": "51 Kilmarnock Rd, Glasgow, Glasgow City, G41 3YN", "locality": "Glasgow", "post_town": "Glasgow", "postcode": "G41 3YN", "region": "Glasgow City"}, "name": "Baguette Express", "related_places": {}, "timezone": "Europe/London"}, {"fsq_id": "5f560a15a878b571b2fc4965", "categories": [{"id": 13035, "name": "Coffee Shop", "short_name": "Coffee Shop", "plural_name": "Coffee Shops", "icon": {"prefix": "https://ss3.4sqi.net/img/categories_v2/food/coffeeshop_", "suffix": ".png"}}, {"id": 13055, "name": "Fried Chicken Joint", "short_name": "Fried Chicken", "plural_name": "Fried Chicken Joints", "icon": {"prefix": "https://ss3.4sqi.net/img/categories_v2/food/friedchicken_", "suffix": ".png"}}, {"id": 13145, "name": "Fast Food Restaurant", "short_name": "Fast Food", "plural_name": "Fast Food Restaurants", "icon": {"prefix": "https://ss3.4sqi.net/img/categories_v2/food/fastfood_", "suffix": ".png"}}], "chains": [], "closed_bucket": "VeryLikelyOpen", "distance": 849, "geocodes": {"main": {"latitude": 55.82911, "longitude": -4.282419}, "roof": {"latitude": 55.82911, "longitude": -4.282419}}, "link": "/v3/places/5f560a15a878b571b2fc4965", "location": {"address": "49 Kilmarnock Rd", "admin_region": "Scotland", "country": "GB", "cross_street": "", "formatted_address": "49 Kilmarnock Rd, Glasgow, Glasgow City, G41 3YN", "locality": "Glasgow", "post_town": "Glasgow", "postcode": "G41 3YN", "region": "Glasgow City"}, "name": "Porto PiriPiri", "related_places": {}, "timezone": "Europe/London"}, {"fsq_id": "6efaf11ba2d149c0bb701ad4", "categories": [{"id": 13035, "name": "Coffee Shop", "short_name": "Coffee Shop", "plural_name": "Coffee Shops", "icon": {"prefix": "https://ss3.4sqi.net/img/categories_v2/food/coffeeshop_", "suffix": ".png"}}, {"id": 13036, "name": "Tea Room", "short_name": "Tea Room", "plural_name": "Tea Rooms", "icon": {"prefix": "https://ss3.4sqi.net/img/categories_v2/food/tearoom_", "suffix": ".png"}}, {"id": 13065, "name": "Restaurant", "short_name": "Restaurant", "plural_name": "Restaurants", "icon": {"prefix": "https://ss3.4sqi.net/img/categories_v2/food/default_", "suffix": ".png"}}], "chains": [], "closed_bucket": "VeryLikelyOpen", "distance": 875, "geocodes": {"main": {"latitude": 55.829954, "longitude": -4.28241}, "roof": {"latitude": 55.829954, "longitude": -4.28241}}, "link": "/v3/places/6efaf11ba2d149c0bb701ad4", "location": {"address": "1171 Pollokshaws Rd", "admin_region": "Scotland", "country": "GB", "formatted_address": "1171 Pollokshaws Rd, Glasgow, G41 3NG", "locality": "Glasgow", "post_town": "Glasgow", "postcode": "G41 3NG"}, "name": "Eats by Heavenly Treats", "related_places": {}, "timezone": "Europe/London"}, {"fsq_id": "4c4dd46d51c2c928272b719d", "categories": [{"id": 12097, "name": "Social Club", "short_name": "Social Club", "plural_name": "Social Clubs", "icon": {"prefix": "https://ss3.4sqi.net/img/categories_v2/building/default_", "suffix": ".png"}}, {"id": 13065, "name": "Restaurant", "short_name": "Restaurant", "plural_name": "Restaurants", "icon": {"prefix": "https://ss3.4sqi.net/img/categories_v2/food/default_", "suffix": ".png"}}], "chains": [], "closed_bucket": "VeryLikelyOpen", "distance": 879, "geocodes": {"main": {"latitude": 55.829753, "longitude": -4.282229}, "roof": {"latitude": 55.829753, "longitude": -4.282229}}, "link": "/v3/places/4c4dd46d51c2c928272b719d", "location": {"address": "1179 Pollokshaws Rd", "admin_region": "Scotland", "country": "GB", "cross_street": "", "formatted_address": "1179 Pollokshaws Rd, Glasgow, G41 3YH", "locality": "Glasgow", "post_town": "Glasgow", "postcode": "G41 3YH"}, "name": "Social Southside", "related_places": {}, "timezone": "Europe/London"}, {"fsq_id": "5a92d4e59e3b652cb8c137cb", "categories": [{"id": 13003, "name": "Bar", "short_name": "Bar", "plural_name": "Bars", "icon": {"prefix": "https://ss3.4sqi.net/img/categories_v2/nightlife/pub_", "suffix": ".png"}}], "chains": [], "closed_bucket": "VeryLikelyOpen", "distance": 899, "geocodes": {"drop_off": {"latitude": 55.830025, "longitude": -4.282587}, "main": {"latitude": 55.829893, "longitude": -4.282548}, "roof": {"latitude": 55.829893, "longitude": -4.282548}}, "link": "/v3/places/5a92d4e59e3b652cb8c137cb", "location": {"address": "1179 Pollokshaws Rd", "admin_region": "Scotland", "country": "GB", "cross_street": "", "formatted_address": "1179 Pollokshaws Rd, Glasgow, Glasgow City, G41 3TL", "locality": "Glasgow", "post_town": "Glasgow", "postcode": "G41 3TL", "region": "Glasgow City"}, "name": "Phillies of Shawlands", "related_places": {"children": [{"fsq_id": "5acf864983e38048f1e5b816", "categories": [{"id": 13025, "name": "Wine Bar", "short_name": "Wine Bar", "plural_name": "Wine Bars", "icon": {"prefix": "https://ss3.4sqi.net/img/categories_v2/food/winery_", "suffix": ".png"}}], "name": "Curious Liquids"}]}, "timezone": "Europe/London"}, {"fsq_id": "4c0d624b336220a1a6a3ca77", "categories": [{"id": 13145, "name": "Fast Food Restaurant", "short_name": "Fast Food", "plural_name": "Fast Food Restaurants", "icon": {"prefix": "https://ss3.4sqi.net/img/categories_v2/food/fastfood_", "suffix": ".png"}}, {"id": 13199, "name": "Indian Restaurant", "short_name": "Indian", "plural_name": "Indian Restaurants", "icon": {"prefix": "https://ss3.4sqi.net/img/categories_v2/food/indian_", "suffix": ".png"}}], "chains": [], "closed_bucket": "VeryLikelyOpen", "distance": 911, "geocodes": {"main": {"latitude": 55.821191, "longitude": -4.288163}, "roof": {"latitude": 55.821191, "longitude": -4.288163}}, "link": "/v3/places/4c0d624b336220a1a6a3ca77", "location": {"address": "184 Riverford Rd", "admin_region": "Scotland", "country": "GB", "cross_street": "", "formatted_address": "184 Riverford Rd, Glasgow, Glasgow City, G43 2DE", "locality": "Glasgow", "post_town": "Glasgow", "postcode": "G43 2DE", "region": "Glasgow City"}, "name": "Natural Spice", "related_places": {}, "timezone": "Europe/London"}, {"fsq_id": "5c5f310935811b002c025c75", "categories": [{"id": 13051, "name": "Fish and Chips Shop", "short_name": "Fish and Chips Shop", "plural_name": "Fish and Chips Shops", "icon": {"prefix": "https://ss3.4sqi.net/img/categories_v2/food/fishandchips_", "suffix": ".png"}}], "chains": [], "closed_bucket": "LikelyOpen", "distance": 926, "geocodes": {"main": {"latitude": 55.829844, "longitude": -4.281566}, "roof": {"latitude": 55.829844, "longitude": -4.281566}}, "link": "/v3/places/5c5f310935811b002c025c75", "location": {"address": "1 Kilmarnock Rd", "admin_region": "Scotland", "country": "GB", "cross_street": "Kilmarnock Road", "formatted_address": "1 Kilmarnock Rd (Kilmarnock Road), Glasgow, G41 3YN", "locality": "Glasgow", "post_town": "Glasgow", "postcode": "G41 3YN"}, "name": "Batter N", "related_places": {}, "timezone": "Europe/London"}, {"fsq_id": "6190ebd737166e09a80fb67d", "categories": [{"id": 13065, "name": "Restaurant", "short_name": "Restaurant", "plural_name": "Restaurants", "icon": {"prefix": "https://ss3.4sqi.net/img/categories_v2/food/default_", "suffix": ".png"}}], "chains": [], "closed_bucket": "LikelyOpen", "distance": 931, "geocodes": {"drop_off": {"latitude": 55.830079, "longitude": -4.28155}, "main": {"latitude": 55.829905, "longitude": -4.281428}, "roof": {"latitude": 55.829905, "longitude": -4.281428}}, "link": "/v3/places/6190ebd737166e09a80fb67d", "location": {"address": "1 Kilmarnock Rd", "admin_region": "Scotland", "country": "GB", "cross_street": "", "formatted_address": "1 Kilmarnock Rd, Glasgow, Glasgow City, G41 3YN", "locality": "Glasgow", "post_town": "Glasgow", "postcode": "G41 3YN", "region": "Glasgow City"}, "name": "Oscar Bar&Kitchen", "related_places": {}, "timezone": "Europe/London"}, {"fsq_id": "4b805ad7f964a520b66a30e3", "categories": [{"id": 10032, "name": "Night Club", "short_name": "Night Club", "plural_name": "Night Clubs", "icon": {"prefix": "https://ss3.4sqi.net/img/categories_v2/nightlife/nightclub_", "suffix": ".png"}}, {"id": 13003, "name": "Bar", "short_name": "Bar", "plural_name": "Bars", "icon": {"prefix": "https://ss3.4sqi.net/img/categories_v2/nightlife/pub_", "suffix": ".png"}}, {"id": 13352, "name": "Thai Restaurant", "short_name": "Thai", "plural_name": "Thai Restaurants", "icon": {"prefix": "https://ss3.4sqi.net/img/categories_v2/food/thai_", "suffix": ".png"}}], "chains": [], "closed_bucket": "LikelyOpen", "distance": 945, "geocodes": {"main": {"latitude": 55.831094, "longitude": -4.281815}, "roof": {"latitude": 55.831094, "longitude": -4.281815}}, "link": "/v3/places/4b805ad7f964a520b66a30e3", "location": {"address": "18 Moss Side Rd", "admin_region": "Scotland", "country": "GB", "cross_street": "", "formatted_address": "18 Moss Side Rd, Shawlands, Glasgow City, G41 3TN", "locality": "Shawlands", "post_town": "Glasgow", "postcode": "G41 3TN", "region": "Glasgow City"}, "name": "Tusk", "related_places": {}, "timezone": "Europe/London"}, {"fsq_id": "5b5306d293bd63002c001300", "categories": [{"id": 13034, "name": "Caf\u00e9", "short_name": "Caf\u00e9", "plural_name": "Caf\u00e9s", "icon": {"prefix": "https://ss3.4sqi.net/img/categories_v2/food/cafe_", "suffix": ".png"}}, {"id": 13065, "name": "Restaurant", "short_name": "Restaurant", "plural_name": "Restaurants", "icon": {"prefix": "https://ss3.4sqi.net/img/categories_v2/food/default_", "suffix": ".png"}}], "chains": [], "closed_bucket": "Unsure", "distance": 961, "geocodes": {"drop_off": {"latitude": 55.829739, "longitude": -4.280832}, "main": {"latitude": 55.829619, "longitude": -4.280894}, "roof": {"latitude": 55.829619, "longitude": -4.280894}}, "link": "/v3/places/5b5306d293bd63002c001300", "location": {"address": "17 Skirving St", "admin_region": "Scotland", "country": "GB", "cross_street": "", "formatted_address": "17 Skirving St, Glasgow, Glasgow City, G41 3AB", "locality": "Glasgow", "post_town": "Glasgow", "postcode": "G41 3AB", "region": "Glasgow City"}, "name": "Hug Cafe", "related_places": {}, "timezone": "Europe/London"}, {"fsq_id": "58ea1fa2fc73d405a207e9b7", "categories": [{"id": 13039, "name": "Deli", "short_name": "Deli", "plural_name": "Delis", "icon": {"prefix": "https://ss3.4sqi.net/img/categories_v2/food/deli_", "suffix": ".png"}}, {"id": 17069, "name": "Grocery Store", "short_name": "Grocery Store", "plural_name": "Grocery Stores", "icon": {"prefix": "https://ss3.4sqi.net/img/categories_v2/shops/food_grocery_", "suffix": ".png"}}], "chains": [], "closed_bucket": "VeryLikelyOpen", "distance": 972, "geocodes": {"drop_off": {"latitude": 55.830599, "longitude": -4.281171}, "main": {"latitude": 55.830766, "longitude": -4.281104}, "roof": {"latitude": 55.830766, "longitude": -4.281104}}, "link": "/v3/places/58ea1fa2fc73d405a207e9b7", "location": {"admin_region": "Scotland", "country": "GB", "cross_street": "", "formatted_address": "Glasgow, Glasgow City, G41 3TL", "locality": "Glasgow", "post_town": "Glasgow", "postcode": "G41 3TL", "region": "Glasgow City"}, "name": "Shawlands Continental", "related_places": {}, "timezone": "Europe/London"}, {"fsq_id": "5182b140498e5b375e6bc442", "categories": [{"id": 13099, "name": "Chinese Restaurant", "short_name": "Chinese", "plural_name": "Chinese Restaurants", "icon": {"prefix": "https://ss3.4sqi.net/img/categories_v2/food/asian_", "suffix": ".png"}}], "chains": [], "closed_bucket": "LikelyOpen", "distance": 1021, "geocodes": {"main": {"latitude": 55.827114, "longitude": -4.285054}, "roof": {"latitude": 55.827114, "longitude": -4.285054}}, "link": "/v3/places/5182b140498e5b375e6bc442", "location": {"address": "162 Kilmarnock Rd", "admin_region": "Scotland", "country": "GB", "cross_street": "", "formatted_address": "162 Kilmarnock Rd, Glasgow, G41 3PG", "locality": "Glasgow", "post_town": "Glasgow", "postcode": "G41 3PG"}, "name": "Tao Chinese Takeaway", "related_places": {}, "timezone": "Europe/London"}, {"fsq_id": "6a729aeca40c489d49dc50c9", "categories": [{"id": 13003, "name": "Bar", "short_name": "Bar", "plural_name": "Bars", "icon": {"prefix": "https://ss3.4sqi.net/img/categories_v2/nightlife/pub_", "suffix": ".png"}}, {"id": 13065, "name": "Restaurant", "short_name": "Restaurant", "plural_name": "Restaurants", "icon": {"prefix": "https://ss3.4sqi.net/img/categories_v2/food/default_", "suffix": ".png"}}], "chains": [], "closed_bucket": "Unsure", "distance": 30, "geocodes": {"drop_off": {"latitude": 55.827513, "longitude": -4.295442}, "main": {"latitude": 55.827623, "longitude": -4.295473}, "roof": {"latitude": 55.827623, "longitude": -4.295473}}, "link": "/v3/places/6a729aeca40c489d49dc50c9", "location": {"admin_region": "Scotland", "country": "GB", "formatted_address": "Glasgow", "locality": "Glasgow", "post_town": "Glasgow"}, "name": "1901 Public House", "related_places": {}}, {"fsq_id": "a6fd60fd248b9da1980f75f0", "categories": [{"id": 13072, "name": "Asian Restaurant", "short_name": "Asian", "plural_name": "Asian Restaurants", "icon": {"prefix": "https://ss3.4sqi.net/img/categories_v2/food/asian_", "suffix": ".png"}}, {"id": 13145, "name": "Fast Food Restaurant", "short_name": "Fast Food", "plural_name": "Fast Food Restaurants", "icon": {"prefix": "https://ss3.4sqi.net/img/categories_v2/food/fastfood_", "suffix": ".png"}}], "chains": [], "closed_bucket": "Unsure", "distance": 632, "geocodes": {"drop_off": {"latitude": 55.823374, "longitude": -4.288066}, "main": {"latitude": 55.823565, "longitude": -4.288132}, "roof": {"latitude": 55.823565, "longitude": -4.288132}}, "link": "/v3/places/a6fd60fd248b9da1980f75f0", "location": {"address": "16 Newlandsfield Rd", "admin_region": "Scotland", "country": "GB", "formatted_address": "16 Newlandsfield Rd, Glasgow", "locality": "Glasgow", "post_town": "Glasgow"}, "name": "Bao Craft", "related_places": {}}, {"fsq_id": "04d00a50dda847e73a433bbb", "categories": [{"id": 13003, "name": "Bar", "short_name": "Bar", "plural_name": "Bars", "icon": {"prefix": "https://ss3.4sqi.net/img/categories_v2/nightlife/pub_", "suffix": ".png"}}, {"id": 13065, "name": "Restaurant", "short_name": "Restaurant", "plural_name": "Restaurants", "icon": {"prefix": "https://ss3.4sqi.net/img/categories_v2/food/default_", "suffix": ".png"}}], "chains": [], "closed_bucket": "Unsure", "distance": 718, "geocodes": {"main": {"latitude": 55.827587, "longitude": -4.284158}, "roof": {"latitude": 55.827587, "longitude": -4.284158}}, "link": "/v3/places/04d00a50dda847e73a433bbb", "location": {"address": "137-139 Kilmarnock Rd", "admin_region": "Scotland", "country": "GB", "formatted_address": "137-139 Kilmarnock Rd, Glasgow, G41 3YT", "locality": "Glasgow", "post_town": "Glasgow", "postcode": "G41 3YT"}, "name": "Finlays Bar", "related_places": {}}, {"fsq_id": "0e856cd0ccd94014364ed9b1", "categories": [{"id": 13034, "name": "Caf\u00e9", "short_name": "Caf\u00e9", "plural_name": "Caf\u00e9s", "icon": {"prefix": "https://ss3.4sqi.net/img/categories_v2/food/cafe_", "suffix": ".png"}}, {"id": 13065, "name": "Restaurant", "short_name": "Restaurant", "plural_name": "Restaurants", "icon": {"prefix": "https://ss3.4sqi.net/img/categories_v2/food/default_", "suffix": ".png"}}], "chains": [], "closed_bucket": "Unsure", "distance": 846, "geocodes": {"drop_off": {"latitude": 55.827868, "longitude": -4.282205}, "main": {"latitude": 55.827756, "longitude": -4.282132}, "roof": {"latitude": 55.827756, "longitude": -4.282132}}, "link": "/v3/places/0e856cd0ccd94014364ed9b1", "location": {"address": "159 Deanston Dr Shawlands", "admin_region": "Scotland", "country": "GB", "formatted_address": "159 Deanston Dr Shawlands, Glasgow", "locality": "Glasgow", "post_town": "Glasgow"}, "name": "Theshakincow", "related_places": {}}, {"fsq_id": "59ce0b1f4d1a4fd2529d4286", "categories": [{"id": 13003, "name": "Bar", "short_name": "Bar", "plural_name": "Bars", "icon": {"prefix": "https://ss3.4sqi.net/img/categories_v2/nightlife/pub_", "suffix": ".png"}}], "chains": [], "closed_bucket": "Unsure", "distance": 964, "geocodes": {"drop_off": {"latitude": 55.830927, "longitude": -4.282039}, "main": {"latitude": 55.831301, "longitude": -4.281891}, "roof": {"latitude": 55.831301, "longitude": -4.281891}}, "link": "/v3/places/59ce0b1f4d1a4fd2529d4286", "location": {"address": "18 Moss Side Rd", "admin_region": "Scotland", "country": "GB", "formatted_address": "18 Moss Side Rd, Glasgow, G41 3TN", "locality": "Glasgow", "post_town": "Glasgow", "postcode": "G41 3TN"}, "name": "G1 Group", "related_places": {}}], "context": {"geo_bounds": {"circle": {"center": {"latitude": 55.827371, "longitude": -4.29567}, "radius": 1000}}}}