{"results": [{"fsq_id": "5a2827685f68b945803031a9", "categories": [{"id": 13064, "name": "Pizzeria", "short_name": "Pizza", "plural_name": "Pizzerias", "icon": {"prefix": "https://ss3.4sqi.net/img/categories_v2/food/pizza_", "suffix": ".png"}}, {"id": 13145, "name": "Fast Food Restaurant", "short_name": "Fast Food", "plural_name": "Fast Food Restaurants", "icon": {"prefix": "https://ss3.4sqi.net/img/categories_v2/food/fastfood_", "suffix": ".png"}}], "chains": [{"id": "ab4afc60-d68a-012e-5619-003048cad9da", "name": "Domino's Pizza"}], "closed_bucket": "VeryLikelyOpen", "distance": 29, "geocodes": {"main": {"latitude": 55.890122, "longitude": -4.324672}, "roof": {"latitude": 55.890122, "longitude": -4.324672}}, "link": "/v3/places/5a2827685f68b945803031a9", "location": {"address": "828 Crow Rd", "admin_region": "Scotland", "country": "GB", "cross_street": "", "formatted_address": "828 Crow Rd, Glasgow, Glasgow City, G13 1HA", "locality": "Glasgow", "post_town": "Glasgow", "postcode": "G13 1HA", "region": "Glasgow City"}, "name": "Domino's Pizza", "related_places": {}, "timezone": "Europe/London"}, {"fsq_id": "4c0d69a1d64c0f47baab265d", "categories": [{"id": 13018, "name": "Pub", "short_name": "Pub", "plural_name": "Pubs", "icon": {"prefix": "https://ss3.4sqi.net/img/categories_v2/nightlife/pub_", "suffix": ".png"}}, {"id": 13065, "name": "Restaurant", "short_name": "Restaurant", "plural_name": "Restaurants", "icon": {"prefix": "https://ss3.4sqi.net/img/categories_v2/food/default_", "suffix": ".png"}}], "chains": [{"id": "07841cd9-3716-4bd6-8ebd-ad13070b3125", "name": "J D Wetherspoon"}], "closed_bucket": "Unsure", "distance": 1068, "geocodes": {"main": {"latitude": 55.888446, "longitude": -4.321743}, "roof": {"latitude": 55.888446, "longitude": -4.321743}}, "link": "/v3/places/4c0d69a1d64c0f47baab265d", "location": {"address": "1487 Great Western Rd", "admin_region": "Scotland", "country": "GB", "formatted_address": "1487 Great Western Rd, Glasgow, Glasgow City, G12 0AU", "locality": "Glasgow", "post_town": "Glasgow", "postcode": "G12 0AU", "region": "Glasgow City"}, "name": "The Esquire House", "related_places": {}, "timezone": "Europe/London"}, {"fsq_id": "4b939ecff964a5208f4a34e3", "categories": [{"id": 13031, "name": "Burger Joint", "short_name": "Burgers", "plural_name": "Burger Joints", "icon": {"prefix": "https://ss3.4sqi.net/img/categories_v2/food/burger_", "suffix": ".png"}}, {"id": 13145, "name": "Fast Food Restaurant", "short_name": "Fast Food", "plural_name": "Fast Food Restaurants", "icon": {"prefix": "https://ss3.4sqi.net/img/categories_v2/food/fastfood_", "suffix": ".png"}}], "chains": [{"id": "ab4a3530-d68a-012e-5619-003048cad9da", "name": "McDonald's"}], "closed_bucket": "VeryLikelyOpen", "distance": 467, "geocodes": {"main": {"latitude": 55.891987, "longitude": -4.331642}, "roof": {"latitude": 55.891987, "longitude": -4.331642}}, "link": "/v3/places/4b939ecff964a5208f4a34e3", "location": {"address": "1841 Great Western Rd", "admin_region": "Scotland", "country": "GB", "cross_street": "", "formatted_address": "1841 Great Western Rd, Anniesland, Glasgow City, G13 2UX", "locality": "Anniesland", "post_town": "Glasgow", "postcode": "G13 2UX", "region": "Glasgow City"}, "name": "McDonald's", "related_places": {}, "timezone": "Europe/London"}, {"fsq_id": "4c02bc10187ec928e7a7b47b", "categories": [{"id": 13018, "name": "Pub", "short_name": "Pub", "plural_name": "Pubs", "icon": {"prefix": "https://ss3.4sqi.net/img/categories_v2/nightlife/pub_", "suffix": ".png"}}, {"id": 13065, "name": "Restaurant", "short_name": "Restaurant", "plural_name": "Restaurants", "icon": {"prefix": "https://ss3.4sqi.net/img/categories_v2/food/default_", "suffix": ".png"}}], "chains": [], "closed_bucket": "LikelyOpen", "distance": 586, "geocodes": {"main": {"latitude": 55.894924, "longitude": -4.319914}, "roof": {"latitude": 55.894924, "longitude": -4.319914}}, "link": "/v3/places/4c02bc10187ec928e7a7b47b", "location": {"address": "1100 Crow Rd", "admin_region": "Scotland", "country": "GB", "formatted_address": "1100 Crow Rd, Glasgow, Glasgow City, G13 1JT", "locality": "Glasgow", "post_town": "Glasgow", "postcode": "G13 1JT", "region": "Glasgow City"}, "name": "Lock 27", "related_places": {}, "timezone": "Europe/London"}, {"fsq_id": "4c4ae1b5f7b49c745dc2fbc1", "categories": [{"id": 13018, "name": "Pub", "short_name": "Pub", "plural_name": "Pubs", "icon": {"prefix": "https://ss3.4sqi.net/img/categories_v2/nightlife/pub_", "suffix": ".png"}}, {"id": 13065, "name": "Restaurant", "short_name": "Restaurant", "plural_name": "Restaurants", "icon": {"prefix": "https://ss3.4sqi.net/img/categories_v2/food/default_", "suffix": ".png"}}], "chains": [], "closed_bucket": "LikelyOpen", "distance": 1065, "geocodes": {"main": {"latitude": 55.882133, "longitude": -4.327119}, "roof": {"latitude": 55.882133, "longitude": -4.327119}}, "link": "/v3/places/4c4ae1b5f7b49c745dc2fbc1", "location": {"address": "501 Crow Rd", "admin_region": "Scotland", "country": "GB", "cross_street": "", "formatted_address": "501 Crow Rd, Glasgow, Glasgow City, G11 7DN", "locality": "Glasgow", "post_town": "Glasgow", "postcode": "G11 7DN", "region": "Glasgow City"}, "name": "The Three Craws", "related_places": {}, "timezone": "Europe/London"}, {"fsq_id": "0487c25cca65860bb3d6b73a", "categories": [{"id": 13035, "name": "Coffee Shop", "short_name": "Coffee Shop", "plural_name": "Coffee Shops", "icon": {"prefix": "https://ss3.4sqi.net/img/categories_v2/food/coffeeshop_", "suffix": ".png"}}, {"id": 13065, "name": "Restaurant", "short_name": "Restaurant", "plural_name": "Restaurants", "icon": {"prefix": "https://ss3.4sqi.net/img/categories_v2/food/default_", "suffix": ".png"}}], "chains": [], "closed_bucket": "LikelyOpen", "distance": 49, "geocodes": {"drop_off": {"latitude": 55.889833, "longitude": -4.324277}, "main": {"latitude": 55.890097, "longitude": -4.32418}, "roof": {"latitude": 55.890097, "longitude": -4.32418}}, "link": "/v3/places/0487c25cca65860bb3d6b73a", "location": {"address": "1632 Great Western Rd", "admin_region": "Scotland", "country": "GB", "formatted_address": "1632 Great Western Rd, Glasgow, Glasgow City, G13 1HH", "locality": "Glasgow", "post_town": "Glasgow", "postcode": "G13 1HH", "region": "Glasgow City"}, "name": "Brooklands Cafe", "related_places": {}, "timezone": "Europe/London"}, {"fsq_id": "510c45dee4b01d3ae6e87a1e", "categories": [{"id": 13003, "name": "Bar", "short_name": "Bar", "plural_name": "Bars", "icon": {"prefix": "https://ss3.4sqi.net/img/categories_v2/nightlife/pub_", "suffix": ".png"}}], "chains": [], "closed_bucket": "VeryLikelyOpen", "distance": 70, "geocodes": {"drop_off": {"latitude": 55.889588, "longitude": -4.325076}, "main": {"latitude": 55.889691, "longitude": -4.324834}, "roof": {"latitude": 55.889691, "longitude": -4.324834}}, "link": "/v3/places/510c45dee4b01d3ae6e87a1e", "location": {"country": "GB", "cross_street": "", "formatted_address": "", "post_town": "Glasgow"}, "name": "BJ's", "related_places": {}, "timezone": "Europe/London"}, {"fsq_id": "5b8074f3603d2a00396d25c0", "categories": [{"id": 13034, "name": "Caf\u00e9", "short_name": "Caf\u00e9", "plural_name": "Caf\u00e9s", "icon": {"prefix": "https://ss3.4sqi.net/img/categories_v2/food/cafe_", "suffix": ".png"}}, {"id": 13065, "name": "Restaurant", "short_name": "Restaurant", "plural_name": "Restaurants", "icon": {"prefix": "https://ss3.4sqi.net/img/categories_v2/food/default_", "suffix": ".png"}}], "chains": [], "closed_bucket": "Unsure", "distance": 83, "geocodes": {"main": {"latitude": 55.889637, "longitude": -4.324867}, "roof": {"latitude": 55.889637, "longitude": -4.324867}}, "link": "/v3/places/5b8074f3603d2a00396d25c0", "location": {"address": "808 Crow Rd", "admin_region": "Scotland", "country": "GB", "cross_street": "", "formatted_address": "808 Crow Rd, Glasgow, Glasgow City, G13 1LY", "locality": "Glasgow", "post_town": "Glasgow", "postcode": "G13 1LY", "region": "Glasgow City"}, "name": "Beefcake Cafe", "related_places": {}, "timezone": "Europe/London"}, {"fsq_id": "50d30a5ee4b006c470df3203", "categories": [{"id": 13236, "name": "Italian Restaurant", "short_name": "Italian", "plural_name": "Italian Restaurants", "icon": {"prefix": "https://ss3.4sqi.net/img/categories_v2/food/italian_", "suffix": ".png"}}], "chains": [], "closed_bucket": "VeryLikelyOpen", "distance": 89, "geocodes": {"main": {"latitude": 55.889533, "longitude": -4.324829}, "roof": {"latitude": 55.889533, "longitude": -4.324829}}, "link": "/v3/places/50d30a5ee4b006c470df3203", "location": {"address": "808 Crow Rd", "admin_region": "Scotland", "country": "GB", "cross_street": "", "formatted_address": "808 Crow Rd, Glasgow, G13 1LY", "locality": "Glasgow", "post_town": "Glasgow", "postcode": "G13 1LY"}, "name": "Ecco", "related_places": {}, "timezone": "Europe/London"}, {"fsq_id": "4d6e4de3ffedf04d29d860c5", "categories": [{"id": 13145, "name": "Fast Food Restaurant", "short_name": "Fast Food", "plural_name": "Fast Food Restaurants", "icon": {"prefix": "https://ss3.4sqi.net/img/categories_v2/food/fastfood_", "suffix": ".png"}}], "chains": [], "closed_bucket": "VeryLikelyOpen", "distance": 168, "geocodes": {"main": {"latitude": 55.889484, "longitude": -4.322933}, "roof": {"latitude": 55.889484, "longitude": -4.322933}}, "link": "/v3/places/4d6e4de3ffedf04d29d860c5", "location": {"country": "GB", "cross_street": "", "formatted_address": "Glasgow, Glasgow City", "locality": "Glasgow", "post_town": "Glasgow", "region": "Glasgow City"}, "name": "Gennaro's Chippy", "related_places": {}, "timezone": "Europe/London"}, {"fsq_id": "2a5263b2cf914b26131d6d25", "categories": [{"id": 13051, "name": "Fish and Chips Shop", "short_name": "Fish and Chips Shop", "plural_name": "Fish and Chips Shops", "icon": {"prefix": "https://ss3.4sqi.net/img/categories_v2/food/fishandchips_", "suffix": ".png"}}, {"id": 13064, "name": "Pizzeria", "short_name": "Pizza", "plural_name": "Pizzerias", "icon": {"prefix": "https://ss3.4sqi.net/img/categories_v2/food/pizza_", "suffix": ".png"}}, {"id": 13338, "name": "Seafood Restaurant", "short_name": "Seafood", "plural_name": "Seafood Restaurants", "icon": {"prefix": "https://ss3.4sqi.net/img/categories_v2/food/seafood_", "suffix": ".png"}}], "chains": [], "closed_bucket": "LikelyOpen", "distance": 194, "geocodes": {"main": {"latitude": 55.889308, "longitude": -4.322331}, "roof": {"latitude": 55.889308, "longitude": -4.322331}}, "link": "/v3/places/2a5263b2cf914b26131d6d25", "location": {"address": "1556 Great Western Rd", "admin_region": "Scotland", "country": "GB", "formatted_address": "1556 Great Western Rd, Glasgow, G13 1HJ", "locality": "Glasgow", "post_town": "Glasgow", "postcode": "G13 1HJ"}, "name": "Gennaro's", "related_places": {}, "timezone": "Europe/London"}, {"fsq_id": "4f2d8c20e4b09d49e88a4891", "categories": [{"id": 13099, "name": "Chinese Restaurant", "short_name": "Chinese", "plural_name": "Chinese Restaurants", "icon": {"prefix": "https://ss3.4sqi.net/img/categories_v2/food/asian_", "suffix": ".png"}}], "chains": [], "closed_bucket": "VeryLikelyOpen", "distance": 246, "geocodes": {"main": {"latitude": 55.889308, "longitude": -4.322331}, "roof": {"latitude": 55.889308, "longitude": -4.322331}}, "link": "/v3/places/4f2d8c20e4b09d49e88a4891", "location": {"address": "1550 Great Western Rd", "admin_region": "Scotland", "country": "GB", "cross_street": "", "formatted_address": "1550 Great Western Rd, Glasgow, Glasgow City, G13 1HJ", "locality": "Glasgow", "post_town": "Glasgow", "postcode": "G13 1HJ", "region": "Glasgow City"}, "name": "Home Wok Express", "related_places": {}, "timezone": "Europe/London"}, {"fsq_id": "4e17710b1f6eb955987037a0", "categories": [{"id": 13199, "name": "Indian Restaurant", "short_name": "Indian", "plural_name": "Indian Restaurants", "icon": {"prefix": "https://ss3.4sqi.net/img/categories_v2/food/indian_", "suffix": ".png"}}], "chains": [], "closed_bucket": "VeryLikelyOpen", "distance": 268, "geocodes": {"main": {"latitude": 55.892651, "longitude": -4.323735}, "roof": {"latitude": 55.892651, "longitude": -4.323735}}, "link": "/v3/places/4e17710b1f6eb955987037a0", "location": {"admin_region": "Scotland", "country": "GB", "cross_street": "", "formatted_address": "Glasgow, Glasgow City", "locality": "Glasgow", "post_town": "Glasgow", "region": "Glasgow City"}, "name": "Agra Indian Restaurant", "related_places": {}, "timezone": "Europe/London"}, {"fsq_id": "4d7e700cdd4a6ea8505e6925", "categories": [{"id": 13099, "name": "Chinese Restaurant", "short_name": "Chinese", "plural_name": "Chinese Restaurants", "icon": {"prefix": "https://ss3.4sqi.net/img/categories_v2/food/asian_", "suffix": ".png"}}], "chains": [], "closed_bucket": "VeryLikelyOpen", "distance": 287, "geocodes": {"main": {"latitude": 55.892778, "longitude": -4.322441}, "roof": {"latitude": 55.892778, "longitude": -4.322441}}, "link": "/v3/places/4d7e700cdd4a6ea8505e6925", "location": {"address": "Glasgow, Glasgow City", "admin_region": "Scotland", "country": "GB", "cross_street": "", "formatted_address": "Glasgow, Glasgow City, Glasgow, Glasgow City, G13 1JD", "locality": "Glasgow", "post_town": "Glasgow", "postcode": "G13 1JD", "region": "Glasgow City"}, "name": "New Sky Dragon", "related_places": {}, "timezone": "Europe/London"}, {"fsq_id": "5d5c51fb1691480008f196c9", "categories": [{"id": 13199, "name": "Indian Restaurant", "short_name": "Indian", "plural_name": "Indian Restaurants", "icon": {"prefix": "https://ss3.4sqi.net/img/categories_v2/food/indian_", "suffix": ".png"}}], "chains": [], "closed_bucket": "VeryLikelyOpen", "distance": 393, "geocodes": {"drop_off": {"latitude": 55.893569, "longitude": -4.32194}, "main": {"latitude": 55.893694, "longitude": -4.322085}, "roof": {"latitude": 55.893694, "longitude": -4.322085}}, "link": "/v3/places/5d5c51fb1691480008f196c9", "location": {"address": "995 Crow St", "admin_region": "Scotland", "country": "GB", "cross_street": "", "formatted_address": "995 Crow St, Glasgow, Glasgow City, G13 1JN", "locality": "Glasgow", "post_town": "Glasgow", "postcode": "G13 1JN", "region": "Glasgow City"}, "name": "Bawarchi Indian restaurant", "related_places": {}, "timezone": "Europe/London"}, {"fsq_id": "4da0d5817aee5481ae1db4fe", "categories": [{"id": 13102, "name": "Cantonese Restaurant", "short_name": "Cantonese", "plural_name": "Cantonese Restaurants", "icon": {"prefix": "https://ss3.4sqi.net/img/categories_v2/food/asian_", "suffix": ".png"}}], "chains": [], "closed_bucket": "VeryLikelyOpen", "distance": 422, "geocodes": {"main": {"latitude": 55.893973, "longitude": -4.321813}, "roof": {"latitude": 55.893973, "longitude": -4.321813}}, "link": "/v3/places/4da0d5817aee5481ae1db4fe", "location": {"address": "1015 Crow Rd", "admin_region": "Scotland", "country": "GB", "cross_street": "Anniesland", "formatted_address": "1015 Crow Rd (Anniesland), Glasgow, G13 1JP", "locality": "Glasgow", "post_town": "Glasgow", "postcode": "G13 1JP"}, "name": "I Chai Restaurant", "related_places": {}, "timezone": "Europe/London"}, {"fsq_id": "4ef8c86630f894d8698e078b", "categories": [{"id": 13051, "name": "Fish and Chips Shop", "short_name": "Fish and Chips Shop", "plural_name": "Fish and Chips Shops", "icon": {"prefix": "https://ss3.4sqi.net/img/categories_v2/food/fishandchips_", "suffix": ".png"}}], "chains": [], "closed_bucket": "VeryLikelyOpen", "distance": 534, "geocodes": {"main": {"latitude": 55.890919, "longitude": -4.316279}, "roof": {"latitude": 55.890919, "longitude": -4.316279}}, "link": "/v3/places/4ef8c86630f894d8698e078b", "location": {"address": "1556 Great Western Rd", "country": "GB", "cross_street": "", "formatted_address": "1556 Great Western Rd, Glasgow, Glasgow City", "locality": "Glasgow", "post_town": "Glasgow", "region": "Glasgow City"}, "name": "Genarros Fish and Chip Ship", "related_places": {}, "timezone": "Europe/London"}, {"fsq_id": "4e73917afa76812398eab448", "categories": [{"id": 13191, "name": "Halal Restaurant", "short_name": "Halal", "plural_name": "Halal Restaurants", "icon": {"prefix": "https://ss3.4sqi.net/img/categories_v2/food/halal_", "suffix": ".png"}}, {"id": 13199, "name": "Indian Restaurant", "short_name": "Indian", "plural_name": "Indian Restaurants", "icon": {"prefix": "https://ss3.4sqi.net/img/categories_v2/food/indian_", "suffix": ".png"}}, {"id": 13288, "name": "Kebab Restaurant", "short_name": "Kebab", "plural_name": "Kebab Restaurants", "icon": {"prefix": "https://ss3.4sqi.net/img/categories_v2/food/middleeastern_", "suffix": ".png"}}], "chains": [], "closed_bucket": "VeryLikelyOpen", "distance": 612, "geocodes": {"main": {"latitude": 55.89019, "longitude": -4.315204}, "roof": {"latitude": 55.89019, "longitude": -4.315204}}, "link": "/v3/places/4e73917afa76812398eab448", "location": {"address": "162 Dorchester Ave", "admin_region": "Scotland", "country": "GB", "cross_street": "", "formatted_address": "162 Dorchester Ave, Glasgow, Glasgow City, G12 0DZ", "locality": "Glasgow", "post_town": "Glasgow", "postcode": "G12 0DZ", "region": "Glasgow City"}, "name": "Jaipur Indian Takeaway", "related_places": {}, "timezone": "Europe/London"}, {"fsq_id": "a20beaa15b7944687e2edb5f", "categories": [{"id": 13065, "name": "Restaurant", "short_name": "Restaurant", "plural_name": "Restaurants", "icon": {"prefix": "https://ss3.4sqi.net/img/categories_v2/food/default_", "suffix": ".png"}}], "chains": [], "closed_bucket": "LikelyOpen", "distance": 720, "geocodes": {"drop_off": {"latitude": 55.895971, "longitude": -4.331086}, "main": {"latitude": 55.895808, "longitude": -4.331132}, "roof": {"latitude": 55.895808, "longitude": -4.331132}}, "link": "/v3/places/a20beaa15b7944687e2edb5f", "location": {"address": "187 Fulton St", "admin_region": "Scotland", "country": "GB", "formatted_address": "187 Fulton St, Glasgow, Glasgow City, G13 1AN", "locality": "Glasgow", "post_town": "Glasgow", "postcode": "G13 1AN", "region": "Glasgow City"}, "name": "Mei Dou", "related_places": {}, "timezone": "Europe/London"}, {"fsq_id": "4c7b99f481bca09305860315", "categories": [{"id": 13018, "name": "Pub", "short_name": "Pub", "plural_name": "Pubs", "icon": {"prefix": "https://ss3.4sqi.net/img/categories_v2/nightlife/pub_", "suffix": ".png"}}, {"id": 13068, "name": "American Restaurant", "short_name": "American", "plural_name": "American Restaurants", "icon": {"prefix": "https://ss3.4sqi.net/img/categories_v2/food/default_", "suffix": ".png"}}], "chains": [], "closed_bucket": "VeryLikelyOpen", "distance": 821, "geocodes": {"main": {"latitude": 55.883055, "longitude": -4.325745}, "roof": {"latitude": 55.883055, "longitude": -4.325745}}, "link": "/v3/places/4c7b99f481bca09305860315", "location": {"address": "512 Crow Rd", "admin_region": "Scotland", "country": "GB", "cross_street": "", "formatted_address": "512 Crow Rd, Glasgow, G13 1NU", "locality": "Glasgow", "post_town": "Glasgow", "postcode": "G13 1NU"}, "name": "Bobby-Joe's", "related_places": {}, "timezone": "Europe/London"}, {"fsq_id": "5e0a3d59d2b4c00008a5a1b1", "categories": [{"id": 13337, "name": "Scottish Restaurant", "short_name": "Scottish", "plural_name": "Scottish Restaurants", "icon": {"prefix": "https://ss3.4sqi.net/img/categories_v2/food/default_", "suffix": ".png"}}], "chains": [], "closed_bucket": "LikelyOpen", "distance": 825, "geocodes": {"main": {"latitude": 55.883061, "longitude": -4.32564}, "roof": {"latitude": 55.883061, "longitude": -4.32564}}, "link": "/v3/places/5e0a3d59d2b4c00008a5a1b1", "location": {"address": "1a Ashwood Gardens", "admin_region": "Scotland", "country": "GB", "cross_street": "", "formatted_address": "1a Ashwood Gardens, Glasgow, Glasgow City, G13 1NX", "locality": "Glasgow", "post_town": "Glasgow", "postcode": "G13 1NX", "region": "Glasgow City"}, "name": "The Prancing Stag", "related_places": {}, "timezone": "Europe/London"}, {"fsq_id": "04b184d5f82e4dcc7e036ee9", "categories": [{"id": 13145, "name": "Fast Food Restaurant", "short_name": "Fast Food", "plural_name": "Fast Food Restaurants", "icon": {"prefix": "https://ss3.4sqi.net/img/categories_v2/food/fastfood_", "suffix": ".png"}}], "chains": [], "closed_bucket": "LikelyOpen", "distance": 941, "geocodes": {"main": {"latitude": 55.898277, "longitude": -4.330334}, "roof": {"latitude": 55.898277, "longitude": -4.330334}}, "link": "/v3/places/04b184d5f82e4dcc7e036ee9", "location": {"address": "Anniesland Industrial Estate", "address_extended": "Unit 23d", "admin_region": "Scotland", "country": "GB", "formatted_address": "Anniesland Industrial Estate, Glasgow, G13 1EU", "locality": "Glasgow", "post_town": "Glasgow", "postcode": "G13 1EU"}, "name": "Drinksorted", "related_places": {}, "timezone": "Europe/London"}, {"fsq_id": "4ec2d2109adf5630f714321b", "categories": [{"id": 13064, "name": "Pizzeria", "short_name": "Pizza", "plural_name": "Pizzerias", "icon": {"prefix": "https://ss3.4sqi.net/img/categories_v2/food/pizza_", "suffix": ".png"}}, {"id": 13236, "name": "Italian Restaurant", "short_name": "Italian", "plural_name": "Italian Restaurants", "icon": {"prefix": "https://ss3.4sqi.net/img/categories_v2/food/italian_", "suffix": ".png"}}], "chains": [], "closed_bucket": "LikelyOpen", "distance": 1067, "geocodes": {"main": {"latitude": 55.883055, "longitude": -4.325745}, "roof": {"latitude": 55.883055, "longitude": -4.325745}}, "link": "/v3/places/4ec2d2109adf5630f714321b", "location": {"address": "Crow Rd", "admin_region": "Scotland", "country": "GB", "formatted_address": "Crow Rd, Glasgow, Glasgow City, G13 1NU", "locality": "Glasgow", "post_town": "Glasgow", "postcode": "G13 1NU", "region": "Glasgow City"}, "name": "Little Soho Jordanhill", "related_places": {}, "timezone": "Europe/London"}, {"fsq_id": "4c38eca60a71c9b6c09e41c9", "categories": [{"id": 13065, "name": "Restaurant", "short_name": "Restaurant", "plural_name": "Restaurants", "icon": {"prefix": "https://ss3.4sqi.net/img/categories_v2/food/default_", "suffix": ".png"}}, {"id": 10003, "name": "Arcade", "short_name": "Arcade", "plural_name": "Arcades", "icon": {"prefix": "https://ss3.4sqi.net/img/categories_v2/arts_entertainment/arcade_", "suffix": ".png"}}], "chains": [], "closed_bucket": "LikelyOpen", "distance": 1068, "geocodes": {"main": {"latitude": 55.883055, "longitude": -4.325745}, "roof": {"latitude": 55.883055, "longitude": -4.325745}}, "link": "/v3/places/4c38eca60a71c9b6c09e41c9", "location": {"address": "1a Ashwood Gardens", "admin_region": "Scotland", "country": "GB", "formatted_address": "1a Ashwood Gardens, Jordanhill, Glasgow City, G13 1NU", "locality": "Jordanhill", "post_town": "Glasgow", "postcode": "G13 1NU", "region": "Glasgow City"}, "name": "The Sisters Jordanhill", "related_places": {}, "timezone": "Europe/London"}, {"fsq_id": "f173822a28ab4084fb88975d", "categories": [{"id": 13199, "name": "Indian Restaurant", "short_name": "Indian", "plural_name": "Indian Restaurants", "icon": {"prefix": "https://ss3.4sqi.net/img/categories_v2/food/indian_", "suffix": ".png"}}], "chains": [], "closed_bucket": "VeryLikelyOpen", "distance": 412, "geocodes": {"drop_off": {"latitude": 55.893672, "longitude": -4.321851}, "main": {"latitude": 55.893754, "longitude": -4.321946}, "roof": {"latitude": 55.893754, "longitude": -4.321946}}, "link": "/v3/places/f173822a28ab4084fb88975d", "location": {"address": "995 Crow Rd", "admin_region": "Scotland", "country": "GB", "formatted_address": "995 Crow Rd, Glasgow, G13 1JP", "locality": "Glasgow", "post_town": "Glasgow", "postcode": "G13 1JP"}, "name": "Bawarchi", "related_places": {}}, {"fsq_id": "fc432dc254df430606feba10", "categories": [{"id": 13065, "name": "Restaurant", "short_name": "Restaurant", "plural_name": "Restaurants", "icon": {"prefix": "https://ss3.4sqi.net/img/categories_v2/food/default_", "suffix": ".png"}}], "chains": [], "closed_bucket": "LikelyOpen", "distance": 723, "geocodes": {"drop_off": {"latitude": 55.883935, "longitude": -4.325844}, "main": {"latitude": 55.883904, "longitude": -4.325632}, "roof": {"latitude": 55.883904, "longitude": -4.325632}}, "link": "/v3/places/fc432dc254df430606feba10", "location": {"address": "513 Crow Rd", "admin_region": "Scotland", "country": "GB", "formatted_address": "513 Crow Rd, Glasgow, G13 1NU", "locality": "Glasgow", "post_town": "Glasgow", "postcode": "G13 1NU"}, "name": "Little Soho Jordanhill- Afternoon tea", "related_places": {}}], "context": {"geo_bounds": {"circle": {"center": {"latitude": 55.890398, "longitude": -4.324766}, "radius": 1000}}}}