{"results": [{"fsq_id": "4bfcc91c4cf820a1e390ebf4", "categories": [{"id": 13236, "name": "Italian Restaurant", "short_name": "Italian", "plural_name": "Italian Restaurants", "icon": {"prefix": "https://ss3.4sqi.net/img/categories_v2/food/italian_", "suffix": ".png"}}], "chains": [], "closed_bucket": "LikelyOpen", "distance": 63, "geocodes": {"main": {"latitude": 55.827133, "longitude": -4.266318}, "roof": {"latitude": 55.827133, "longitude": -4.266318}}, "link": "/v3/places/4bfcc91c4cf820a1e390ebf4", "location": {"address": "55 Battlefield Rd", "admin_region": "Scotland", "country": "GB", "formatted_address": "55 Battlefield Rd, Glasgow, G42 9JL", "locality": "Glasgow", "post_town": "Glasgow", "postcode": "G42 9JL"}, "name": "Battlefield Rest", "related_places": {}, "timezone": "Europe/London"}, {"fsq_id": "5af6b5d1c876c8002cdb8a28", "categories": [{"id": 13035, "name": "Coffee Shop", "short_name": "Coffee Shop", "plural_name": "Coffee Shops", "icon": {"prefix": "https://ss3.4sqi.net/img/categories_v2/food/coffeeshop_", "suffix": ".png"}}, {"id": 13065, "name": "Restaurant", "short_name": "Restaurant", "plural_name": "Restaurants", "icon": {"prefix": "https://ss3.4sqi.net/img/categories_v2/food/default_", "suffix": ".png"}}], "chains": [], "closed_bucket": "LikelyOpen", "distance": 183, "geocodes": {"drop_off": {"latitude": 55.827276, "longitude": -4.268118}, "main": {"latitude": 55.827134, "longitude": -4.268139}, "roof": {"latitude": 55.827134, "longitude": -4.268139}}, "link": "/v3/places/5af6b5d1c876c8002cdb8a28", "location": {"address": "50 Battlefield Rd", "admin_region": "Scotland", "country": "GB", "cross_street": "", "formatted_address": "50 Battlefield Rd, Glasgow, Glasgow City, G42 9QF", "locality": "Glasgow", "post_town": "Glasgow", "postcode": "G42 9QF", "region": "Glasgow City"}, "name": "Grain and Grind", "related_places": {}, "timezone": "Europe/London"}, {"fsq_id": "5030ca70e4b047efee0958cf", "categories": [{"id": 10039, "name": "Music Venue", "short_name": "Music Venue", "plural_name": "Music Venues", "icon": {"prefix": "https://ss3.4sqi.net/img/categories_v2/arts_entertainment/musicvenue_", "suffix": ".png"}}, {"id": 13034, "name": "Caf\u00e9", "short_name": "Caf\u00e9", "plural_name": "Caf\u00e9s", "icon": {"prefix": "https://ss3.4sqi.net/img/categories_v2/food/cafe_", "suffix": ".png"}}, {"id": 13065, "name": "Restaurant", "short_name": "Restaurant", "plural_name": "Restaurants", "icon": {"prefix": "https://ss3.4sqi.net/img/categories_v2/food/default_", "suffix": ".png"}}], "chains": [], "closed_bucket": "LikelyOpen", "distance": 953, "geocodes": {"main": {"latitude": 55.832088, "longitude": -4.278273}, "roof": {"latitude": 55.832088, "longitude": -4.278273}}, "link": "/v3/places/5030ca70e4b047efee0958cf", "location": {"address": "1006a Pollokshaws Rd", "admin_region": "Scotland", "country": "GB", "formatted_address": "1006a Pollokshaws Rd, Glasgow, G41 2HG", "locality": "Glasgow", "post_town": "Glasgow", "postcode": "G41 2HG"}, "name": "The Glad Cafe", "related_places": {}, "timezone": "Europe/London"}, {"fsq_id": "4c0ba0c3ffb8c9b6667b6d61", "categories": [{"id": 13236, "name": "Italian Restaurant", "short_name": "Italian", "plural_name": "Italian Restaurants", "icon": {"prefix": "https://ss3.4sqi.net/img/categories_v2/food/italian_", "suffix": ".png"}}], "chains": [], "closed_bucket": "Unsure", "distance": 931, "geocodes": {"main": {"latitude": 55.831967, "longitude": -4.278549}, "roof": {"latitude": 55.831967, "longitude": -4.278549}}, "link": "/v3/places/4c0ba0c3ffb8c9b6667b6d61", "location": {"address": "1012 Pollokshaws Rd", "admin_region": "Scotland", "country": "GB", "formatted_address": "1012 Pollokshaws Rd, Glasgow, Glasgow City, G41 2HG", "locality": "Glasgow", "post_town": "Glasgow", "postcode": "G41 2HG", "region": "Glasgow City"}, "name": "Buongiorno", "related_places": {}, "timezone": "Europe/London"}, {"fsq_id": "4bae5929f964a5201ea63be3", "categories": [{"id": 13003, "name": "Bar", "short_name": "Bar", "plural_name": "Bars", "icon": {"prefix": "https://ss3.4sqi.net/img/categories_v2/nightlife/pub_", "suffix": ".png"}}, {"id": 13057, "name": "Gastropub", "short_name": "Gastropub", "plural_name": "Gastropubs", "icon": {"prefix": "https://ss3.4sqi.net/img/categories_v2/food/gastropub_", "suffix": ".png"}}], "chains": [], "closed_bucket": "LikelyOpen", "distance": 600, "geocodes": {"main": {"latitude": 55.823189, "longitude": -4.25881}, "roof": {"latitude": 55.823189, "longitude": -4.25881}}, "link": "/v3/places/4bae5929f964a5201ea63be3", "location": {"address": "1153-1155 Cathcart Rd", "admin_region": "Scotland", "country": "GB", "formatted_address": "1153-1155 Cathcart Rd, Glasgow, Glasgow City, G42 9HB", "locality": "Glasgow", "post_town": "Glasgow", "postcode": "G42 9HB", "region": "Glasgow City"}, "name": "Clockwork Beer Co", "related_places": {}, "timezone": "Europe/London"}, {"fsq_id": "4ba55019f964a5207af938e3", "categories": [{"id": 13018, "name": "Pub", "short_name": "Pub", "plural_name": "Pubs", "icon": {"prefix": "https://ss3.4sqi.net/img/categories_v2/nightlife/pub_", "suffix": ".png"}}, {"id": 13065, "name": "Restaurant", "short_name": "Restaurant", "plural_name": "Restaurants", "icon": {"prefix": "https://ss3.4sqi.net/img/categories_v2/food/default_", "suffix": ".png"}}], "chains": [], "closed_bucket": "Unsure", "distance": 396, "geocodes": {"main": {"latitude": 55.827677, "longitude": -4.271553}, "roof": {"latitude": 55.827677, "longitude": -4.271553}}, "link": "/v3/places/4ba55019f964a5207af938e3", "location": {"address": "16 Algie St", "admin_region": "Scotland", "country": "GB", "formatted_address": "16 Algie St, Glasgow, Glasgow City, G41 3DJ", "locality": "Glasgow", "post_town": "Glasgow", "postcode": "G41 3DJ", "region": "Glasgow City"}, "name": "Church on the Hill", "related_places": {}, "timezone": "Europe/London"}, {"fsq_id": "4e36e8adb61cddd1cd4cd4c0", "categories": [{"id": 13199, "name": "Indian Restaurant", "short_name": "Indian", "plural_name": "Indian Restaurants", "icon": {"prefix": "https://ss3.4sqi.net/img/categories_v2/food/indian_", "suffix": ".png"}}], "chains": [], "closed_bucket": "VeryLikelyOpen", "distance": 326, "geocodes": {"main": {"latitude": 55.824909, "longitude": -4.261908}, "roof": {"latitude": 55.824909, "longitude": -4.261908}}, "link": "/v3/places/4e36e8adb61cddd1cd4cd4c0", "location": {"address": "250 Battlefield Rd", "admin_region": "Scotland", "country": "GB", "formatted_address": "250 Battlefield Rd, Glasgow, G42 9HU", "locality": "Glasgow", "post_town": "Glasgow", "postcode": "G42 9HU"}, "name": "Alishan Tandoori", "related_places": {}, "timezone": "Europe/London"}, {"fsq_id": "4c1e4e76b9f876b03fde7e46", "categories": [{"id": 13064, "name": "Pizzeria", "short_name": "Pizza", "plural_name": "Pizzerias", "icon": {"prefix": "https://ss3.4sqi.net/img/categories_v2/food/pizza_", "suffix": ".png"}}, {"id": 13236, "name": "Italian Restaurant", "short_name": "Italian", "plural_name": "Italian Restaurants", "icon": {"prefix": "https://ss3.4sqi.net/img/categories_v2/food/italian_", "suffix": ".png"}}], "chains": [], "closed_bucket": "VeryLikelyOpen", "distance": 963, "geocodes": {"main": {"latitude": 55.83156, "longitude": -4.279202}, "roof": {"latitude": 55.83156, "longitude": -4.279202}}, "link": "/v3/places/4c1e4e76b9f876b03fde7e46", "location": {"address": "1038-1040 Pollokshaws Rd", "admin_region": "Scotland", "country": "GB", "formatted_address": "1038-1040 Pollokshaws Rd, Shawlands, Glasgow City, G41 3EB", "locality": "Shawlands", "post_town": "Glasgow", "postcode": "G41 3EB", "region": "Glasgow City"}, "name": "Di Maggio's - South Side", "related_places": {}, "timezone": "Europe/London"}, {"fsq_id": "4bc74c7d6501c9b6b0243e29", "categories": [{"id": 13065, "name": "Restaurant", "short_name": "Restaurant", "plural_name": "Restaurants", "icon": {"prefix": "https://ss3.4sqi.net/img/categories_v2/food/default_", "suffix": ".png"}}], "chains": [], "closed_bucket": "LikelyOpen", "distance": 532, "geocodes": {"main": {"latitude": 55.828558, "longitude": -4.273646}, "roof": {"latitude": 55.828558, "longitude": -4.273646}}, "link": "/v3/places/4bc74c7d6501c9b6b0243e29", "location": {"address": "2-4 Camphill Ave", "admin_region": "Scotland", "country": "GB", "cross_street": "", "formatted_address": "2-4 Camphill Ave, Glasgow, Glasgow City, G41 3AY", "locality": "Glasgow", "post_town": "Glasgow", "postcode": "G41 3AY", "region": "Glasgow City"}, "name": "The Ivory Hotel", "related_places": {}, "timezone": "Europe/London"}, {"fsq_id": "4fca1c23e4b04ba0d0d27d2b", "categories": [{"id": 13003, "name": "Bar", "short_name": "Bar", "plural_name": "Bars", "icon": {"prefix": "https://ss3.4sqi.net/img/categories_v2/nightlife/pub_", "suffix": ".png"}}], "chains": [], "closed_bucket": "LikelyOpen", "distance": 932, "geocodes": {"main": {"latitude": 55.832561, "longitude": -4.277377}, "roof": {"latitude": 55.832561, "longitude": -4.277377}}, "link": "/v3/places/4fca1c23e4b04ba0d0d27d2b", "location": {"address": "962 Pollokshaws Rd", "admin_region": "Scotland", "country": "GB", "cross_street": "", "formatted_address": "962 Pollokshaws Rd, Glasgow, G41 2ET", "locality": "Glasgow", "post_town": "Glasgow", "postcode": "G41 2ET"}, "name": "Sweeney's on the Park", "related_places": {}, "timezone": "Europe/London"}, {"fsq_id": "61222929076ec67cbd687f38", "categories": [{"id": 13035, "name": "Coffee Shop", "short_name": "Coffee Shop", "plural_name": "Coffee Shops", "icon": {"prefix": "https://ss3.4sqi.net/img/categories_v2/food/coffeeshop_", "suffix": ".png"}}, {"id": 13065, "name": "Restaurant", "short_name": "Restaurant", "plural_name": "Restaurants", "icon": {"prefix": "https://ss3.4sqi.net/img/categories_v2/food/default_", "suffix": ".png"}}], "chains": [], "closed_bucket": "Unsure", "distance": 196, "geocodes": {"main": {"latitude": 55.82576, "longitude": -4.264526}, "roof": {"latitude": 55.82576, "longitude": -4.264526}}, "link": "/v3/places/61222929076ec67cbd687f38", "location": {"address": "186 Battlefield Rd", "admin_region": "Scotland", "country": "GB", "cross_street": "", "formatted_address": "186 Battlefield Rd, Glasgow, Glasgow City, G42 9JT", "locality": "Glasgow", "post_town": "Glasgow", "postcode": "G42 9JT", "region": "Glasgow City"}, "name": "Common Ground", "related_places": {}, "timezone": "Europe/London"}, {"fsq_id": "4ca7763ea6e08cfad9fa8494", "categories": [{"id": 13177, "name": "Greek Restaurant", "short_name": "Greek", "plural_name": "Greek Restaurants", "icon": {"prefix": "https://ss3.4sqi.net/img/categories_v2/food/greek_", "suffix": ".png"}}], "chains": [], "closed_bucket": "VeryLikelyOpen", "distance": 221, "geocodes": {"main": {"latitude": 55.826381, "longitude": -4.267486}, "roof": {"latitude": 55.826381, "longitude": -4.267486}}, "link": "/v3/places/4ca7763ea6e08cfad9fa8494", "location": {"address": "34 Sinclair Dr", "admin_region": "Scotland", "country": "GB", "cross_street": "", "formatted_address": "34 Sinclair Dr, Glasgow, G42 9QE", "locality": "Glasgow", "post_town": "Glasgow", "postcode": "G42 9QE"}, "name": "Greek Golden Kebab", "related_places": {}, "timezone": "Europe/London"}, {"fsq_id": "51939472498e6951c3cb9485", "categories": [{"id": 10045, "name": "Pool Hall", "short_name": "Billiards", "plural_name": "Pool Halls", "icon": {"prefix": "https://ss3.4sqi.net/img/categories_v2/arts_entertainment/billiards_", "suffix": ".png"}}, {"id": 13022, "name": "Sports Bar", "short_name": "Sports Bar", "plural_name": "Sports Bars", "icon": {"prefix": "https://ss3.4sqi.net/img/categories_v2/nightlife/sportsbar_", "suffix": ".png"}}], "chains": [], "closed_bucket": "Unsure", "distance": 354, "geocodes": {"main": {"latitude": 55.824621, "longitude": -4.267853}, "roof": {"latitude": 55.824621, "longitude": -4.267853}}, "link": "/v3/places/51939472498e6951c3cb9485", "location": {"address": "130 Ledard Rd", "admin_region": "Scotland", "country": "GB", "cross_street": "", "formatted_address": "130 Ledard Rd, Glasgow, G42 9RA", "locality": "Glasgow", "post_town": "Glasgow", "postcode": "G42 9RA"}, "name": "The Ball Room", "related_places": {}, "timezone": "Europe/London"}, {"fsq_id": "d761d7e36d4242c93845adc4", "categories": [{"id": 13236, "name": "Italian Restaurant", "short_name": "Italian", "plural_name": "Italian Restaurants", "icon": {"prefix": "https://ss3.4sqi.net/img/categories_v2/food/italian_", "suffix": ".png"}}], "chains": [], "closed_bucket": "LikelyOpen", "distance": 376, "geocodes": {"drop_off": {"latitude": 55.827297, "longitude": -4.259157}, "main": {"latitude": 55.826952, "longitude": -4.259344}, "roof": {"latitude": 55.826952, "longitude": -4.259344}}, "link": "/v3/places/d761d7e36d4242c93845adc4", "location": {"address": "1021 Cathcart Rd", "admin_region": "Scotland", "country": "GB", "formatted_address": "1021 Cathcart Rd, Glasgow, Glasgow City, G42 9XJ", "locality": "Glasgow", "post_town": "Glasgow", "postcode": "G42 9XJ", "region": "Glasgow City"}, "name": "Meatballs Master", "related_places": {}, "timezone": "Europe/London"}, {"fsq_id": "4f3e3169e4b0500b68105de7", "categories": [{"id": 11056, "name": "Food and Beverage Service", "short_name": "Food Service", "plural_name": "Food and Beverage Services", "icon": {"prefix": "https://ss3.4sqi.net/img/categories_v2/shops/foodanddrink_", "suffix": ".png"}}, {"id": 13040, "name": "Dessert Shop", "short_name": "Desserts", "plural_name": "Dessert Shops", "icon": {"prefix": "https://ss3.4sqi.net/img/categories_v2/food/dessert_", "suffix": ".png"}}, {"id": 13065, "name": "Restaurant", "short_name": "Restaurant", "plural_name": "Restaurants", "icon": {"prefix": "https://ss3.4sqi.net/img/categories_v2/food/default_", "suffix": ".png"}}], "chains": [], "closed_bucket": "VeryLikelyOpen", "distance": 379, "geocodes": {"main": {"latitude": 55.827031, "longitude": -4.258891}, "roof": {"latitude": 55.827031, "longitude": -4.258891}}, "link": "/v3/places/4f3e3169e4b0500b68105de7", "location": {"address": "1032 Cathcart Rd", "admin_region": "Scotland", "country": "GB", "cross_street": "", "formatted_address": "1032 Cathcart Rd, Glasgow, G42 9XW", "locality": "Glasgow", "post_town": "Glasgow", "postcode": "G42 9XW"}, "name": "Dream Cakes", "related_places": {}, "timezone": "Europe/London"}, {"fsq_id": "5cdff7ad6fd626002c3f880b", "categories": [{"id": 13034, "name": "Caf\u00e9", "short_name": "Caf\u00e9", "plural_name": "Caf\u00e9s", "icon": {"prefix": "https://ss3.4sqi.net/img/categories_v2/food/cafe_", "suffix": ".png"}}, {"id": 13035, "name": "Coffee Shop", "short_name": "Coffee Shop", "plural_name": "Coffee Shops", "icon": {"prefix": "https://ss3.4sqi.net/img/categories_v2/food/coffeeshop_", "suffix": ".png"}}, {"id": 13065, "name": "Restaurant", "short_name": "Restaurant", "plural_name": "Restaurants", "icon": {"prefix": "https://ss3.4sqi.net/img/categories_v2/food/default_", "suffix": ".png"}}], "chains": [], "closed_bucket": "LikelyOpen", "distance": 385, "geocodes": {"drop_off": {"latitude": 55.827754, "longitude": -4.259384}, "main": {"latitude": 55.827753, "longitude": -4.259159}, "roof": {"latitude": 55.827753, "longitude": -4.259159}}, "link": "/v3/places/5cdff7ad6fd626002c3f880b", "location": {"address": "1007 Cathcart Rd", "admin_region": "Scotland", "country": "GB", "cross_street": "", "formatted_address": "1007 Cathcart Rd, Glasgow, Glasgow City, G42 9XJ", "locality": "Glasgow", "post_town": "Glasgow", "postcode": "G42 9XJ", "region": "Glasgow City"}, "name": "Cafe Salmagundi", "related_places": {}, "timezone": "Europe/London"}, {"fsq_id": "6209551803de4c178085244b", "categories": [{"id": 13003, "name": "Bar", "short_name": "Bar", "plural_name": "Bars", "icon": {"prefix": "https://ss3.4sqi.net/img/categories_v2/nightlife/pub_", "suffix": ".png"}}, {"id": 13068, "name": "American Restaurant", "short_name": "American", "plural_name": "American Restaurants", "icon": {"prefix": "https://ss3.4sqi.net/img/categories_v2/food/default_", "suffix": ".png"}}], "chains": [], "closed_bucket": "Unsure", "distance": 387, "geocodes": {"drop_off": {"latitude": 55.827326, "longitude": -4.25921}, "main": {"latitude": 55.827438, "longitude": -4.259149}, "roof": {"latitude": 55.827438, "longitude": -4.259149}}, "link": "/v3/places/6209551803de4c178085244b", "location": {"address": "1021 Cathcart Rd", "admin_region": "Scotland", "country": "GB", "cross_street": "", "formatted_address": "1021 Cathcart Rd, Glasgow, Glasgow City, G42 9XJ", "locality": "Glasgow", "post_town": "Glasgow", "postcode": "G42 9XJ", "region": "Glasgow City"}, "name": "Buck\u2019s Bar", "related_places": {}, "timezone": "Europe/London"}, {"fsq_id": "4e7223521495e4ca142bfff6", "categories": [{"id": 13034, "name": "Caf\u00e9", "short_name": "Caf\u00e9", "plural_name": "Caf\u00e9s", "icon": {"prefix": "https://ss3.4sqi.net/img/categories_v2/food/cafe_", "suffix": ".png"}}, {"id": 13035, "name": "Coffee Shop", "short_name": "Coffee Shop", "plural_name": "Coffee Shops", "icon": {"prefix": "https://ss3.4sqi.net/img/categories_v2/food/coffeeshop_", "suffix": ".png"}}, {"id": 13145, "name": "Fast Food Restaurant", "short_name": "Fast Food", "plural_name": "Fast Food Restaurants", "icon": {"prefix": "https://ss3.4sqi.net/img/categories_v2/food/fastfood_", "suffix": ".png"}}], "chains": [], "closed_bucket": "LikelyOpen", "distance": 389, "geocodes": {"main": {"latitude": 55.82711, "longitude": -4.259349}, "roof": {"latitude": 55.82711, "longitude": -4.259349}}, "link": "/v3/places/4e7223521495e4ca142bfff6", "location": {"address": "10 Clincart Rd", "admin_region": "Scotland", "country": "GB", "formatted_address": "10 Clincart Rd, Glasgow, G42 9DJ", "locality": "Glasgow", "post_town": "Glasgow", "postcode": "G42 9DJ"}, "name": "Loafers", "related_places": {}, "timezone": "Europe/London"}, {"fsq_id": "4e554e5318a8e7aa2cd8614f", "categories": [{"id": 13145, "name": "Fast Food Restaurant", "short_name": "Fast Food", "plural_name": "Fast Food Restaurants", "icon": {"prefix": "https://ss3.4sqi.net/img/categories_v2/food/fastfood_", "suffix": ".png"}}], "chains": [], "closed_bucket": "VeryLikelyOpen", "distance": 391, "geocodes": {"main": {"latitude": 55.826976, "longitude": -4.258925}, "roof": {"latitude": 55.826976, "longitude": -4.258925}}, "link": "/v3/places/4e554e5318a8e7aa2cd8614f", "location": {"country": "GB", "cross_street": "", "formatted_address": ""}, "name": "Papa-G's Fish and Chips", "related_places": {}, "timezone": "Europe/London"}, {"fsq_id": "4c76b8d3f247370434d363eb", "categories": [{"id": 13003, "name": "Bar", "short_name": "Bar", "plural_name": "Bars", "icon": {"prefix": "https://ss3.4sqi.net/img/categories_v2/nightlife/pub_", "suffix": ".png"}}], "chains": [], "closed_bucket": "LikelyOpen", "distance": 488, "geocodes": {"main": {"latitude": 55.824343, "longitude": -4.259825}, "roof": {"latitude": 55.824343, "longitude": -4.259825}}, "link": "/v3/places/4c76b8d3f247370434d363eb", "location": {"address": "318 Battlefield Rd", "admin_region": "Scotland", "country": "GB", "cross_street": "", "formatted_address": "318 Battlefield Rd, Glasgow, G42 9JD", "locality": "Glasgow", "post_town": "Glasgow", "postcode": "G42 9JD"}, "name": "The Florida Park", "related_places": {}, "timezone": "Europe/London"}, {"fsq_id": "5aa2d6046c08d133ac75c700", "categories": [{"id": 13025, "name": "Wine Bar", "short_name": "Wine Bar", "plural_name": "Wine Bars", "icon": {"prefix": "https://ss3.4sqi.net/img/categories_v2/food/winery_", "suffix": ".png"}}, {"id": 13031, "name": "Burger Joint", "short_name": "Burgers", "plural_name": "Burger Joints", "icon": {"prefix": "https://ss3.4sqi.net/img/categories_v2/food/burger_", "suffix": ".png"}}, {"id": 13068, "name": "American Restaurant", "short_name": "American", "plural_name": "American Restaurants", "icon": {"prefix": "https://ss3.4sqi.net/img/categories_v2/food/default_", "suffix": ".png"}}], "chains": [], "closed_bucket": "VeryLikelyOpen", "distance": 513, "geocodes": {"drop_off": {"latitude": 55.826111, "longitude": -4.257507}, "main": {"latitude": 55.825883, "longitude": -4.257771}, "roof": {"latitude": 55.825883, "longitude": -4.257771}}, "link": "/v3/places/5aa2d6046c08d133ac75c700", "location": {"address": "1102 Cathcart Rd", "admin_region": "Scotland", "country": "GB", "cross_street": "", "formatted_address": "1102 Cathcart Rd, Glasgow, Glasgow City, G42 9EG", "locality": "Glasgow", "post_town": "Glasgow", "postcode": "G42 9EG", "region": "Glasgow City"}, "name": "Hoagies", "related_places": {}, "timezone": "Europe/London"}, {"fsq_id": "4decae94b0fb8293f80c752a", "categories": [{"id": 13049, "name": "Diner", "short_name": "Diner", "plural_name": "Diners", "icon": {"prefix": "https://ss3.4sqi.net/img/categories_v2/food/diner_", "suffix": ".png"}}], "chains": [], "closed_bucket": "LikelyOpen", "distance": 582, "geocodes": {"drop_off": {"latitude": 55.825061, "longitude": -4.257016}, "main": {"latitude": 55.825093, "longitude": -4.256837}, "roof": {"latitude": 55.825093, "longitude": -4.256837}}, "link": "/v3/places/4decae94b0fb8293f80c752a", "location": {"address": "19 Carmunnock Rd", "admin_region": "Scotland", "country": "GB", "cross_street": "", "formatted_address": "19 Carmunnock Rd, Glasgow, Glasgow City", "locality": "Glasgow", "post_town": "Glasgow", "region": "Glasgow City"}, "name": "Cafe Amalfi", "related_places": {}, "timezone": "Europe/London"}, {"fsq_id": "5018f77de4b06fb71b57fa90", "categories": [{"id": 13034, "name": "Caf\u00e9", "short_name": "Caf\u00e9", "plural_name": "Caf\u00e9s", "icon": {"prefix": "https://ss3.4sqi.net/img/categories_v2/food/cafe_", "suffix": ".png"}}, {"id": 13065, "name": "Restaurant", "short_name": "Restaurant", "plural_name": "Restaurants", "icon": {"prefix": "https://ss3.4sqi.net/img/categories_v2/food/default_", "suffix": ".png"}}], "chains": [], "closed_bucket": "VeryLikelyOpen", "distance": 642, "geocodes": {"main": {"latitude": 55.822256, "longitude": -4.261302}, "roof": {"latitude": 55.822256, "longitude": -4.261302}}, "link": "/v3/places/5018f77de4b06fb71b57fa90", "location": {"address": "172 Holmlea Rd", "admin_region": "Scotland", "country": "GB", "cross_street": "", "formatted_address": "172 Holmlea Rd, Glasgow, G44 4BA", "locality": "Glasgow", "post_town": "Glasgow", "postcode": "G44 4BA"}, "name": "Cafe Royale", "related_places": {}, "timezone": "Europe/London"}, {"fsq_id": "63af5901c5841f5099bcec4f", "categories": [{"id": 13018, "name": "Pub", "short_name": "Pub", "plural_name": "Pubs", "icon": {"prefix": "https://ss3.4sqi.net/img/categories_v2/nightlife/pub_", "suffix": ".png"}}], "chains": [], "closed_bucket": "LikelyOpen", "distance": 757, "geocodes": {"drop_off": {"latitude": 55.834277, "longitude": -4.263634}, "main": {"latitude": 55.834136, "longitude": -4.26366}, "roof": {"latitude": 55.834136, "longitude": -4.26366}}, "link": "/v3/places/63af5901c5841f5099bcec4f", "location": {"address": "58 Albert Rd", "admin_region": "Scotland", "country": "GB", "cross_street": "", "formatted_address": "58 Albert Rd, Glasgow, Glasgow City, G42 8DN", "locality": "Glasgow", "post_town": "Glasgow", "postcode": "G42 8DN", "region": "Glasgow City"}, "name": "The Rose Reilly", "related_places": {}, "timezone": "Europe/London"}, {"fsq_id": "5b2f6a934a7aae003984d41f", "categories": [{"id": 13035, "name": "Coffee Shop", "short_name": "Coffee Shop", "plural_name": "Coffee Shops", "icon": {"prefix": "https://ss3.4sqi.net/img/categories_v2/food/coffeeshop_", "suffix": ".png"}}, {"id": 13065, "name": "Restaurant", "short_name": "Restaurant", "plural_name": "Restaurants", "icon": {"prefix": "https://ss3.4sqi.net/img/categories_v2/food/default_", "suffix": ".png"}}], "chains": [], "closed_bucket": "LikelyOpen", "distance": 794, "geocodes": {"main": {"latitude": 55.834647, "longitude": -4.265777}, "roof": {"latitude": 55.834647, "longitude": -4.265777}}, "link": "/v3/places/5b2f6a934a7aae003984d41f", "location": {"address": "510 Victoria Rd", "admin_region": "Scotland", "country": "GB", "cross_street": "", "formatted_address": "510 Victoria Rd, Glasgow, Glasgow City, G42 8PQ", "locality": "Glasgow", "post_town": "Glasgow", "postcode": "G42 8PQ", "region": "Glasgow City"}, "name": "Crema Coffee", "related_places": {}, "timezone": "Europe/London"}, {"fsq_id": "5a033d44805e3f472304e501", "categories": [{"id": 13040, "name": "Dessert Shop", "short_name": "Desserts", "plural_name": "Dessert Shops", "icon": {"prefix": "https://ss3.4sqi.net/img/categories_v2/food/dessert_", "suffix": ".png"}}, {"id": 13065, "name": "Restaurant", "short_name": "Restaurant", "plural_name": "Restaurants", "icon": {"prefix": "https://ss3.4sqi.net/img/categories_v2/food/default_", "suffix": ".png"}}], "chains": [], "closed_bucket": "LikelyOpen", "distance": 801, "geocodes": {"main": {"latitude": 55.834647, "longitude": -4.265777}, "roof": {"latitude": 55.834647, "longitude": -4.265777}}, "link": "/v3/places/5a033d44805e3f472304e501", "location": {"address": "504 Victoria Rd", "admin_region": "Scotland", "country": "GB", "cross_street": "", "formatted_address": "504 Victoria Rd, Glasgow, Glasgow City, G42 8PQ", "locality": "Glasgow", "post_town": "Glasgow", "postcode": "G42 8PQ", "region": "Glasgow City"}, "name": "What the Fudge", "related_places": {}, "timezone": "Europe/London"}, {"fsq_id": "61840fb322589805172dc95c", "categories": [{"id": 13034, "name": "Caf\u00e9", "short_name": "Caf\u00e9", "plural_name": "Caf\u00e9s", "icon": {"prefix": "https://ss3.4sqi.net/img/categories_v2/food/cafe_", "suffix": ".png"}}, {"id": 13065, "name": "Restaurant", "short_name": "Restaurant", "plural_name": "Restaurants", "icon": {"prefix": "https://ss3.4sqi.net/img/categories_v2/food/default_", "suffix": ".png"}}], "chains": [], "closed_bucket": "Unsure", "distance": 808, "geocodes": {"drop_off": {"latitude": 55.834757, "longitude": -4.265453}, "main": {"latitude": 55.834677, "longitude": -4.265253}, "roof": {"latitude": 55.834677, "longitude": -4.265253}}, "link": "/v3/places/61840fb322589805172dc95c", "location": {"address": "505 Victoria Rd", "admin_region": "Scotland", "country": "GB", "cross_street": "Albert Road", "formatted_address": "505 Victoria Rd (Albert Road), Glasgow, Glasgow City, G42 8RL", "locality": "Glasgow", "post_town": "Glasgow", "postcode": "G42 8RL", "region": "Glasgow City"}, "name": "Mi Chaii", "related_places": {}, "timezone": "Europe/London"}, {"fsq_id": "5b5c6fae56c89f002c8290db", "categories": [{"id": 13034, "name": "Caf\u00e9", "short_name": "Caf\u00e9", "plural_name": "Caf\u00e9s", "icon": {"prefix": "https://ss3.4sqi.net/img/categories_v2/food/cafe_", "suffix": ".png"}}, {"id": 13065, "name": "Restaurant", "short_name": "Restaurant", "plural_name": "Restaurants", "icon": {"prefix": "https://ss3.4sqi.net/img/categories_v2/food/default_", "suffix": ".png"}}], "chains": [], "closed_bucket": "LikelyOpen", "distance": 821, "geocodes": {"drop_off": {"latitude": 55.834874, "longitude": -4.265406}, "main": {"latitude": 55.834786, "longitude": -4.265186}, "roof": {"latitude": 55.834786, "longitude": -4.265186}}, "link": "/v3/places/5b5c6fae56c89f002c8290db", "location": {"address": "501 Victoria Rd", "admin_region": "Scotland", "country": "GB", "cross_street": "", "formatted_address": "501 Victoria Rd, Glasgow, Glasgow City, G42 8RL", "locality": "Glasgow", "post_town": "Glasgow", "postcode": "G42 8RL", "region": "Glasgow City"}, "name": "Short Long Black", "related_places": {}, "timezone": "Europe/London"}, {"fsq_id": "5cd00a085d891b002c3c46bf", "categories": [{"id": 13003, "name": "Bar", "short_name": "Bar", "plural_name": "Bars", "icon": {"prefix": "https://ss3.4sqi.net/img/categories_v2/nightlife/pub_", "suffix": ".png"}}, {"id": 13057, "name": "Gastropub", "short_name": "Gastropub", "plural_name": "Gastropubs", "icon": {"prefix": "https://ss3.4sqi.net/img/categories_v2/food/gastropub_", "suffix": ".png"}}], "chains": [], "closed_bucket": "LikelyOpen", "distance": 888, "geocodes": {"drop_off": {"latitude": 55.835258, "longitude": -4.264139}, "main": {"latitude": 55.835374, "longitude": -4.264118}, "roof": {"latitude": 55.835374, "longitude": -4.264118}}, "link": "/v3/places/5cd00a085d891b002c3c46bf", "location": {"address": "21 Dixon Ave", "admin_region": "Scotland", "country": "GB", "cross_street": "", "formatted_address": "21 Dixon Ave, Glasgow, Glasgow City, G42 8EB", "locality": "Glasgow", "post_town": "Glasgow", "postcode": "G42 8EB", "region": "Glasgow City"}, "name": "The Bell Jar", "related_places": {}, "timezone": "Europe/London"}, {"fsq_id": "724fbd2de4d5ef30a1a81f2e", "categories": [{"id": 13199, "name": "Indian Restaurant", "short_name": "Indian", "plural_name": "Indian Restaurants", "icon": {"prefix": "https://ss3.4sqi.net/img/categories_v2/food/indian_", "suffix": ".png"}}], "chains": [], "closed_bucket": "VeryLikelyOpen", "distance": 918, "geocodes": {"drop_off": {"latitude": 55.82914, "longitude": -4.27968}, "main": {"latitude": 55.828999, "longitude": -4.279754}, "roof": {"latitude": 55.828999, "longitude": -4.279754}}, "link": "/v3/places/724fbd2de4d5ef30a1a81f2e", "location": {"address": "44 Skirving St", "admin_region": "Scotland", "country": "GB", "formatted_address": "44 Skirving St, Glasgow, Glasgow City", "locality": "Glasgow", "post_town": "Glasgow", "region": "Glasgow City"}, "name": "Yaars", "related_places": {}, "timezone": "Europe/London"}, {"fsq_id": "4cc1d4f982388cfa7ef65b35", "categories": [{"id": 13099, "name": "Chinese Restaurant", "short_name": "Chinese", "plural_name": "Chinese Restaurants", "icon": {"prefix": "https://ss3.4sqi.net/img/categories_v2/food/asian_", "suffix": ".png"}}], "chains": [], "closed_bucket": "VeryLikelyOpen", "distance": 928, "geocodes": {"drop_off": {"latitude": 55.829327, "longitude": -4.280038}, "main": {"latitude": 55.82957, "longitude": -4.279912}, "roof": {"latitude": 55.82957, "longitude": -4.279912}}, "link": "/v3/places/4cc1d4f982388cfa7ef65b35", "location": {"address": "44 Skirving St", "admin_region": "Scotland", "country": "GB", "cross_street": "", "formatted_address": "44 Skirving St, Glasgow, Glasgow City", "locality": "Glasgow", "post_town": "Glasgow", "region": "Glasgow City"}, "name": "Skirving Limited", "related_places": {}, "timezone": "Europe/London"}, {"fsq_id": "4c261d64905a0f47099c6260", "categories": [{"id": 13003, "name": "Bar", "short_name": "Bar", "plural_name": "Bars", "icon": {"prefix": "https://ss3.4sqi.net/img/categories_v2/nightlife/pub_", "suffix": ".png"}}, {"id": 13065, "name": "Restaurant", "short_name": "Restaurant", "plural_name": "Restaurants", "icon": {"prefix": "https://ss3.4sqi.net/img/categories_v2/food/default_", "suffix": ".png"}}], "chains": [], "closed_bucket": "LikelyOpen", "distance": 935, "geocodes": {"main": {"latitude": 55.831311, "longitude": -4.278949}, "roof": {"latitude": 55.831311, "longitude": -4.278949}}, "link": "/v3/places/4c261d64905a0f47099c6260", "location": {"address": "1039 Pollokshaws Rd", "admin_region": "Scotland", "country": "GB", "cross_street": "", "formatted_address": "1039 Pollokshaws Rd, Glasgow, Glasgow City, G41 3YF", "locality": "Glasgow", "post_town": "Glasgow", "postcode": "G41 3YF", "region": "Glasgow City"}, "name": "Corona Bar", "related_places": {}, "timezone": "Europe/London"}, {"fsq_id": "4df3944714954f21cf2ea7b5", "categories": [{"id": 13003, "name": "Bar", "short_name": "Bar", "plural_name": "Bars", "icon": {"prefix": "https://ss3.4sqi.net/img/categories_v2/nightlife/pub_", "suffix": ".png"}}], "chains": [], "closed_bucket": "LikelyOpen", "distance": 938, "geocodes": {"main": {"latitude": 55.833264, "longitude": -4.276137}, "roof": {"latitude": 55.833264, "longitude": -4.276137}}, "link": "/v3/places/4df3944714954f21cf2ea7b5", "location": {"address": "962 Pollokshaws Rd", "admin_region": "Scotland", "country": "GB", "formatted_address": "962 Pollokshaws Rd, Glasgow, Glasgow City, G41 2ET", "locality": "Glasgow", "post_town": "Glasgow", "postcode": "G41 2ET", "region": "Glasgow City"}, "name": "The Bay Horse", "related_places": {}, "timezone": "Europe/London"}, {"fsq_id": "55f217e7498ed2c826fcc40f", "categories": [{"id": 12082, "name": "Organization", "short_name": "Organization", "plural_name": "Organizations", "icon": {"prefix": "https://ss3.4sqi.net/img/categories_v2/building/default_", "suffix": ".png"}}, {"id": 13034, "name": "Caf\u00e9", "short_name": "Caf\u00e9", "plural_name": "Caf\u00e9s", "icon": {"prefix": "https://ss3.4sqi.net/img/categories_v2/food/cafe_", "suffix": ".png"}}, {"id": 13065, "name": "Restaurant", "short_name": "Restaurant", "plural_name": "Restaurants", "icon": {"prefix": "https://ss3.4sqi.net/img/categories_v2/food/default_", "suffix": ".png"}}], "chains": [], "closed_bucket": "LikelyOpen", "distance": 948, "geocodes": {"drop_off": {"latitude": 55.835856, "longitude": -4.265059}, "main": {"latitude": 55.835939, "longitude": -4.265292}, "roof": {"latitude": 55.835939, "longitude": -4.265292}}, "link": "/v3/places/55f217e7498ed2c826fcc40f", "location": {"address": "452 Victoria Rd", "admin_region": "Scotland", "country": "GB", "cross_street": "", "formatted_address": "452 Victoria Rd, Glasgow, Glasgow City, G42 8YU", "locality": "Glasgow", "post_town": "Glasgow", "postcode": "G42 8YU", "region": "Glasgow City"}, "name": "MILK cafe", "related_places": {}, "timezone": "Europe/London"}, {"fsq_id": "5b5701b22463d8004481da88", "categories": [{"id": 13034, "name": "Caf\u00e9", "short_name": "Caf\u00e9", "plural_name": "Caf\u00e9s", "icon": {"prefix": "https://ss3.4sqi.net/img/categories_v2/food/cafe_", "suffix": ".png"}}, {"id": 13035, "name": "Coffee Shop", "short_name": "Coffee Shop", "plural_name": "Coffee Shops", "icon": {"prefix": "https://ss3.4sqi.net/img/categories_v2/food/coffeeshop_", "suffix": ".png"}}, {"id": 13065, "name": "Restaurant", "short_name": "Restaurant", "plural_name": "Restaurants", "icon": {"prefix": "https://ss3.4sqi.net/img/categories_v2/food/default_", "suffix": ".png"}}], "chains": [], "closed_bucket": "VeryLikelyOpen", "distance": 961, "geocodes": {"main": {"latitude": 55.833646, "longitude": -4.275904}, "roof": {"latitude": 55.833646, "longitude": -4.275904}}, "link": "/v3/places/5b5701b22463d8004481da88", "location": {"address": "890 Pollokshaws Rd", "admin_region": "Scotland", "country": "GB", "cross_street": "", "formatted_address": "890 Pollokshaws Rd, Glasgow, Glasgow City, G41 2ET", "locality": "Glasgow", "post_town": "Glasgow", "postcode": "G41 2ET", "region": "Glasgow City"}, "name": "Wild Bean Caf\u00e9", "related_places": {"parent": {"fsq_id": "4c40ad807beab713b8639555", "categories": [{"id": 19007, "name": "Fuel Station", "short_name": "Fuel Station", "plural_name": "Fuel Stations", "icon": {"prefix": "https://ss3.4sqi.net/img/categories_v2/shops/gas_", "suffix": ".png"}}], "name": "Bp Pulse"}}, "timezone": "Europe/London"}, {"fsq_id": "4c265dd9a852c928a587e66c", "categories": [{"id": 13067, "name": "African Restaurant", "short_name": "African", "plural_name": "African Restaurants", "icon": {"prefix": "https://ss3.4sqi.net/img/categories_v2/food/african_", "suffix": ".png"}}, {"id": 13145, "name": "Fast Food Restaurant", "short_name": "Fast Food", "plural_name": "Fast Food Restaurants", "icon": {"prefix": "https://ss3.4sqi.net/img/categories_v2/food/fastfood_", "suffix": ".png"}}], "chains": [], "closed_bucket": "LikelyOpen", "distance": 962, "geocodes": {"main": {"latitude": 55.832088, "longitude": -4.278273}, "roof": {"latitude": 55.832088, "longitude": -4.278273}}, "link": "/v3/places/4c265dd9a852c928a587e66c", "location": {"address": "1006A Pollokshaws Rd", "admin_region": "Scotland", "country": "GB", "formatted_address": "1006A Pollokshaws Rd, Glasgow, Glasgow City, G41 2HG", "locality": "Glasgow", "post_town": "Glasgow", "postcode": "G41 2HG", "region": "Glasgow City"}, "name": "Camflava", "related_places": {}, "timezone": "Europe/London"}, {"fsq_id": "4ef678717ee5bf7993b51c0c", "categories": [{"id": 13145, "name": "Fast Food Restaurant", "short_name": "Fast Food", "plural_name": "Fast Food Restaurants", "icon": {"prefix": "https://ss3.4sqi.net/img/categories_v2/food/fastfood_", "suffix": ".png"}}], "chains": [], "closed_bucket": "VeryLikelyOpen", "distance": 971, "geocodes": {"main": {"latitude": 55.831129, "longitude": -4.279364}, "roof": {"latitude": 55.831129, "longitude": -4.279364}}, "link": "/v3/places/4ef678717ee5bf7993b51c0c", "location": {"address": "1059 Pollokshaws Rd", "admin_region": "Scotland", "country": "GB", "formatted_address": "1059 Pollokshaws Rd, Glasgow, Glasgow City, G41 3YF", "locality": "Glasgow", "post_town": "Glasgow", "postcode": "G41 3YF", "region": "Glasgow City"}, "name": "Baba Tandoori", "related_places": {}, "timezone": "Europe/London"}, {"fsq_id": "8a29e23aea964ebabe1ca8c6", "categories": [{"id": 13003, "name": "Bar", "short_name": "Bar", "plural_name": "Bars", "icon": {"prefix": "https://ss3.4sqi.net/img/categories_v2/nightlife/pub_", "suffix": ".png"}}], "chains": [], "closed_bucket": "LikelyOpen", "distance": 982, "geocodes": {"main": {"latitude": 55.835078, "longitude": -4.265615}, "roof": {"latitude": 55.835078, "longitude": -4.265615}}, "link": "/v3/places/8a29e23aea964ebabe1ca8c6", "location": {"address": "173 Allison St", "admin_region": "Scotland", "country": "GB", "formatted_address": "173 Allison St, Glasgow, South Ayrshire, G42 8RX", "locality": "Glasgow", "post_town": "Glasgow", "postcode": "G42 8RX", "region": "South Ayrshire"}, "name": "Queenspark Pawn Brokers", "related_places": {}, "timezone": "Europe/London"}, {"fsq_id": "5c016a32894eac002cdaafff", "categories": [{"id": 10018, "name": "Gaming Cafe", "short_name": "Gaming Cafe", "plural_name": "Gaming Cafes", "icon": {"prefix": "https://ss3.4sqi.net/img/categories_v2/shops/gamingcafe_", "suffix": ".png"}}, {"id": 13035, "name": "Coffee Shop", "short_name": "Coffee Shop", "plural_name": "Coffee Shops", "icon": {"prefix": "https://ss3.4sqi.net/img/categories_v2/food/coffeeshop_", "suffix": ".png"}}, {"id": 13065, "name": "Restaurant", "short_name": "Restaurant", "plural_name": "Restaurants", "icon": {"prefix": "https://ss3.4sqi.net/img/categories_v2/food/default_", "suffix": ".png"}}, {"id": 13382, "name": "Snack Place", "short_name": "Snacks", "plural_name": "Snack Places", "icon": {"prefix": "https://ss3.4sqi.net/img/categories_v2/food/snacks_", "suffix": ".png"}}, {"id": 17027, "name": "Video Games Store", "short_name": "Video Game Store", "plural_name": "Video Game Stores", "icon": {"prefix": "https://ss3.4sqi.net/img/categories_v2/shops/videogames_", "suffix": ".png"}}, {"id": 17057, "name": "Food and Beverage Retail", "short_name": "Food & Beverage", "plural_name": "Food and Beverage Retail", "icon": {"prefix": "https://ss3.4sqi.net/img/categories_v2/shops/foodanddrink_", "suffix": ".png"}}], "chains": [], "closed_bucket": "Unsure", "distance": 988, "geocodes": {"drop_off": {"latitude": 55.830935, "longitude": -4.280006}, "main": {"latitude": 55.830832, "longitude": -4.27995}, "roof": {"latitude": 55.830832, "longitude": -4.27995}}, "link": "/v3/places/5c016a32894eac002cdaafff", "location": {"address": "1091 Pollokshaws Rd", "admin_region": "Scotland", "country": "GB", "cross_street": "", "formatted_address": "1091 Pollokshaws Rd, Glasgow, Glasgow City, G41 3YG", "locality": "Glasgow", "post_town": "Glasgow", "postcode": "G41 3YG", "region": "Glasgow City"}, "name": "Lucky Sparrow Games", "related_places": {}, "timezone": "Europe/London"}, {"fsq_id": "3ff57014610e48239ffbfbdc", "categories": [{"id": 13236, "name": "Italian Restaurant", "short_name": "Italian", "plural_name": "Italian Restaurants", "icon": {"prefix": "https://ss3.4sqi.net/img/categories_v2/food/italian_", "suffix": ".png"}}], "chains": [], "closed_bucket": "VeryLikelyOpen", "distance": 389, "geocodes": {"main": {"latitude": 55.827389, "longitude": -4.259077}, "roof": {"latitude": 55.827389, "longitude": -4.259077}}, "link": "/v3/places/3ff57014610e48239ffbfbdc", "location": {"address": "1021 Cathcart Rd", "admin_region": "Scotland", "country": "GB", "formatted_address": "1021 Cathcart Rd, Glasgow, G42 9XJ", "locality": "Glasgow", "post_town": "Glasgow", "postcode": "G42 9XJ"}, "name": "Sapori D'italia Meatballs Master", "related_places": {}}, {"fsq_id": "8faee05d3cb4471460674a65", "categories": [{"id": 13035, "name": "Coffee Shop", "short_name": "Coffee Shop", "plural_name": "Coffee Shops", "icon": {"prefix": "https://ss3.4sqi.net/img/categories_v2/food/coffeeshop_", "suffix": ".png"}}, {"id": 13065, "name": "Restaurant", "short_name": "Restaurant", "plural_name": "Restaurants", "icon": {"prefix": "https://ss3.4sqi.net/img/categories_v2/food/default_", "suffix": ".png"}}], "chains": [], "closed_bucket": "Unsure", "distance": 780, "geocodes": {"main": {"latitude": 55.834416, "longitude": -4.26521}, "roof": {"latitude": 55.834416, "longitude": -4.26521}}, "link": "/v3/places/8faee05d3cb4471460674a65", "location": {"address": "Victoria Rd", "admin_region": "Scotland", "country": "GB", "formatted_address": "Victoria Rd, Glasgow, G42 8BH", "locality": "Glasgow", "post_town": "Glasgow", "postcode": "G42 8BH"}, "name": "Ginesi's Ice Cream", "related_places": {}}], "context": {"geo_bounds": {"circle": {"center": {"latitude": 55.827395, "longitude": -4.265319}, "radius": 1000}}}}