{"results": [{"fsq_id": "5a09ff889411f223d81a1dd6", "categories": [{"id": 13018, "name": "Pub", "short_name": "Pub", "plural_name": "Pubs", "icon": {"prefix": "https://ss3.4sqi.net/img/categories_v2/nightlife/pub_", "suffix": ".png"}}, {"id": 13065, "name": "Restaurant", "short_name": "Restaurant", "plural_name": "Restaurants", "icon": {"prefix": "https://ss3.4sqi.net/img/categories_v2/food/default_", "suffix": ".png"}}], "chains": [], "closed_bucket": "VeryLikelyOpen", "distance": 955, "geocodes": {"main": {"latitude": 55.838726, "longitude": -4.231194}, "roof": {"latitude": 55.838726, "longitude": -4.231194}}, "link": "/v3/places/5a09ff889411f223d81a1dd6", "location": {"address": "8 Clyde Gateway", "admin_region": "Scotland", "country": "GB", "cross_street": "", "formatted_address": "8 Clyde Gateway, Rutherglen, South Lanarkshire, G5 0BJ", "locality": "Rutherglen", "post_town": "Glasgow", "postcode": "G5 0BJ", "region": "South Lanarkshire"}, "name": "Jenny Burn Oatllands", "related_places": {}, "timezone": "Europe/London"}, {"fsq_id": "563ea22fcd101318c1ac0893", "categories": [{"id": 13031, "name": "Burger Joint", "short_name": "Burgers", "plural_name": "Burger Joints", "icon": {"prefix": "https://ss3.4sqi.net/img/categories_v2/food/burger_", "suffix": ".png"}}, {"id": 13145, "name": "Fast Food Restaurant", "short_name": "Fast Food", "plural_name": "Fast Food Restaurants", "icon": {"prefix": "https://ss3.4sqi.net/img/categories_v2/food/fastfood_", "suffix": ".png"}}], "chains": [{"id": "ab4a3530-d68a-012e-5619-003048cad9da", "name": "McDonald's"}], "closed_bucket": "VeryLikelyOpen", "distance": 850, "geocodes": {"main": {"latitude": 55.836518, "longitude": -4.20977}, "roof": {"latitude": 55.836518, "longitude": -4.20977}}, "link": "/v3/places/563ea22fcd101318c1ac0893", "location": {"address": "Rutherglen Retail Park", "admin_region": "Scotland", "country": "GB", "cross_street": "", "formatted_address": "Rutherglen Retail Park, Rutherglen, South Lanarkshire, G73 1AE", "locality": "Rutherglen", "post_town": "Glasgow", "postcode": "G73 1AE", "region": "South Lanarkshire"}, "name": "McDonald's", "related_places": {}, "timezone": "Europe/London"}, {"fsq_id": "65192048632246280f5cf5bb", "categories": [{"id": 13003, "name": "Bar", "short_name": "Bar", "plural_name": "Bars", "icon": {"prefix": "https://ss3.4sqi.net/img/categories_v2/nightlife/pub_", "suffix": ".png"}}], "chains": [], "closed_bucket": "Unsure", "distance": 168, "geocodes": {"main": {"latitude": 55.843834, "longitude": -4.21916}, "roof": {"latitude": 55.843834, "longitude": -4.21916}}, "link": "/v3/places/65192048632246280f5cf5bb", "location": {"address": "148-152 Old Dalmarnock Rd", "admin_region": "Scotland", "country": "GB", "formatted_address": "148-152 Old Dalmarnock Rd, Glasgow, G40 4LH", "locality": "Glasgow", "post_town": "Glasgow", "postcode": "G40 4LH"}, "name": "Hayfield Bar", "related_places": {}, "timezone": "Europe/London"}, {"fsq_id": "591f52328c812a7301d588db", "categories": [{"id": 13064, "name": "Pizzeria", "short_name": "Pizza", "plural_name": "Pizzerias", "icon": {"prefix": "https://ss3.4sqi.net/img/categories_v2/food/pizza_", "suffix": ".png"}}], "chains": [], "closed_bucket": "VeryLikelyOpen", "distance": 222, "geocodes": {"drop_off": {"latitude": 55.841142, "longitude": -4.21533}, "main": {"latitude": 55.840881, "longitude": -4.215501}}, "link": "/v3/places/591f52328c812a7301d588db", "location": {"address": "596 Dalmarnock Rd", "country": "GB", "cross_street": "", "formatted_address": "596 Dalmarnock Rd, Glasgow, Glasgow City", "locality": "Glasgow", "post_town": "Glasgow", "region": "Glasgow City"}, "name": "Prontos/Home-made Pizza", "related_places": {}, "timezone": "Europe/London"}, {"fsq_id": "00efdb123f2e495dc2e02ef8", "categories": [{"id": 13065, "name": "Restaurant", "short_name": "Restaurant", "plural_name": "Restaurants", "icon": {"prefix": "https://ss3.4sqi.net/img/categories_v2/food/default_", "suffix": ".png"}}], "chains": [], "closed_bucket": "LikelyOpen", "distance": 281, "geocodes": {"drop_off": {"latitude": 55.840813, "longitude": -4.214655}, "main": {"latitude": 55.840662, "longitude": -4.214724}, "roof": {"latitude": 55.840662, "longitude": -4.214724}}, "link": "/v3/places/00efdb123f2e495dc2e02ef8", "location": {"address": "614 Dalmarnock Rd", "admin_region": "Scotland", "country": "GB", "formatted_address": "614 Dalmarnock Rd, Glasgow, Glasgow City, G40 4NN", "locality": "Glasgow", "post_town": "Glasgow", "postcode": "G40 4NN", "region": "Glasgow City"}, "name": "Grillzz - German D\u00f6ner & Peri Peri", "related_places": {}, "timezone": "Europe/London"}, {"fsq_id": "69fd03c1ee2445b6e5e2a7cc", "categories": [{"id": 13065, "name": "Restaurant", "short_name": "Restaurant", "plural_name": "Restaurants", "icon": {"prefix": "https://ss3.4sqi.net/img/categories_v2/food/default_", "suffix": ".png"}}], "chains": [], "closed_bucket": "LikelyOpen", "distance": 443, "geocodes": {"drop_off": {"latitude": 55.83912, "longitude": -4.221258}, "main": {"latitude": 55.839128, "longitude": -4.221331}, "roof": {"latitude": 55.839128, "longitude": -4.221331}}, "link": "/v3/places/69fd03c1ee2445b6e5e2a7cc", "location": {"address": "120 Carstairs St", "admin_region": "Scotland", "country": "GB", "formatted_address": "120 Carstairs St, Glasgow, G40 4JD", "locality": "Glasgow", "post_town": "Glasgow", "postcode": "G40 4JD"}, "name": "Thyme 2 Dine", "related_places": {}, "timezone": "Europe/London"}, {"fsq_id": "59b5955873fe25689bdc4da3", "categories": [{"id": 13199, "name": "Indian Restaurant", "short_name": "Indian", "plural_name": "Indian Restaurants", "icon": {"prefix": "https://ss3.4sqi.net/img/categories_v2/food/indian_", "suffix": ".png"}}], "chains": [], "closed_bucket": "VeryLikelyOpen", "distance": 668, "geocodes": {"main": {"latitude": 55.845736, "longitude": -4.226501}, "roof": {"latitude": 55.845736, "longitude": -4.226501}}, "link": "/v3/places/59b5955873fe25689bdc4da3", "location": {"address": "115 Main St", "admin_region": "Scotland", "country": "GB", "cross_street": "", "formatted_address": "115 Main St, Glasgow, Glasgow City, G40 1QD", "locality": "Glasgow", "post_town": "Glasgow", "postcode": "G40 1QD", "region": "Glasgow City"}, "name": "Punjabi Express", "related_places": {}, "timezone": "Europe/London"}, {"fsq_id": "4642a750fea24314de824454", "categories": [{"id": 13003, "name": "Bar", "short_name": "Bar", "plural_name": "Bars", "icon": {"prefix": "https://ss3.4sqi.net/img/categories_v2/nightlife/pub_", "suffix": ".png"}}], "chains": [], "closed_bucket": "VeryLikelyOpen", "distance": 723, "geocodes": {"main": {"latitude": 55.846846, "longitude": -4.226429}, "roof": {"latitude": 55.846846, "longitude": -4.226429}}, "link": "/v3/places/4642a750fea24314de824454", "location": {"address": "79 Main St", "admin_region": "Scotland", "country": "GB", "formatted_address": "79 Main St, Glasgow, G40 1QB", "locality": "Glasgow", "post_town": "Glasgow", "postcode": "G40 1QB"}, "name": "Park Lane Tavern", "related_places": {}, "timezone": "Europe/London"}, {"fsq_id": "4e1c07aac65be9fffd781d21", "categories": [{"id": 13018, "name": "Pub", "short_name": "Pub", "plural_name": "Pubs", "icon": {"prefix": "https://ss3.4sqi.net/img/categories_v2/nightlife/pub_", "suffix": ".png"}}], "chains": [], "closed_bucket": "VeryLikelyOpen", "distance": 735, "geocodes": {"main": {"latitude": 55.846555, "longitude": -4.22691}, "roof": {"latitude": 55.846555, "longitude": -4.22691}}, "link": "/v3/places/4e1c07aac65be9fffd781d21", "location": {"country": "GB", "cross_street": "", "formatted_address": "Glasgow, Glasgow City", "locality": "Glasgow", "post_town": "Glasgow", "region": "Glasgow City"}, "name": "The Scottsman Pub", "related_places": {}, "timezone": "Europe/London"}, {"fsq_id": "4d4c5e3e9bbb721e532692a0", "categories": [{"id": 13145, "name": "Fast Food Restaurant", "short_name": "Fast Food", "plural_name": "Fast Food Restaurants", "icon": {"prefix": "https://ss3.4sqi.net/img/categories_v2/food/fastfood_", "suffix": ".png"}}], "chains": [], "closed_bucket": "VeryLikelyOpen", "distance": 770, "geocodes": {"main": {"latitude": 55.846804, "longitude": -4.227163}, "roof": {"latitude": 55.846804, "longitude": -4.227163}}, "link": "/v3/places/4d4c5e3e9bbb721e532692a0", "location": {"address": "4 Tullis St", "admin_region": "Scotland", "country": "GB", "cross_street": "", "formatted_address": "4 Tullis St, Glasgow, G40 1HN", "locality": "Glasgow", "post_town": "Glasgow", "postcode": "G40 1HN"}, "name": "Curry Express", "related_places": {}, "timezone": "Europe/London"}, {"fsq_id": "64d0d74e0d44494f33fdf36b", "categories": [{"id": 13003, "name": "Bar", "short_name": "Bar", "plural_name": "Bars", "icon": {"prefix": "https://ss3.4sqi.net/img/categories_v2/nightlife/pub_", "suffix": ".png"}}], "chains": [], "closed_bucket": "LikelyOpen", "distance": 776, "geocodes": {"main": {"latitude": 55.848064, "longitude": -4.225379}, "roof": {"latitude": 55.848064, "longitude": -4.225379}}, "link": "/v3/places/64d0d74e0d44494f33fdf36b", "location": {"address": "46 Dalmarnock Rd", "admin_region": "Scotland", "country": "GB", "formatted_address": "46 Dalmarnock Rd, Glasgow, G40 4AB", "locality": "Glasgow", "post_town": "Glasgow", "postcode": "G40 4AB"}, "name": "Dominion Bar", "related_places": {}, "timezone": "Europe/London"}, {"fsq_id": "533b2097498e176b28561ef3", "categories": [{"id": 13064, "name": "Pizzeria", "short_name": "Pizza", "plural_name": "Pizzerias", "icon": {"prefix": "https://ss3.4sqi.net/img/categories_v2/food/pizza_", "suffix": ".png"}}, {"id": 13145, "name": "Fast Food Restaurant", "short_name": "Fast Food", "plural_name": "Fast Food Restaurants", "icon": {"prefix": "https://ss3.4sqi.net/img/categories_v2/food/fastfood_", "suffix": ".png"}}, {"id": 13199, "name": "Indian Restaurant", "short_name": "Indian", "plural_name": "Indian Restaurants", "icon": {"prefix": "https://ss3.4sqi.net/img/categories_v2/food/indian_", "suffix": ".png"}}], "chains": [], "closed_bucket": "VeryLikelyOpen", "distance": 786, "geocodes": {"main": {"latitude": 55.848234, "longitude": -4.225174}, "roof": {"latitude": 55.848234, "longitude": -4.225174}}, "link": "/v3/places/533b2097498e176b28561ef3", "location": {"address": "37 Dalmarnock Rd", "admin_region": "Scotland", "country": "GB", "cross_street": "", "formatted_address": "37 Dalmarnock Rd, Glasgow, G40 4LA", "locality": "Glasgow", "post_town": "Glasgow", "postcode": "G40 4LA"}, "name": "Spice Magic", "related_places": {}, "timezone": "Europe/London"}, {"fsq_id": "5158ac39e4b044dc82df73b3", "categories": [{"id": 13065, "name": "Restaurant", "short_name": "Restaurant", "plural_name": "Restaurants", "icon": {"prefix": "https://ss3.4sqi.net/img/categories_v2/food/default_", "suffix": ".png"}}, {"id": 16030, "name": "Other Great Outdoors", "short_name": "Other Outdoors", "plural_name": "Other Great Outdoors", "icon": {"prefix": "https://ss3.4sqi.net/img/categories_v2/parks_outdoors/outdoors_", "suffix": ".png"}}], "chains": [], "closed_bucket": "VeryLikelyOpen", "distance": 787, "geocodes": {"main": {"latitude": 55.844016, "longitude": -4.229882}, "roof": {"latitude": 55.844016, "longitude": -4.229882}}, "link": "/v3/places/5158ac39e4b044dc82df73b3", "location": {"admin_region": "England", "country": "GB", "cross_street": "", "formatted_address": "", "post_town": "Lincoln"}, "name": "Tam 'O' Shanter", "related_places": {}, "timezone": "Europe/London"}, {"fsq_id": "5e38f0024743fe00083faa85", "categories": [{"id": 13039, "name": "Deli", "short_name": "Deli", "plural_name": "Delis", "icon": {"prefix": "https://ss3.4sqi.net/img/categories_v2/food/deli_", "suffix": ".png"}}, {"id": 13145, "name": "Fast Food Restaurant", "short_name": "Fast Food", "plural_name": "Fast Food Restaurants", "icon": {"prefix": "https://ss3.4sqi.net/img/categories_v2/food/fastfood_", "suffix": ".png"}}, {"id": 13334, "name": "Sandwich Spot", "short_name": "Sandwich Spot", "plural_name": "Sandwich Spots", "icon": {"prefix": "https://ss3.4sqi.net/img/categories_v2/food/deli_", "suffix": ".png"}}], "chains": [{"id": "ab4bee40-d68a-012e-5619-003048cad9da", "name": "Subway"}], "closed_bucket": "VeryLikelyOpen", "distance": 814, "geocodes": {"main": {"latitude": 55.849402, "longitude": -4.222232}, "roof": {"latitude": 55.849402, "longitude": -4.222232}}, "link": "/v3/places/5e38f0024743fe00083faa85", "location": {"address": "Bridgeton Services, 723 London Rd", "admin_region": "Scotland", "country": "GB", "cross_street": "", "formatted_address": "Bridgeton Services, 723 London Rd, Glasgow, G40 3AS", "locality": "Glasgow", "post_town": "Glasgow", "postcode": "G40 3AS"}, "name": "Subway", "related_places": {}, "timezone": "Europe/London"}, {"fsq_id": "5247123111d2870c180bb35e", "categories": [{"id": 13051, "name": "Fish and Chips Shop", "short_name": "Fish and Chips Shop", "plural_name": "Fish and Chips Shops", "icon": {"prefix": "https://ss3.4sqi.net/img/categories_v2/food/fishandchips_", "suffix": ".png"}}], "chains": [], "closed_bucket": "VeryLikelyOpen", "distance": 865, "geocodes": {"main": {"latitude": 55.848478, "longitude": -4.226442}, "roof": {"latitude": 55.848478, "longitude": -4.226442}}, "link": "/v3/places/5247123111d2870c180bb35e", "location": {"country": "GB", "cross_street": "", "formatted_address": ""}, "name": "The Continental", "related_places": {}, "timezone": "Europe/London"}, {"fsq_id": "6f69cf486ed945dc40ff4197", "categories": [{"id": 13051, "name": "Fish and Chips Shop", "short_name": "Fish and Chips Shop", "plural_name": "Fish and Chips Shops", "icon": {"prefix": "https://ss3.4sqi.net/img/categories_v2/food/fishandchips_", "suffix": ".png"}}], "chains": [], "closed_bucket": "LikelyOpen", "distance": 904, "geocodes": {"main": {"latitude": 55.848637, "longitude": -4.227358}, "roof": {"latitude": 55.848637, "longitude": -4.227358}}, "link": "/v3/places/6f69cf486ed945dc40ff4197", "location": {"address": "177-179 James St", "admin_region": "Scotland", "country": "GB", "formatted_address": "177-179 James St, Glasgow, G40 1BT", "locality": "Glasgow", "post_town": "Glasgow", "postcode": "G40 1BT"}, "name": "The Continental fish & chips", "related_places": {}, "timezone": "Europe/London"}, {"fsq_id": "53d748f2498e147557c552ca", "categories": [{"id": 13034, "name": "Caf\u00e9", "short_name": "Caf\u00e9", "plural_name": "Caf\u00e9s", "icon": {"prefix": "https://ss3.4sqi.net/img/categories_v2/food/cafe_", "suffix": ".png"}}, {"id": 13035, "name": "Coffee Shop", "short_name": "Coffee Shop", "plural_name": "Coffee Shops", "icon": {"prefix": "https://ss3.4sqi.net/img/categories_v2/food/coffeeshop_", "suffix": ".png"}}, {"id": 13065, "name": "Restaurant", "short_name": "Restaurant", "plural_name": "Restaurants", "icon": {"prefix": "https://ss3.4sqi.net/img/categories_v2/food/default_", "suffix": ".png"}}], "chains": [], "closed_bucket": "VeryLikelyOpen", "distance": 913, "geocodes": {"main": {"latitude": 55.849128, "longitude": -4.227057}, "roof": {"latitude": 55.849128, "longitude": -4.227057}}, "link": "/v3/places/53d748f2498e147557c552ca", "location": {"address": "16a Bridgeton Cross", "admin_region": "Scotland", "country": "GB", "cross_street": "", "formatted_address": "16a Bridgeton Cross, Glasgow, G40 1BW", "locality": "Glasgow", "post_town": "Glasgow", "postcode": "G40 1BW"}, "name": "Pot & Kettle", "related_places": {}, "timezone": "Europe/London"}, {"fsq_id": "53372e5b498ec1f5636b5fa4", "categories": [{"id": 13003, "name": "Bar", "short_name": "Bar", "plural_name": "Bars", "icon": {"prefix": "https://ss3.4sqi.net/img/categories_v2/nightlife/pub_", "suffix": ".png"}}], "chains": [], "closed_bucket": "VeryLikelyOpen", "distance": 916, "geocodes": {"main": {"latitude": 55.846608, "longitude": -4.230624}, "roof": {"latitude": 55.846608, "longitude": -4.230624}}, "link": "/v3/places/53372e5b498ec1f5636b5fa4", "location": {"address": "100 Tullis St", "admin_region": "Scotland", "country": "GB", "cross_street": "", "formatted_address": "100 Tullis St, Glasgow, G40 1HW", "locality": "Glasgow", "post_town": "Glasgow", "postcode": "G40 1HW"}, "name": "The Bowlers Bar", "related_places": {}, "timezone": "Europe/London"}, {"fsq_id": "556f0774498e650bbe6a8e1a", "categories": [{"id": 13051, "name": "Fish and Chips Shop", "short_name": "Fish and Chips Shop", "plural_name": "Fish and Chips Shops", "icon": {"prefix": "https://ss3.4sqi.net/img/categories_v2/food/fishandchips_", "suffix": ".png"}}], "chains": [], "closed_bucket": "LikelyOpen", "distance": 923, "geocodes": {"main": {"latitude": 55.849025, "longitude": -4.227019}, "roof": {"latitude": 55.849025, "longitude": -4.227019}}, "link": "/v3/places/556f0774498e650bbe6a8e1a", "location": {"address": "14 Bridgeton Cross", "admin_region": "Scotland", "country": "GB", "cross_street": "", "formatted_address": "14 Bridgeton Cross, Glasgow, G40 1BW", "locality": "Glasgow", "post_town": "Glasgow", "postcode": "G40 1BW"}, "name": "Blue Bay Fish & Chip Shop", "related_places": {}, "timezone": "Europe/London"}, {"fsq_id": "4cc8f7b2b3f5224bfa2ef220", "categories": [{"id": 13022, "name": "Sports Bar", "short_name": "Sports Bar", "plural_name": "Sports Bars", "icon": {"prefix": "https://ss3.4sqi.net/img/categories_v2/nightlife/sportsbar_", "suffix": ".png"}}], "chains": [], "closed_bucket": "VeryLikelyOpen", "distance": 958, "geocodes": {"drop_off": {"latitude": 55.851049, "longitude": -4.221582}, "main": {"latitude": 55.850833, "longitude": -4.222064}, "roof": {"latitude": 55.850833, "longitude": -4.222064}}, "link": "/v3/places/4cc8f7b2b3f5224bfa2ef220", "location": {"address": "Duke St", "country": "GB", "cross_street": "", "formatted_address": "Duke St, Glasgow, Glasgow City", "locality": "Glasgow", "post_town": "Glasgow", "region": "Glasgow City"}, "name": "The the Louden Tavern", "related_places": {}, "timezone": "Europe/London"}, {"fsq_id": "8a32d946307644b90d707abe", "categories": [{"id": 13065, "name": "Restaurant", "short_name": "Restaurant", "plural_name": "Restaurants", "icon": {"prefix": "https://ss3.4sqi.net/img/categories_v2/food/default_", "suffix": ".png"}}], "chains": [], "closed_bucket": "Unsure", "distance": 281, "geocodes": {"drop_off": {"latitude": 55.840813, "longitude": -4.214655}, "main": {"latitude": 55.840662, "longitude": -4.214724}, "roof": {"latitude": 55.840662, "longitude": -4.214724}}, "link": "/v3/places/8a32d946307644b90d707abe", "location": {"address": "596 Dalmarnock Rd", "admin_region": "Scotland", "country": "GB", "formatted_address": "596 Dalmarnock Rd, Glasgow, G40 4NN", "locality": "Glasgow", "post_town": "Glasgow", "postcode": "G40 4NN"}, "name": "Pronto's", "related_places": {}}, {"fsq_id": "c9eb403fd7f469d948080598", "categories": [{"id": 13034, "name": "Caf\u00e9", "short_name": "Caf\u00e9", "plural_name": "Caf\u00e9s", "icon": {"prefix": "https://ss3.4sqi.net/img/categories_v2/food/cafe_", "suffix": ".png"}}, {"id": 13065, "name": "Restaurant", "short_name": "Restaurant", "plural_name": "Restaurants", "icon": {"prefix": "https://ss3.4sqi.net/img/categories_v2/food/default_", "suffix": ".png"}}], "chains": [], "closed_bucket": "Unsure", "distance": 483, "geocodes": {"drop_off": {"latitude": 55.841056, "longitude": -4.210464}, "main": {"latitude": 55.841173, "longitude": -4.210362}, "roof": {"latitude": 55.841173, "longitude": -4.210362}}, "link": "/v3/places/c9eb403fd7f469d948080598", "location": {"address": "71 Sunnybank St", "country": "GB", "formatted_address": "71 Sunnybank St, Glasgow", "locality": "Glasgow", "post_town": "Glasgow"}, "name": "Polish Food", "related_places": {}}, {"fsq_id": "2427f6a237034e0149a68405", "categories": [{"id": 13064, "name": "Pizzeria", "short_name": "Pizza", "plural_name": "Pizzerias", "icon": {"prefix": "https://ss3.4sqi.net/img/categories_v2/food/pizza_", "suffix": ".png"}}, {"id": 13199, "name": "Indian Restaurant", "short_name": "Indian", "plural_name": "Indian Restaurants", "icon": {"prefix": "https://ss3.4sqi.net/img/categories_v2/food/indian_", "suffix": ".png"}}], "chains": [], "closed_bucket": "LikelyOpen", "distance": 662, "geocodes": {"drop_off": {"latitude": 55.845903, "longitude": -4.226727}, "main": {"latitude": 55.845893, "longitude": -4.226505}, "roof": {"latitude": 55.845893, "longitude": -4.226505}}, "link": "/v3/places/2427f6a237034e0149a68405", "location": {"address": "115 Main St", "country": "GB", "formatted_address": "115 Main St, Glasgow", "locality": "Glasgow", "post_town": "Glasgow"}, "name": "Sati express", "related_places": {}}, {"fsq_id": "1040b3b51d61ff3290837411", "categories": [{"id": 13065, "name": "Restaurant", "short_name": "Restaurant", "plural_name": "Restaurants", "icon": {"prefix": "https://ss3.4sqi.net/img/categories_v2/food/default_", "suffix": ".png"}}], "chains": [], "closed_bucket": "LikelyOpen", "distance": 662, "geocodes": {"drop_off": {"latitude": 55.845903, "longitude": -4.226727}, "main": {"latitude": 55.845893, "longitude": -4.226505}, "roof": {"latitude": 55.845893, "longitude": -4.226505}}, "link": "/v3/places/1040b3b51d61ff3290837411", "location": {"address": "115 Main St", "admin_region": "Scotland", "country": "GB", "formatted_address": "115 Main St, Glasgow", "locality": "Glasgow", "post_town": "Glasgow"}, "name": "Curry Palace", "related_places": {}}, {"fsq_id": "7611b57534d942e0fc68fe8d", "categories": [{"id": 13065, "name": "Restaurant", "short_name": "Restaurant", "plural_name": "Restaurants", "icon": {"prefix": "https://ss3.4sqi.net/img/categories_v2/food/default_", "suffix": ".png"}}], "chains": [], "closed_bucket": "LikelyOpen", "distance": 829, "geocodes": {"drop_off": {"latitude": 55.848338, "longitude": -4.225782}, "main": {"latitude": 55.84852, "longitude": -4.225708}, "roof": {"latitude": 55.84852, "longitude": -4.225708}}, "link": "/v3/places/7611b57534d942e0fc68fe8d", "location": {"address": "25 Dalmarnock Rd", "admin_region": "Scotland", "country": "GB", "formatted_address": "25 Dalmarnock Rd, Glasgow", "locality": "Glasgow", "post_town": "Glasgow"}, "name": "China House", "related_places": {}}, {"fsq_id": "e347b580c027492c5bb0a0a7", "categories": [{"id": 13051, "name": "Fish and Chips Shop", "short_name": "Fish and Chips Shop", "plural_name": "Fish and Chips Shops", "icon": {"prefix": "https://ss3.4sqi.net/img/categories_v2/food/fishandchips_", "suffix": ".png"}}], "chains": [], "closed_bucket": "LikelyOpen", "distance": 872, "geocodes": {"drop_off": {"latitude": 55.848448, "longitude": -4.22748}, "main": {"latitude": 55.848212, "longitude": -4.227415}, "roof": {"latitude": 55.848212, "longitude": -4.227415}}, "link": "/v3/places/e347b580c027492c5bb0a0a7", "location": {"address": "177 James St", "admin_region": "Scotland", "country": "GB", "formatted_address": "177 James St, Glasgow, G40 1BT", "locality": "Glasgow", "post_town": "Glasgow", "postcode": "G40 1BT"}, "name": "The Continental Chip Shop", "related_places": {}}, {"fsq_id": "62ead3a14e1a4d9292ea8135", "categories": [{"id": 13065, "name": "Restaurant", "short_name": "Restaurant", "plural_name": "Restaurants", "icon": {"prefix": "https://ss3.4sqi.net/img/categories_v2/food/default_", "suffix": ".png"}}], "chains": [], "closed_bucket": "LikelyOpen", "distance": 904, "geocodes": {"drop_off": {"latitude": 55.837028, "longitude": -4.228664}, "main": {"latitude": 55.837188, "longitude": -4.228592}, "roof": {"latitude": 55.837188, "longitude": -4.228592}}, "link": "/v3/places/62ead3a14e1a4d9292ea8135", "location": {"address": "Rutherglen Main St", "country": "GB", "formatted_address": "Rutherglen Main St, Rutherglen", "locality": "Rutherglen"}, "name": "Thursdays at County Inn - Dj Ross McFadyen", "related_places": {}}, {"fsq_id": "4356a4ba186255e6d38f3851", "categories": [{"id": 13039, "name": "Deli", "short_name": "Deli", "plural_name": "Delis", "icon": {"prefix": "https://ss3.4sqi.net/img/categories_v2/food/deli_", "suffix": ".png"}}, {"id": 13145, "name": "Fast Food Restaurant", "short_name": "Fast Food", "plural_name": "Fast Food Restaurants", "icon": {"prefix": "https://ss3.4sqi.net/img/categories_v2/food/fastfood_", "suffix": ".png"}}, {"id": 13334, "name": "Sandwich Spot", "short_name": "Sandwich Spot", "plural_name": "Sandwich Spots", "icon": {"prefix": "https://ss3.4sqi.net/img/categories_v2/food/deli_", "suffix": ".png"}}], "chains": [{"id": "ab4bee40-d68a-012e-5619-003048cad9da", "name": "Subway"}], "closed_bucket": "VeryLikelyOpen", "distance": 907, "geocodes": {"drop_off": {"latitude": 55.835979, "longitude": -4.20911}, "main": {"latitude": 55.836038, "longitude": -4.20895}, "roof": {"latitude": 55.836038, "longitude": -4.20895}}, "link": "/v3/places/4356a4ba186255e6d38f3851", "location": {"address": "Dalmarnock Rd", "address_extended": "Unit 1", "admin_region": "Scotland", "country": "GB", "formatted_address": "Dalmarnock Rd, Glasgow, G73 1NY", "locality": "Glasgow", "post_town": "Glasgow", "postcode": "G73 1NY"}, "name": "Subway", "related_places": {}}, {"fsq_id": "622857fb30d8456cee2cc819", "categories": [{"id": 11021, "name": "Business Center", "short_name": "Business Center", "plural_name": "Business Centers", "icon": {"prefix": "https://ss3.4sqi.net/img/categories_v2/building/default_", "suffix": ".png"}}, {"id": 11147, "name": "Commercial Real Estate Developer", "short_name": "Commercial Real Estate Developer", "plural_name": "Commercial Real Estate Developers", "icon": {"prefix": "https://ss3.4sqi.net/img/categories_v2/building/default_", "suffix": ".png"}}, {"id": 11149, "name": "Real Estate Agency", "short_name": "Real Estate", "plural_name": "Real Estate Agencies", "icon": {"prefix": "https://ss3.4sqi.net/img/categories_v2/shops/realestate_", "suffix": ".png"}}, {"id": 13065, "name": "Restaurant", "short_name": "Restaurant", "plural_name": "Restaurants", "icon": {"prefix": "https://ss3.4sqi.net/img/categories_v2/food/default_", "suffix": ".png"}}], "chains": [], "closed_bucket": "LikelyOpen", "distance": 988, "geocodes": {"main": {"latitude": 55.850587, "longitude": -4.224544}, "roof": {"latitude": 55.850587, "longitude": -4.224544}}, "link": "/v3/places/622857fb30d8456cee2cc819", "location": {"address": "47 Broad St", "admin_region": "Scotland", "country": "GB", "formatted_address": "47 Broad St, Glasgow, G40 2QW", "locality": "Glasgow", "post_town": "Glasgow", "postcode": "G40 2QW"}, "name": "Broad Street Business Complex", "related_places": {}}, {"fsq_id": "e9d2a21f12f14dc6c39f5169", "categories": [{"id": 13025, "name": "Wine Bar", "short_name": "Wine Bar", "plural_name": "Wine Bars", "icon": {"prefix": "https://ss3.4sqi.net/img/categories_v2/food/winery_", "suffix": ".png"}}], "chains": [], "closed_bucket": "LikelyOpen", "distance": 993, "geocodes": {"drop_off": {"latitude": 55.849478, "longitude": -4.227618}, "main": {"latitude": 55.849571, "longitude": -4.227596}, "roof": {"latitude": 55.849571, "longitude": -4.227596}}, "link": "/v3/places/e9d2a21f12f14dc6c39f5169", "location": {"address": "603 London Rd", "admin_region": "Scotland", "country": "GB", "formatted_address": "603 London Rd, Glasgow, G40 1NE", "locality": "Glasgow", "post_town": "Glasgow", "postcode": "G40 1NE"}, "name": "The Station Bar", "related_places": {}}], "context": {"geo_bounds": {"circle": {"center": {"latitude": 55.842561, "longitude": -4.217704}, "radius": 1000}}}}