{"results": [{"fsq_id": "55ca18f2498e89eef195151d", "categories": [{"id": 13064, "name": "Pizzeria", "short_name": "Pizza", "plural_name": "Pizzerias", "icon": {"prefix": "https://ss3.4sqi.net/img/categories_v2/food/pizza_", "suffix": ".png"}}, {"id": 13236, "name": "Italian Restaurant", "short_name": "Italian", "plural_name": "Italian Restaurants", "icon": {"prefix": "https://ss3.4sqi.net/img/categories_v2/food/italian_", "suffix": ".png"}}], "chains": [], "closed_bucket": "LikelyOpen", "distance": 708, "geocodes": {"main": {"latitude": 55.859642, "longitude": -4.250598}, "roof": {"latitude": 55.859642, "longitude": -4.250598}}, "link": "/v3/places/55ca18f2498e89eef195151d", "location": {"address": "94 Miller St", "admin_region": "Scotland", "country": "GB", "cross_street": "Ingram St", "formatted_address": "94 Miller St (Ingram St), Glasgow, Glasgow City, G1 1DT", "locality": "Glasgow", "post_town": "Glasgow", "postcode": "G1 1DT", "region": "Glasgow City"}, "name": "Paesano Pizza", "related_places": {}, "timezone": "Europe/London"}, {"fsq_id": "54c7cade498e300defb0985f", "categories": [{"id": 13034, "name": "Caf\u00e9", "short_name": "Caf\u00e9", "plural_name": "Caf\u00e9s", "icon": {"prefix": "https://ss3.4sqi.net/img/categories_v2/food/cafe_", "suffix": ".png"}}, {"id": 13065, "name": "Restaurant", "short_name": "Restaurant", "plural_name": "Restaurants", "icon": {"prefix": "https://ss3.4sqi.net/img/categories_v2/food/default_", "suffix": ".png"}}], "chains": [], "closed_bucket": "Unsure", "distance": 610, "geocodes": {"main": {"latitude": 55.858485, "longitude": -4.245939}, "roof": {"latitude": 55.858485, "longitude": -4.245939}}, "link": "/v3/places/54c7cade498e300defb0985f", "location": {"address": "6 Wilson St", "admin_region": "Scotland", "country": "GB", "cross_street": "", "formatted_address": "6 Wilson St, Glasgow, Glasgow City, G1 1SS", "locality": "Glasgow", "post_town": "Glasgow", "postcode": "G1 1SS", "region": "Glasgow City"}, "name": "Wilson Street Pantry", "related_places": {}, "timezone": "Europe/London"}, {"fsq_id": "53e52950498ee2c0974731b8", "categories": [{"id": 10000, "name": "Arts and Entertainment", "short_name": "Arts & Entertainment", "plural_name": "Arts and Entertainment", "icon": {"prefix": "https://ss3.4sqi.net/img/categories_v2/arts_entertainment/default_", "suffix": ".png"}}, {"id": 13006, "name": "Beer Bar", "short_name": "Beer Bar", "plural_name": "Beer Bars", "icon": {"prefix": "https://ss3.4sqi.net/img/categories_v2/nightlife/pub_", "suffix": ".png"}}, {"id": 13026, "name": "BBQ Joint", "short_name": "BBQ", "plural_name": "BBQ Joints", "icon": {"prefix": "https://ss3.4sqi.net/img/categories_v2/food/bbqalt_", "suffix": ".png"}}], "chains": [], "closed_bucket": "Unsure", "distance": 585, "geocodes": {"drop_off": {"latitude": 55.859269, "longitude": -4.247825}, "main": {"latitude": 55.859318, "longitude": -4.247961}, "roof": {"latitude": 55.859318, "longitude": -4.247961}}, "link": "/v3/places/53e52950498ee2c0974731b8", "location": {"address": "99 Hutcheson St", "admin_region": "Scotland", "country": "GB", "cross_street": "", "formatted_address": "99 Hutcheson St, Glasgow, Glasgow City, G1 1SN", "locality": "Glasgow", "post_town": "Glasgow", "postcode": "G1 1SN", "region": "Glasgow City"}, "name": "DogHouse Merchant City", "related_places": {}, "timezone": "Europe/London"}, {"fsq_id": "537dcf0d498e02df07785e2f", "categories": [{"id": 13003, "name": "Bar", "short_name": "Bar", "plural_name": "Bars", "icon": {"prefix": "https://ss3.4sqi.net/img/categories_v2/nightlife/pub_", "suffix": ".png"}}, {"id": 13029, "name": "Brewery", "short_name": "Brewery", "plural_name": "Breweries", "icon": {"prefix": "https://ss3.4sqi.net/img/categories_v2/food/brewery_", "suffix": ".png"}}], "chains": [], "closed_bucket": "Unsure", "distance": 561, "geocodes": {"main": {"latitude": 55.861185, "longitude": -4.234563}, "roof": {"latitude": 55.861185, "longitude": -4.234563}}, "link": "/v3/places/537dcf0d498e02df07785e2f", "location": {"address": "85 Drygate", "admin_region": "Scotland", "country": "GB", "cross_street": "", "formatted_address": "85 Drygate, Glasgow, G4 0UT", "locality": "Glasgow", "post_town": "Glasgow", "postcode": "G4 0UT"}, "name": "Drygate Brewing Co", "related_places": {"children": []}, "timezone": "Europe/London"}, {"fsq_id": "53c583cf498e63ea4da3718c", "categories": [{"id": 13303, "name": "Mexican Restaurant", "short_name": "Mexican", "plural_name": "Mexican Restaurants", "icon": {"prefix": "https://ss3.4sqi.net/img/categories_v2/food/mexican_", "suffix": ".png"}}, {"id": 13347, "name": "Tapas Restaurant", "short_name": "Tapas", "plural_name": "Tapas Restaurants", "icon": {"prefix": "https://ss3.4sqi.net/img/categories_v2/food/tapas_", "suffix": ".png"}}], "chains": [], "closed_bucket": "Unsure", "distance": 969, "geocodes": {"main": {"latitude": 55.861321, "longitude": -4.256256}, "roof": {"latitude": 55.861321, "longitude": -4.256256}}, "link": "/v3/places/53c583cf498e63ea4da3718c", "location": {"address": "89 St Vincent St", "admin_region": "Scotland", "country": "GB", "cross_street": "", "formatted_address": "89 St Vincent St, Glasgow, G2 5TF", "locality": "Glasgow", "post_town": "Glasgow", "postcode": "G2 5TF"}, "name": "Topolabamba", "related_places": {}, "timezone": "Europe/London"}, {"fsq_id": "554cdd3c498ee17d5a870117", "categories": [{"id": 13035, "name": "Coffee Shop", "short_name": "Coffee Shop", "plural_name": "Coffee Shops", "icon": {"prefix": "https://ss3.4sqi.net/img/categories_v2/food/coffeeshop_", "suffix": ".png"}}, {"id": 13065, "name": "Restaurant", "short_name": "Restaurant", "plural_name": "Restaurants", "icon": {"prefix": "https://ss3.4sqi.net/img/categories_v2/food/default_", "suffix": ".png"}}], "chains": [], "closed_bucket": "Unsure", "distance": 469, "geocodes": {"main": {"latitude": 55.859412, "longitude": -4.245371}, "roof": {"latitude": 55.859412, "longitude": -4.245371}}, "link": "/v3/places/554cdd3c498ee17d5a870117", "location": {"address": "127 Candleriggs", "admin_region": "Scotland", "country": "GB", "cross_street": "", "formatted_address": "127 Candleriggs, Glasgow, G1 1NP", "locality": "Glasgow", "post_town": "Glasgow", "postcode": "G1 1NP"}, "name": "Spitfire Espresso", "related_places": {}, "timezone": "Europe/London"}, {"fsq_id": "4eee14c8b8f76a24a5ddef1c", "categories": [{"id": 13051, "name": "Fish and Chips Shop", "short_name": "Fish and Chips Shop", "plural_name": "Fish and Chips Shops", "icon": {"prefix": "https://ss3.4sqi.net/img/categories_v2/food/fishandchips_", "suffix": ".png"}}, {"id": 13338, "name": "Seafood Restaurant", "short_name": "Seafood", "plural_name": "Seafood Restaurants", "icon": {"prefix": "https://ss3.4sqi.net/img/categories_v2/food/seafood_", "suffix": ".png"}}], "chains": [], "closed_bucket": "LikelyOpen", "distance": 442, "geocodes": {"main": {"latitude": 55.858935, "longitude": -4.241713}, "roof": {"latitude": 55.858935, "longitude": -4.241713}}, "link": "/v3/places/4eee14c8b8f76a24a5ddef1c", "location": {"address": "155 High St", "admin_region": "Scotland", "country": "GB", "cross_street": "", "formatted_address": "155 High St, Glasgow, Glasgow City, G1 1PH", "locality": "Glasgow", "post_town": "Glasgow", "postcode": "G1 1PH", "region": "Glasgow City"}, "name": "Merchant Chippie", "related_places": {}, "timezone": "Europe/London"}, {"fsq_id": "5aa9491069e77b5f8b64713a", "categories": [{"id": 13145, "name": "Fast Food Restaurant", "short_name": "Fast Food", "plural_name": "Fast Food Restaurants", "icon": {"prefix": "https://ss3.4sqi.net/img/categories_v2/food/fastfood_", "suffix": ".png"}}], "chains": [], "closed_bucket": "Unsure", "distance": 958, "geocodes": {"main": {"latitude": 55.860611, "longitude": -4.255778}, "roof": {"latitude": 55.860611, "longitude": -4.255778}}, "link": "/v3/places/5aa9491069e77b5f8b64713a", "location": {"address": "28 Gordon St", "admin_region": "Scotland", "country": "GB", "cross_street": "", "formatted_address": "28 Gordon St, Glasgow, Glasgow City, G1 3PW", "locality": "Glasgow", "post_town": "Glasgow", "postcode": "G1 3PW", "region": "Glasgow City"}, "name": "Tantrum Doughnuts", "related_places": {"children": []}, "timezone": "Europe/London"}, {"fsq_id": "543d3e26498e1b6b7dc59538", "categories": [{"id": 13009, "name": "Cocktail Bar", "short_name": "Cocktail", "plural_name": "Cocktail Bars", "icon": {"prefix": "https://ss3.4sqi.net/img/categories_v2/nightlife/cocktails_", "suffix": ".png"}}, {"id": 13025, "name": "Wine Bar", "short_name": "Wine Bar", "plural_name": "Wine Bars", "icon": {"prefix": "https://ss3.4sqi.net/img/categories_v2/food/winery_", "suffix": ".png"}}, {"id": 13049, "name": "Diner", "short_name": "Diner", "plural_name": "Diners", "icon": {"prefix": "https://ss3.4sqi.net/img/categories_v2/food/diner_", "suffix": ".png"}}], "chains": [], "closed_bucket": "Unsure", "distance": 735, "geocodes": {"main": {"latitude": 55.861172, "longitude": -4.252397}, "roof": {"latitude": 55.861172, "longitude": -4.252397}}, "link": "/v3/places/543d3e26498e1b6b7dc59538", "location": {"address": "12-16 St Vincent Pl", "admin_region": "Scotland", "country": "GB", "cross_street": "", "formatted_address": "12-16 St Vincent Pl, Glasgow, G1 2DH", "locality": "Glasgow", "post_town": "Glasgow", "postcode": "G1 2DH"}, "name": "Anchor Line", "related_places": {}, "timezone": "Europe/London"}, {"fsq_id": "4b96b832f964a52026e034e3", "categories": [{"id": 13236, "name": "Italian Restaurant", "short_name": "Italian", "plural_name": "Italian Restaurants", "icon": {"prefix": "https://ss3.4sqi.net/img/categories_v2/food/italian_", "suffix": ".png"}}], "chains": [], "closed_bucket": "VeryLikelyOpen", "distance": 438, "geocodes": {"main": {"latitude": 55.859459, "longitude": -4.243621}, "roof": {"latitude": 55.859459, "longitude": -4.243621}}, "link": "/v3/places/4b96b832f964a52026e034e3", "location": {"address": "64 Ingram St", "admin_region": "Scotland", "country": "GB", "formatted_address": "64 Ingram St, Glasgow, Glasgow City, G1 1EX", "locality": "Glasgow", "post_town": "Glasgow", "postcode": "G1 1EX", "region": "Glasgow City"}, "name": "Italian Kitchen", "related_places": {}, "timezone": "Europe/London"}, {"fsq_id": "4b4c7ebcf964a52074b426e3", "categories": [{"id": 13003, "name": "Bar", "short_name": "Bar", "plural_name": "Bars", "icon": {"prefix": "https://ss3.4sqi.net/img/categories_v2/nightlife/pub_", "suffix": ".png"}}, {"id": 13338, "name": "Seafood Restaurant", "short_name": "Seafood", "plural_name": "Seafood Restaurants", "icon": {"prefix": "https://ss3.4sqi.net/img/categories_v2/food/seafood_", "suffix": ".png"}}], "chains": [], "closed_bucket": "VeryLikelyOpen", "distance": 608, "geocodes": {"main": {"latitude": 55.86114, "longitude": -4.250188}, "roof": {"latitude": 55.86114, "longitude": -4.250188}}, "link": "/v3/places/4b4c7ebcf964a52074b426e3", "location": {"address": "40 George Square", "admin_region": "Scotland", "country": "GB", "formatted_address": "40 George Square, Glasgow, Glasgow City, G2 1DS", "locality": "Glasgow", "post_town": "Glasgow", "postcode": "G2 1DS", "region": "Glasgow City"}, "name": "George Square", "related_places": {"children": []}, "timezone": "Europe/London"}, {"fsq_id": "4b6c5d0cf964a520d7332ce3", "categories": [{"id": 13003, "name": "Bar", "short_name": "Bar", "plural_name": "Bars", "icon": {"prefix": "https://ss3.4sqi.net/img/categories_v2/nightlife/pub_", "suffix": ".png"}}, {"id": 13064, "name": "Pizzeria", "short_name": "Pizza", "plural_name": "Pizzerias", "icon": {"prefix": "https://ss3.4sqi.net/img/categories_v2/food/pizza_", "suffix": ".png"}}, {"id": 13377, "name": "Vegan and Vegetarian Restaurant", "short_name": "Vegan and Vegetarian Restaurant", "plural_name": "Vegan and Vegetarian Restaurants", "icon": {"prefix": "https://ss3.4sqi.net/img/categories_v2/food/vegetarian_", "suffix": ".png"}}], "chains": [], "closed_bucket": "VeryLikelyOpen", "distance": 882, "geocodes": {"main": {"latitude": 55.855682, "longitude": -4.246134}, "roof": {"latitude": 55.855682, "longitude": -4.246134}}, "link": "/v3/places/4b6c5d0cf964a520d7332ce3", "location": {"address": "12 Kings Ct", "admin_region": "Scotland", "country": "GB", "cross_street": "at King St", "formatted_address": "12 Kings Ct (at King St), Glasgow, Glasgow City, G1 5RB", "locality": "Glasgow", "post_town": "Glasgow", "postcode": "G1 5RB", "region": "Glasgow City"}, "name": "Mono", "related_places": {}, "timezone": "Europe/London"}, {"fsq_id": "58037931d67cf45e38f69da8", "categories": [{"id": 13199, "name": "Indian Restaurant", "short_name": "Indian", "plural_name": "Indian Restaurants", "icon": {"prefix": "https://ss3.4sqi.net/img/categories_v2/food/indian_", "suffix": ".png"}}], "chains": [], "closed_bucket": "VeryLikelyOpen", "distance": 945, "geocodes": {"drop_off": {"latitude": 55.861395, "longitude": -4.255884}, "main": {"latitude": 55.861236, "longitude": -4.255903}, "roof": {"latitude": 55.861236, "longitude": -4.255903}}, "link": "/v3/places/58037931d67cf45e38f69da8", "location": {"address": "79 St Vincent St", "admin_region": "Scotland", "country": "GB", "cross_street": "", "formatted_address": "79 St Vincent St, Glasgow, Glasgow City, G2 5TF", "locality": "Glasgow", "post_town": "Glasgow", "postcode": "G2 5TF", "region": "Glasgow City"}, "name": "Chaakoo Bombay Cafe", "related_places": {}, "timezone": "Europe/London"}, {"fsq_id": "59b2e2a647f8761788a16b5f", "categories": [{"id": 13009, "name": "Cocktail Bar", "short_name": "Cocktail", "plural_name": "Cocktail Bars", "icon": {"prefix": "https://ss3.4sqi.net/img/categories_v2/nightlife/cocktails_", "suffix": ".png"}}, {"id": 13065, "name": "Restaurant", "short_name": "Restaurant", "plural_name": "Restaurants", "icon": {"prefix": "https://ss3.4sqi.net/img/categories_v2/food/default_", "suffix": ".png"}}], "chains": [], "closed_bucket": "Unsure", "distance": 758, "geocodes": {"drop_off": {"latitude": 55.861034, "longitude": -4.252725}, "main": {"latitude": 55.861154, "longitude": -4.252712}, "roof": {"latitude": 55.861154, "longitude": -4.252712}}, "link": "/v3/places/59b2e2a647f8761788a16b5f", "location": {"address": "24 St Vincent Pl", "admin_region": "Scotland", "country": "GB", "cross_street": "", "formatted_address": "24 St Vincent Pl, Glasgow, Glasgow City, G1 2EU", "locality": "Glasgow", "post_town": "Glasgow", "postcode": "G1 2EU", "region": "Glasgow City"}, "name": "The Citizen Bar & Dining Rooms", "related_places": {}, "timezone": "Europe/London"}, {"fsq_id": "4b76f668f964a520036f2ee3", "categories": [{"id": 13009, "name": "Cocktail Bar", "short_name": "Cocktail", "plural_name": "Cocktail Bars", "icon": {"prefix": "https://ss3.4sqi.net/img/categories_v2/nightlife/cocktails_", "suffix": ".png"}}, {"id": 13025, "name": "Wine Bar", "short_name": "Wine Bar", "plural_name": "Wine Bars", "icon": {"prefix": "https://ss3.4sqi.net/img/categories_v2/food/winery_", "suffix": ".png"}}, {"id": 13145, "name": "Fast Food Restaurant", "short_name": "Fast Food", "plural_name": "Fast Food Restaurants", "icon": {"prefix": "https://ss3.4sqi.net/img/categories_v2/food/fastfood_", "suffix": ".png"}}], "chains": [], "closed_bucket": "VeryLikelyOpen", "distance": 789, "geocodes": {"main": {"latitude": 55.859437, "longitude": -4.252344}, "roof": {"latitude": 55.859437, "longitude": -4.252344}}, "link": "/v3/places/4b76f668f964a520036f2ee3", "location": {"address": "73 Queen St", "admin_region": "Scotland", "country": "GB", "formatted_address": "73 Queen St, Glasgow, Glasgow City, G1 3BZ", "locality": "Glasgow", "post_town": "Glasgow", "postcode": "G1 3BZ", "region": "Glasgow City"}, "name": "Max's Bar and Grill", "related_places": {}, "timezone": "Europe/London"}, {"fsq_id": "5de800781a9c7d0008fa7469", "categories": [{"id": 13236, "name": "Italian Restaurant", "short_name": "Italian", "plural_name": "Italian Restaurants", "icon": {"prefix": "https://ss3.4sqi.net/img/categories_v2/food/italian_", "suffix": ".png"}}], "chains": [], "closed_bucket": "Unsure", "distance": 982, "geocodes": {"drop_off": {"latitude": 55.859744, "longitude": -4.255787}, "main": {"latitude": 55.859725, "longitude": -4.255611}, "roof": {"latitude": 55.859725, "longitude": -4.255611}}, "link": "/v3/places/5de800781a9c7d0008fa7469", "location": {"address": "60-70 Mitchell St", "admin_region": "Scotland", "country": "GB", "cross_street": "Mitchell Lane", "formatted_address": "60-70 Mitchell St (Mitchell Lane), Glasgow, Glasgow City", "locality": "Glasgow", "post_town": "Glasgow", "region": "Glasgow City"}, "name": "Sugo", "related_places": {}, "timezone": "Europe/London"}, {"fsq_id": "4b2cfd42f964a520e2cb24e3", "categories": [{"id": 13034, "name": "Caf\u00e9", "short_name": "Caf\u00e9", "plural_name": "Caf\u00e9s", "icon": {"prefix": "https://ss3.4sqi.net/img/categories_v2/food/cafe_", "suffix": ".png"}}, {"id": 13035, "name": "Coffee Shop", "short_name": "Coffee Shop", "plural_name": "Coffee Shops", "icon": {"prefix": "https://ss3.4sqi.net/img/categories_v2/food/coffeeshop_", "suffix": ".png"}}, {"id": 13065, "name": "Restaurant", "short_name": "Restaurant", "plural_name": "Restaurants", "icon": {"prefix": "https://ss3.4sqi.net/img/categories_v2/food/default_", "suffix": ".png"}}], "chains": [], "closed_bucket": "Unsure", "distance": 490, "geocodes": {"main": {"latitude": 55.859735, "longitude": -4.246187}, "roof": {"latitude": 55.859735, "longitude": -4.246187}}, "link": "/v3/places/4b2cfd42f964a520e2cb24e3", "location": {"address": "118 Ingram St", "address_extended": "Unit 4", "admin_region": "Scotland", "country": "GB", "formatted_address": "118 Ingram St, Glasgow, Glasgow City, G1 1EJ", "locality": "Glasgow", "post_town": "Glasgow", "postcode": "G1 1EJ", "region": "Glasgow City"}, "name": "Tinderbox", "related_places": {}, "timezone": "Europe/London"}, {"fsq_id": "5758817d498eee35ef6c2d0d", "categories": [{"id": 13003, "name": "Bar", "short_name": "Bar", "plural_name": "Bars", "icon": {"prefix": "https://ss3.4sqi.net/img/categories_v2/nightlife/pub_", "suffix": ".png"}}, {"id": 13029, "name": "Brewery", "short_name": "Brewery", "plural_name": "Breweries", "icon": {"prefix": "https://ss3.4sqi.net/img/categories_v2/food/brewery_", "suffix": ".png"}}, {"id": 13065, "name": "Restaurant", "short_name": "Restaurant", "plural_name": "Restaurants", "icon": {"prefix": "https://ss3.4sqi.net/img/categories_v2/food/default_", "suffix": ".png"}}], "chains": [], "closed_bucket": "Unsure", "distance": 883, "geocodes": {"drop_off": {"latitude": 55.86217, "longitude": -4.25515}, "main": {"latitude": 55.862333, "longitude": -4.25513}, "roof": {"latitude": 55.862333, "longitude": -4.25513}}, "link": "/v3/places/5758817d498eee35ef6c2d0d", "location": {"address": "92 West George St", "admin_region": "Scotland", "country": "GB", "cross_street": "", "formatted_address": "92 West George St, Glasgow, G2 1PJ", "locality": "Glasgow", "post_town": "Glasgow", "postcode": "G2 1PJ"}, "name": "Shilling Brewing Co", "related_places": {}, "timezone": "Europe/London"}, {"fsq_id": "4b4df610f964a52050dc26e3", "categories": [{"id": 13007, "name": "Beer Garden", "short_name": "Beer Garden", "plural_name": "Beer Gardens", "icon": {"prefix": "https://ss3.4sqi.net/img/categories_v2/nightlife/beergarden_", "suffix": ".png"}}, {"id": 13018, "name": "Pub", "short_name": "Pub", "plural_name": "Pubs", "icon": {"prefix": "https://ss3.4sqi.net/img/categories_v2/nightlife/pub_", "suffix": ".png"}}, {"id": 13064, "name": "Pizzeria", "short_name": "Pizza", "plural_name": "Pizzerias", "icon": {"prefix": "https://ss3.4sqi.net/img/categories_v2/food/pizza_", "suffix": ".png"}}], "chains": [], "closed_bucket": "Unsure", "distance": 899, "geocodes": {"main": {"latitude": 55.860258, "longitude": -4.254576}, "roof": {"latitude": 55.860258, "longitude": -4.254576}}, "link": "/v3/places/4b4df610f964a52050dc26e3", "location": {"address": "9 Gordon St", "admin_region": "Scotland", "country": "GB", "cross_street": "", "formatted_address": "9 Gordon St, Glasgow, Glasgow City, G1 3PL", "locality": "Glasgow", "post_town": "Glasgow", "postcode": "G1 3PL", "region": "Glasgow City"}, "name": "Republic Bier Halle", "related_places": {}, "timezone": "Europe/London"}, {"fsq_id": "57e32fed498e1b7a265a1ad2", "categories": [{"id": 13064, "name": "Pizzeria", "short_name": "Pizza", "plural_name": "Pizzerias", "icon": {"prefix": "https://ss3.4sqi.net/img/categories_v2/food/pizza_", "suffix": ".png"}}], "chains": [], "closed_bucket": "LikelyOpen", "distance": 955, "geocodes": {"main": {"latitude": 55.861503, "longitude": -4.255841}, "roof": {"latitude": 55.861503, "longitude": -4.255841}}, "link": "/v3/places/57e32fed498e1b7a265a1ad2", "location": {"address": "90 St Vincent St", "admin_region": "Scotland", "country": "GB", "cross_street": "", "formatted_address": "90 St Vincent St, Glasgow, G2 5UB", "locality": "Glasgow", "post_town": "Glasgow", "postcode": "G2 5UB"}, "name": "Pizza Punks", "related_places": {}, "timezone": "Europe/London"}, {"fsq_id": "4b684fb0f964a52011712be3", "categories": [{"id": 13263, "name": "Japanese Restaurant", "short_name": "Japanese", "plural_name": "Japanese Restaurants", "icon": {"prefix": "https://ss3.4sqi.net/img/categories_v2/food/japanese_", "suffix": ".png"}}], "chains": [], "closed_bucket": "VeryLikelyOpen", "distance": 909, "geocodes": {"main": {"latitude": 55.862103, "longitude": -4.255473}, "roof": {"latitude": 55.862103, "longitude": -4.255473}}, "link": "/v3/places/4b684fb0f964a52011712be3", "location": {"address": "97 West George St", "admin_region": "Scotland", "country": "GB", "formatted_address": "97 West George St, Glasgow, Glasgow City, G2 1PB", "locality": "Glasgow", "post_town": "Glasgow", "postcode": "G2 1PB", "region": "Glasgow City"}, "name": "Wagamama Glasgow City Centre", "related_places": {}, "timezone": "Europe/London"}, {"fsq_id": "5d472f2606251200087766db", "categories": [{"id": 13065, "name": "Restaurant", "short_name": "Restaurant", "plural_name": "Restaurants", "icon": {"prefix": "https://ss3.4sqi.net/img/categories_v2/food/default_", "suffix": ".png"}}], "chains": [], "closed_bucket": "VeryLikelyOpen", "distance": 858, "geocodes": {"drop_off": {"latitude": 55.860614, "longitude": -4.254093}, "main": {"latitude": 55.860512, "longitude": -4.253813}, "roof": {"latitude": 55.860512, "longitude": -4.253813}}, "link": "/v3/places/5d472f2606251200087766db", "location": {"address": "106 Buchanan St", "admin_region": "Scotland", "country": "GB", "cross_street": "", "formatted_address": "106 Buchanan St, Glasgow, Glasgow City, G1 2NB", "locality": "Glasgow", "post_town": "Glasgow", "postcode": "G1 2NB", "region": "Glasgow City"}, "name": "The Ivy Buchanan Street, Glasgow", "related_places": {}, "timezone": "Europe/London"}, {"fsq_id": "4eecb82346907303be234128", "categories": [{"id": 13034, "name": "Caf\u00e9", "short_name": "Caf\u00e9", "plural_name": "Caf\u00e9s", "icon": {"prefix": "https://ss3.4sqi.net/img/categories_v2/food/cafe_", "suffix": ".png"}}, {"id": 13035, "name": "Coffee Shop", "short_name": "Coffee Shop", "plural_name": "Coffee Shops", "icon": {"prefix": "https://ss3.4sqi.net/img/categories_v2/food/coffeeshop_", "suffix": ".png"}}, {"id": 13065, "name": "Restaurant", "short_name": "Restaurant", "plural_name": "Restaurants", "icon": {"prefix": "https://ss3.4sqi.net/img/categories_v2/food/default_", "suffix": ".png"}}], "chains": [], "closed_bucket": "VeryLikelyOpen", "distance": 714, "geocodes": {"main": {"latitude": 55.856657, "longitude": -4.244727}, "roof": {"latitude": 55.856657, "longitude": -4.244727}}, "link": "/v3/places/4eecb82346907303be234128", "location": {"address": "27 Trongate", "admin_region": "Scotland", "country": "GB", "cross_street": "", "formatted_address": "27 Trongate, Glasgow, G1 5EZ", "locality": "Glasgow", "post_town": "Glasgow", "postcode": "G1 5EZ"}, "name": "Rose & Grants", "related_places": {}, "timezone": "Europe/London"}, {"fsq_id": "594969cbd8fe7a1ba460161c", "categories": [{"id": 13288, "name": "Kebab Restaurant", "short_name": "Kebab", "plural_name": "Kebab Restaurants", "icon": {"prefix": "https://ss3.4sqi.net/img/categories_v2/food/middleeastern_", "suffix": ".png"}}, {"id": 13302, "name": "Mediterranean Restaurant", "short_name": "Mediterranean", "plural_name": "Mediterranean Restaurants", "icon": {"prefix": "https://ss3.4sqi.net/img/categories_v2/food/mediterranean_", "suffix": ".png"}}], "chains": [], "closed_bucket": "VeryLikelyOpen", "distance": 887, "geocodes": {"drop_off": {"latitude": 55.861804, "longitude": -4.255079}, "main": {"latitude": 55.861854, "longitude": -4.255221}, "roof": {"latitude": 55.861854, "longitude": -4.255221}}, "link": "/v3/places/594969cbd8fe7a1ba460161c", "location": {"address": "49 West Nile St", "admin_region": "Scotland", "country": "GB", "cross_street": "", "formatted_address": "49 West Nile St, Glasgow, Glasgow City, G1 2PT", "locality": "Glasgow", "post_town": "Glasgow", "postcode": "G1 2PT", "region": "Glasgow City"}, "name": "\u2019Babs", "related_places": {}, "timezone": "Europe/London"}, {"fsq_id": "4bb3471f42959c7445b3212c", "categories": [{"id": 13276, "name": "Sushi Restaurant", "short_name": "Sushi", "plural_name": "Sushi Restaurants", "icon": {"prefix": "https://ss3.4sqi.net/img/categories_v2/food/sushi_", "suffix": ".png"}}], "chains": [], "closed_bucket": "VeryLikelyOpen", "distance": 431, "geocodes": {"main": {"latitude": 55.859251, "longitude": -4.241722}, "roof": {"latitude": 55.859251, "longitude": -4.241722}}, "link": "/v3/places/4bb3471f42959c7445b3212c", "location": {"address": "2-6 Ingram St", "admin_region": "Scotland", "country": "GB", "cross_street": "High Street", "formatted_address": "2-6 Ingram St (High Street), Glasgow, Glasgow City, G1 1HA", "locality": "Glasgow", "post_town": "Glasgow", "postcode": "G1 1HA", "region": "Glasgow City"}, "name": "Sapporo Teppanyaki - Glasgow", "related_places": {}, "timezone": "Europe/London"}, {"fsq_id": "4b9cecbcf964a520bd8236e3", "categories": [{"id": 13003, "name": "Bar", "short_name": "Bar", "plural_name": "Bars", "icon": {"prefix": "https://ss3.4sqi.net/img/categories_v2/nightlife/pub_", "suffix": ".png"}}, {"id": 13065, "name": "Restaurant", "short_name": "Restaurant", "plural_name": "Restaurants", "icon": {"prefix": "https://ss3.4sqi.net/img/categories_v2/food/default_", "suffix": ".png"}}], "chains": [], "closed_bucket": "VeryLikelyOpen", "distance": 562, "geocodes": {"main": {"latitude": 55.858429, "longitude": -4.245061}, "roof": {"latitude": 55.858429, "longitude": -4.245061}}, "link": "/v3/places/4b9cecbcf964a520bd8236e3", "location": {"address": "71-73 Albion St", "admin_region": "Scotland", "country": "GB", "formatted_address": "71-73 Albion St, Glasgow, Glasgow City, G1 1NY", "locality": "Glasgow", "post_town": "Glasgow", "postcode": "G1 1NY", "region": "Glasgow City"}, "name": "Merchant Square", "related_places": {"children": [{"fsq_id": "595f841bf79faa623f93bd17", "categories": [{"id": 13031, "name": "Burger Joint", "short_name": "Burgers", "plural_name": "Burger Joints", "icon": {"prefix": "https://ss3.4sqi.net/img/categories_v2/food/burger_", "suffix": ".png"}}, {"id": 13068, "name": "American Restaurant", "short_name": "American", "plural_name": "American Restaurants", "icon": {"prefix": "https://ss3.4sqi.net/img/categories_v2/food/default_", "suffix": ".png"}}], "name": "Steak Cattle & Roll"}, {"fsq_id": "5c44b02ea8eb60002c7f69b5", "categories": [{"id": 13031, "name": "Burger Joint", "short_name": "Burgers", "plural_name": "Burger Joints", "icon": {"prefix": "https://ss3.4sqi.net/img/categories_v2/food/burger_", "suffix": ".png"}}, {"id": 13068, "name": "American Restaurant", "short_name": "American", "plural_name": "American Restaurants", "icon": {"prefix": "https://ss3.4sqi.net/img/categories_v2/food/default_", "suffix": ".png"}}], "name": "Monterey Jack's"}, {"fsq_id": "5dfbf5ae17653b0007afa486", "categories": [{"id": 13025, "name": "Wine Bar", "short_name": "Wine Bar", "plural_name": "Wine Bars", "icon": {"prefix": "https://ss3.4sqi.net/img/categories_v2/food/winery_", "suffix": ".png"}}], "name": "Naked Wine"}, {"fsq_id": "61f5a6de63f5ba30cd5dbff0", "categories": [{"id": 13064, "name": "Pizzeria", "short_name": "Pizza", "plural_name": "Pizzerias", "icon": {"prefix": "https://ss3.4sqi.net/img/categories_v2/food/pizza_", "suffix": ".png"}}], "name": "Badabing"}, {"fsq_id": "4b5b73e4f964a5201bff28e3", "categories": [{"id": 13006, "name": "Beer Bar", "short_name": "Beer Bar", "plural_name": "Beer Bars", "icon": {"prefix": "https://ss3.4sqi.net/img/categories_v2/nightlife/pub_", "suffix": ".png"}}, {"id": 13018, "name": "Pub", "short_name": "Pub", "plural_name": "Pubs", "icon": {"prefix": "https://ss3.4sqi.net/img/categories_v2/nightlife/pub_", "suffix": ".png"}}, {"id": 13065, "name": "Restaurant", "short_name": "Restaurant", "plural_name": "Restaurants", "icon": {"prefix": "https://ss3.4sqi.net/img/categories_v2/food/default_", "suffix": ".png"}}], "name": "O'Neill's"}]}, "timezone": "Europe/London"}, {"fsq_id": "4be5726b910020a1ecf0d214", "categories": [{"id": 13064, "name": "Pizzeria", "short_name": "Pizza", "plural_name": "Pizzerias", "icon": {"prefix": "https://ss3.4sqi.net/img/categories_v2/food/pizza_", "suffix": ".png"}}, {"id": 13236, "name": "Italian Restaurant", "short_name": "Italian", "plural_name": "Italian Restaurants", "icon": {"prefix": "https://ss3.4sqi.net/img/categories_v2/food/italian_", "suffix": ".png"}}], "chains": [], "closed_bucket": "Unsure", "distance": 693, "geocodes": {"main": {"latitude": 55.860783, "longitude": -4.251824}, "roof": {"latitude": 55.860783, "longitude": -4.251824}}, "link": "/v3/places/4be5726b910020a1ecf0d214", "location": {"address": "161 Queen St", "admin_region": "Scotland", "country": "GB", "formatted_address": "161 Queen St, Glasgow, Glasgow City, G1 3BJ", "locality": "Glasgow", "post_town": "Glasgow", "postcode": "G1 3BJ", "region": "Glasgow City"}, "name": "La Vita", "related_places": {}, "timezone": "Europe/London"}, {"fsq_id": "4db2d7b65da3a76f441ad601", "categories": [{"id": 13034, "name": "Caf\u00e9", "short_name": "Caf\u00e9", "plural_name": "Caf\u00e9s", "icon": {"prefix": "https://ss3.4sqi.net/img/categories_v2/food/cafe_", "suffix": ".png"}}, {"id": 13036, "name": "Tea Room", "short_name": "Tea Room", "plural_name": "Tea Rooms", "icon": {"prefix": "https://ss3.4sqi.net/img/categories_v2/food/tearoom_", "suffix": ".png"}}, {"id": 13065, "name": "Restaurant", "short_name": "Restaurant", "plural_name": "Restaurants", "icon": {"prefix": "https://ss3.4sqi.net/img/categories_v2/food/default_", "suffix": ".png"}}], "chains": [], "closed_bucket": "Unsure", "distance": 893, "geocodes": {"main": {"latitude": 55.860052, "longitude": -4.2545}, "roof": {"latitude": 55.860052, "longitude": -4.2545}}, "link": "/v3/places/4db2d7b65da3a76f441ad601", "location": {"address": "97 Buchanan St", "admin_region": "Scotland", "country": "GB", "formatted_address": "97 Buchanan St, Glasgow, Glasgow City, G1 3HF", "locality": "Glasgow", "post_town": "Glasgow", "postcode": "G1 3HF", "region": "Glasgow City"}, "name": "Willow Tea Rooms", "related_places": {"children": []}, "timezone": "Europe/London"}, {"fsq_id": "4b37d796f964a520464725e3", "categories": [{"id": 13011, "name": "Gay Bar", "short_name": "Gay Bar", "plural_name": "Gay Bars", "icon": {"prefix": "https://ss3.4sqi.net/img/categories_v2/nightlife/gaybar_", "suffix": ".png"}}, {"id": 13015, "name": "Karaoke Bar", "short_name": "Karaoke", "plural_name": "Karaoke Bars", "icon": {"prefix": "https://ss3.4sqi.net/img/categories_v2/nightlife/karaoke_", "suffix": ".png"}}, {"id": 13025, "name": "Wine Bar", "short_name": "Wine Bar", "plural_name": "Wine Bars", "icon": {"prefix": "https://ss3.4sqi.net/img/categories_v2/food/winery_", "suffix": ".png"}}], "chains": [], "closed_bucket": "Unsure", "distance": 698, "geocodes": {"main": {"latitude": 55.859064, "longitude": -4.249635}, "roof": {"latitude": 55.859064, "longitude": -4.249635}}, "link": "/v3/places/4b37d796f964a520464725e3", "location": {"address": "68 Virginia St", "admin_region": "Scotland", "country": "GB", "formatted_address": "68 Virginia St, Merchant City, Glasgow City, G1 1TX", "locality": "Merchant City", "post_town": "Glasgow", "postcode": "G1 1TX", "region": "Glasgow City"}, "name": "Delmonicas", "related_places": {}, "timezone": "Europe/London"}, {"fsq_id": "4b48a913f964a520ee5126e3", "categories": [{"id": 13236, "name": "Italian Restaurant", "short_name": "Italian", "plural_name": "Italian Restaurants", "icon": {"prefix": "https://ss3.4sqi.net/img/categories_v2/food/italian_", "suffix": ".png"}}], "chains": [], "closed_bucket": "Unsure", "distance": 818, "geocodes": {"main": {"latitude": 55.859929, "longitude": -4.252955}, "roof": {"latitude": 55.859929, "longitude": -4.252955}}, "link": "/v3/places/4b48a913f964a520ee5126e3", "location": {"address": "21 Royal Exchange Square", "admin_region": "Scotland", "country": "GB", "formatted_address": "21 Royal Exchange Square, Glasgow, Glasgow City, G1 3AJ", "locality": "Glasgow", "post_town": "Glasgow", "postcode": "G1 3AJ", "region": "Glasgow City"}, "name": "Di Maggio's", "related_places": {}, "timezone": "Europe/London"}, {"fsq_id": "5849c7c116f00008d58bf116", "categories": [{"id": 13345, "name": "Spanish Restaurant", "short_name": "Spanish", "plural_name": "Spanish Restaurants", "icon": {"prefix": "https://ss3.4sqi.net/img/categories_v2/food/spanish_", "suffix": ".png"}}, {"id": 13383, "name": "Steakhouse", "short_name": "Steakhouse", "plural_name": "Steakhouses", "icon": {"prefix": "https://ss3.4sqi.net/img/categories_v2/food/steakhouse_", "suffix": ".png"}}], "chains": [], "closed_bucket": "LikelyOpen", "distance": 734, "geocodes": {"main": {"latitude": 55.859375, "longitude": -4.25066}, "roof": {"latitude": 55.859375, "longitude": -4.25066}}, "link": "/v3/places/5849c7c116f00008d58bf116", "location": {"address": "80 Miller St", "admin_region": "Scotland", "country": "GB", "cross_street": "", "formatted_address": "80 Miller St, Glasgow, Glasgow City, G1 1DT", "locality": "Glasgow", "post_town": "Glasgow", "postcode": "G1 1DT", "region": "Glasgow City"}, "name": "The Spanish Butcher", "related_places": {}, "timezone": "Europe/London"}, {"fsq_id": "5c02e01ad552c7002c2c58fc", "categories": [{"id": 13236, "name": "Italian Restaurant", "short_name": "Italian", "plural_name": "Italian Restaurants", "icon": {"prefix": "https://ss3.4sqi.net/img/categories_v2/food/italian_", "suffix": ".png"}}], "chains": [], "closed_bucket": "LikelyOpen", "distance": 964, "geocodes": {"drop_off": {"latitude": 55.86051, "longitude": -4.256066}, "main": {"latitude": 55.860648, "longitude": -4.25606}, "roof": {"latitude": 55.860648, "longitude": -4.25606}}, "link": "/v3/places/5c02e01ad552c7002c2c58fc", "location": {"address": "40 Gordon St", "admin_region": "Scotland", "country": "GB", "cross_street": "", "formatted_address": "40 Gordon St, Glasgow, Glasgow City, G1 3PU", "locality": "Glasgow", "post_town": "Glasgow", "postcode": "G1 3PU", "region": "Glasgow City"}, "name": "La Vita Spuntini", "related_places": {}, "timezone": "Europe/London"}, {"fsq_id": "4e4fb9c3aeb70f1284a3ced1", "categories": [{"id": 13018, "name": "Pub", "short_name": "Pub", "plural_name": "Pubs", "icon": {"prefix": "https://ss3.4sqi.net/img/categories_v2/nightlife/pub_", "suffix": ".png"}}], "chains": [], "closed_bucket": "VeryLikelyOpen", "distance": 713, "geocodes": {"main": {"latitude": 55.862113, "longitude": -4.25253}, "roof": {"latitude": 55.862113, "longitude": -4.25253}}, "link": "/v3/places/4e4fb9c3aeb70f1284a3ced1", "location": {"address": "9-11 Dundas St", "admin_region": "Scotland", "country": "GB", "formatted_address": "9-11 Dundas St, Glasgow, G1 2AH", "locality": "Glasgow", "post_town": "Glasgow", "postcode": "G1 2AH"}, "name": "Dow's", "related_places": {}, "timezone": "Europe/London"}, {"fsq_id": "4dac2fad93a04642f0a441db", "categories": [{"id": 13145, "name": "Fast Food Restaurant", "short_name": "Fast Food", "plural_name": "Fast Food Restaurants", "icon": {"prefix": "https://ss3.4sqi.net/img/categories_v2/food/fastfood_", "suffix": ".png"}}, {"id": 13305, "name": "Burrito Restaurant", "short_name": "Burritos", "plural_name": "Burrito Restaurants", "icon": {"prefix": "https://ss3.4sqi.net/img/categories_v2/food/burrito_", "suffix": ".png"}}], "chains": [], "closed_bucket": "Unsure", "distance": 712, "geocodes": {"main": {"latitude": 55.86065, "longitude": -4.2514}, "roof": {"latitude": 55.86065, "longitude": -4.2514}}, "link": "/v3/places/4dac2fad93a04642f0a441db", "location": {"address": "138 Queen St", "admin_region": "Scotland", "country": "GB", "cross_street": "btw George Sq & Ingram St", "formatted_address": "138 Queen St (btw George Sq & Ingram St), Glasgow, Glasgow City, G1 3BX", "locality": "Glasgow", "post_town": "Glasgow", "postcode": "G1 3BX", "region": "Glasgow City"}, "name": "Barburrito", "related_places": {}, "timezone": "Europe/London"}, {"fsq_id": "5bc0ebedb3d8e20039b42bc5", "categories": [{"id": 13065, "name": "Restaurant", "short_name": "Restaurant", "plural_name": "Restaurants", "icon": {"prefix": "https://ss3.4sqi.net/img/categories_v2/food/default_", "suffix": ".png"}}], "chains": [], "closed_bucket": "Unsure", "distance": 916, "geocodes": {"drop_off": {"latitude": 55.862229, "longitude": -4.255637}, "main": {"latitude": 55.862358, "longitude": -4.255621}, "roof": {"latitude": 55.862358, "longitude": -4.255621}}, "link": "/v3/places/5bc0ebedb3d8e20039b42bc5", "location": {"address": "100 West George St", "admin_region": "Scotland", "country": "GB", "cross_street": "", "formatted_address": "100 West George St, Glasgow, Glasgow City, G2 1PJ", "locality": "Glasgow", "post_town": "Glasgow", "postcode": "G2 1PJ", "region": "Glasgow City"}, "name": "Stack & Still", "related_places": {}, "timezone": "Europe/London"}, {"fsq_id": "513b8a7ee4b06b29ffe1c862", "categories": [{"id": 13199, "name": "Indian Restaurant", "short_name": "Indian", "plural_name": "Indian Restaurants", "icon": {"prefix": "https://ss3.4sqi.net/img/categories_v2/food/indian_", "suffix": ".png"}}], "chains": [], "closed_bucket": "VeryLikelyOpen", "distance": 991, "geocodes": {"drop_off": {"latitude": 55.863891, "longitude": -4.256875}, "main": {"latitude": 55.863761, "longitude": -4.25689}, "roof": {"latitude": 55.863761, "longitude": -4.25689}}, "link": "/v3/places/513b8a7ee4b06b29ffe1c862", "location": {"address": "61 Bath St", "admin_region": "Scotland", "country": "GB", "cross_street": "", "formatted_address": "61 Bath St, Glasgow, Glasgow City, G2 2DG", "locality": "Glasgow", "post_town": "Glasgow", "postcode": "G2 2DG", "region": "Glasgow City"}, "name": "Rishi's Indian Aroma", "related_places": {}, "timezone": "Europe/London"}, {"fsq_id": "54b82735498e991be3c5ea7d", "categories": [{"id": 13296, "name": "Kurdish Restaurant", "short_name": "Kurdish", "plural_name": "Kurdish Restaurants", "icon": {"prefix": "https://ss3.4sqi.net/img/categories_v2/food/middleeastern_", "suffix": ".png"}}, {"id": 13356, "name": "Turkish Restaurant", "short_name": "Turkish", "plural_name": "Turkish Restaurants", "icon": {"prefix": "https://ss3.4sqi.net/img/categories_v2/food/turkish_", "suffix": ".png"}}], "chains": [], "closed_bucket": "VeryLikelyOpen", "distance": 940, "geocodes": {"drop_off": {"latitude": 55.855185, "longitude": -4.247206}, "main": {"latitude": 55.855052, "longitude": -4.247026}, "roof": {"latitude": 55.855052, "longitude": -4.247026}}, "link": "/v3/places/54b82735498e991be3c5ea7d", "location": {"address": "B Kings Ct King St", "admin_region": "Scotland", "country": "GB", "cross_street": "", "formatted_address": "B Kings Ct King St, Glasgow, Glasgow City, G1 5RB", "locality": "Glasgow", "post_town": "Glasgow", "postcode": "G1 5RB", "region": "Glasgow City"}, "name": "Shawarma King", "related_places": {}, "timezone": "Europe/London"}, {"fsq_id": "4b5216fcf964a520f66627e3", "categories": [{"id": 13003, "name": "Bar", "short_name": "Bar", "plural_name": "Bars", "icon": {"prefix": "https://ss3.4sqi.net/img/categories_v2/nightlife/pub_", "suffix": ".png"}}, {"id": 13065, "name": "Restaurant", "short_name": "Restaurant", "plural_name": "Restaurants", "icon": {"prefix": "https://ss3.4sqi.net/img/categories_v2/food/default_", "suffix": ".png"}}], "chains": [], "closed_bucket": "VeryLikelyOpen", "distance": 546, "geocodes": {"main": {"latitude": 55.858867, "longitude": -4.245705}, "roof": {"latitude": 55.858867, "longitude": -4.245705}}, "link": "/v3/places/4b5216fcf964a520f66627e3", "location": {"address": "91 Candleriggs", "admin_region": "Scotland", "country": "GB", "formatted_address": "91 Candleriggs, Glasgow, Glasgow City, G1 1NP", "locality": "Glasgow", "post_town": "Glasgow", "postcode": "G1 1NP", "region": "Glasgow City"}, "name": "Bar 91", "related_places": {}, "timezone": "Europe/London"}, {"fsq_id": "4bf80c5fb182c9b65cb8765a", "categories": [{"id": 13236, "name": "Italian Restaurant", "short_name": "Italian", "plural_name": "Italian Restaurants", "icon": {"prefix": "https://ss3.4sqi.net/img/categories_v2/food/italian_", "suffix": ".png"}}], "chains": [], "closed_bucket": "VeryLikelyOpen", "distance": 419, "geocodes": {"main": {"latitude": 55.859312, "longitude": -4.242495}, "roof": {"latitude": 55.859312, "longitude": -4.242495}}, "link": "/v3/places/4bf80c5fb182c9b65cb8765a", "location": {"address": "30 Ingram St", "admin_region": "Scotland", "country": "GB", "formatted_address": "30 Ingram St, Glasgow, G1 1EZ", "locality": "Glasgow", "post_town": "Glasgow", "postcode": "G1 1EZ"}, "name": "Amore", "related_places": {}, "timezone": "Europe/London"}, {"fsq_id": "4b4c7488f964a52065b326e3", "categories": [{"id": 13034, "name": "Caf\u00e9", "short_name": "Caf\u00e9", "plural_name": "Caf\u00e9s", "icon": {"prefix": "https://ss3.4sqi.net/img/categories_v2/food/cafe_", "suffix": ".png"}}, {"id": 13035, "name": "Coffee Shop", "short_name": "Coffee Shop", "plural_name": "Coffee Shops", "icon": {"prefix": "https://ss3.4sqi.net/img/categories_v2/food/coffeeshop_", "suffix": ".png"}}, {"id": 13334, "name": "Sandwich Spot", "short_name": "Sandwich Spot", "plural_name": "Sandwich Spots", "icon": {"prefix": "https://ss3.4sqi.net/img/categories_v2/food/deli_", "suffix": ".png"}}], "chains": [], "closed_bucket": "Unsure", "distance": 929, "geocodes": {"main": {"latitude": 55.862346, "longitude": -4.255831}, "roof": {"latitude": 55.862346, "longitude": -4.255831}}, "link": "/v3/places/4b4c7488f964a52065b326e3", "location": {"address": "110A West George St", "admin_region": "Scotland", "country": "GB", "formatted_address": "110A West George St, Glasgow, Glasgow City, G2 1QJ", "locality": "Glasgow", "post_town": "Glasgow", "postcode": "G2 1QJ", "region": "Glasgow City"}, "name": "Cafe Wander", "related_places": {}, "timezone": "Europe/London"}, {"fsq_id": "4c6586789cb82d7fc10e8ed2", "categories": [{"id": 13009, "name": "Cocktail Bar", "short_name": "Cocktail", "plural_name": "Cocktail Bars", "icon": {"prefix": "https://ss3.4sqi.net/img/categories_v2/nightlife/cocktails_", "suffix": ".png"}}], "chains": [], "closed_bucket": "Unsure", "distance": 665, "geocodes": {"main": {"latitude": 55.859598, "longitude": -4.249511}, "roof": {"latitude": 55.859598, "longitude": -4.249511}}, "link": "/v3/places/4c6586789cb82d7fc10e8ed2", "location": {"address": "191 Ingram St", "admin_region": "Scotland", "country": "GB", "formatted_address": "191 Ingram St, Glasgow, Glasgow City, G1 1DA", "locality": "Glasgow", "post_town": "Glasgow", "postcode": "G1 1DA", "region": "Glasgow City"}, "name": "The Corinthian Club", "related_places": {}, "timezone": "Europe/London"}, {"fsq_id": "4ba284cdf964a520660038e3", "categories": [{"id": 13148, "name": "French Restaurant", "short_name": "French", "plural_name": "French Restaurants", "icon": {"prefix": "https://ss3.4sqi.net/img/categories_v2/food/french_", "suffix": ".png"}}, {"id": 13302, "name": "Mediterranean Restaurant", "short_name": "Mediterranean", "plural_name": "Mediterranean Restaurants", "icon": {"prefix": "https://ss3.4sqi.net/img/categories_v2/food/mediterranean_", "suffix": ".png"}}], "chains": [], "closed_bucket": "Unsure", "distance": 852, "geocodes": {"main": {"latitude": 55.865239, "longitude": -4.254062}, "roof": {"latitude": 55.865239, "longitude": -4.254062}}, "link": "/v3/places/4ba284cdf964a520660038e3", "location": {"address": "161 West Nile St", "admin_region": "Scotland", "country": "GB", "cross_street": "at Renfield Street", "formatted_address": "161 West Nile St (at Renfield Street), Glasgow, Glasgow City, G1 2RL", "locality": "Glasgow", "post_town": "Glasgow", "postcode": "G1 2RL", "region": "Glasgow City"}, "name": "La Bonne Auberge", "related_places": {}, "timezone": "Europe/London"}, {"fsq_id": "58010b1638fa810125548805", "categories": [{"id": 13034, "name": "Caf\u00e9", "short_name": "Caf\u00e9", "plural_name": "Caf\u00e9s", "icon": {"prefix": "https://ss3.4sqi.net/img/categories_v2/food/cafe_", "suffix": ".png"}}, {"id": 13065, "name": "Restaurant", "short_name": "Restaurant", "plural_name": "Restaurants", "icon": {"prefix": "https://ss3.4sqi.net/img/categories_v2/food/default_", "suffix": ".png"}}], "chains": [], "closed_bucket": "VeryLikelyOpen", "distance": 685, "geocodes": {"main": {"latitude": 55.863829, "longitude": -4.251987}, "roof": {"latitude": 55.863829, "longitude": -4.251987}}, "link": "/v3/places/58010b1638fa810125548805", "location": {"address": "John Lewis", "admin_region": "Scotland", "country": "GB", "cross_street": "Buchanan Galleries", "formatted_address": "John Lewis (Buchanan Galleries), Glasgow, Glasgow City", "locality": "Glasgow", "post_town": "Glasgow", "region": "Glasgow City"}, "name": "The Cafe by Benugo", "related_places": {"parent": {"fsq_id": "4b4489b4f964a5203cf625e3", "categories": [{"id": 17114, "name": "Shopping Mall", "short_name": "Mall", "plural_name": "Shopping Malls", "icon": {"prefix": "https://ss3.4sqi.net/img/categories_v2/shops/mall_", "suffix": ".png"}}], "name": "Buchanan Galleries"}}, "timezone": "Europe/London"}, {"fsq_id": "4bd99cb4e914a5934e1a57fa", "categories": [{"id": 13018, "name": "Pub", "short_name": "Pub", "plural_name": "Pubs", "icon": {"prefix": "https://ss3.4sqi.net/img/categories_v2/nightlife/pub_", "suffix": ".png"}}, {"id": 13065, "name": "Restaurant", "short_name": "Restaurant", "plural_name": "Restaurants", "icon": {"prefix": "https://ss3.4sqi.net/img/categories_v2/food/default_", "suffix": ".png"}}], "chains": [{"id": "07841cd9-3716-4bd6-8ebd-ad13070b3125", "name": "J D Wetherspoon"}], "closed_bucket": "Unsure", "distance": 677, "geocodes": {"main": {"latitude": 55.861153, "longitude": -4.2518}, "roof": {"latitude": 55.861153, "longitude": -4.2518}}, "link": "/v3/places/4bd99cb4e914a5934e1a57fa", "location": {"address": "2 St. Vincent Pl", "admin_region": "Scotland", "country": "GB", "formatted_address": "2 St. Vincent Pl, Glasgow, Glasgow City, G1 2DH", "locality": "Glasgow", "post_town": "Glasgow", "postcode": "G1 2DH", "region": "Glasgow City"}, "name": "The Counting House", "related_places": {}, "timezone": "Europe/London"}, {"fsq_id": "4b856efdf964a5209b5d31e3", "categories": [{"id": 13018, "name": "Pub", "short_name": "Pub", "plural_name": "Pubs", "icon": {"prefix": "https://ss3.4sqi.net/img/categories_v2/nightlife/pub_", "suffix": ".png"}}, {"id": 13065, "name": "Restaurant", "short_name": "Restaurant", "plural_name": "Restaurants", "icon": {"prefix": "https://ss3.4sqi.net/img/categories_v2/food/default_", "suffix": ".png"}}], "chains": [], "closed_bucket": "Unsure", "distance": 985, "geocodes": {"main": {"latitude": 55.861358, "longitude": -4.256537}, "roof": {"latitude": 55.861358, "longitude": -4.256537}}, "link": "/v3/places/4b856efdf964a5209b5d31e3", "location": {"address": "91 St. Vincent St", "admin_region": "Scotland", "country": "GB", "formatted_address": "91 St. Vincent St, Glasgow, Glasgow City, G2 5TF", "locality": "Glasgow", "post_town": "Glasgow", "postcode": "G2 5TF", "region": "Glasgow City"}, "name": "Drum & Monkey", "related_places": {}, "timezone": "Europe/London"}, {"fsq_id": "4beead88b0b376b01cc2dab3", "categories": [{"id": 13003, "name": "Bar", "short_name": "Bar", "plural_name": "Bars", "icon": {"prefix": "https://ss3.4sqi.net/img/categories_v2/nightlife/pub_", "suffix": ".png"}}], "chains": [], "closed_bucket": "Unsure", "distance": 575, "geocodes": {"main": {"latitude": 55.860551, "longitude": -4.249435}, "roof": {"latitude": 55.860551, "longitude": -4.249435}}, "link": "/v3/places/4beead88b0b376b01cc2dab3", "location": {"address": "57 Cochrane St", "admin_region": "Scotland", "country": "GB", "cross_street": "George Square", "formatted_address": "57 Cochrane St (George Square), Glasgow, G1 1HL", "locality": "Glasgow", "post_town": "Glasgow", "postcode": "G1 1HL"}, "name": "The Piper Bar", "related_places": {}, "timezone": "Europe/London"}, {"fsq_id": "5851b284d21e030e684bcabc", "categories": [{"id": 13135, "name": "Cuban Restaurant", "short_name": "Cuban", "plural_name": "Cuban Restaurants", "icon": {"prefix": "https://ss3.4sqi.net/img/categories_v2/food/cuban_", "suffix": ".png"}}, {"id": 13009, "name": "Cocktail Bar", "short_name": "Cocktail", "plural_name": "Cocktail Bars", "icon": {"prefix": "https://ss3.4sqi.net/img/categories_v2/nightlife/cocktails_", "suffix": ".png"}}], "chains": [], "closed_bucket": "VeryLikelyOpen", "distance": 968, "geocodes": {"main": {"latitude": 55.861843, "longitude": -4.256342}, "roof": {"latitude": 55.861843, "longitude": -4.256342}}, "link": "/v3/places/5851b284d21e030e684bcabc", "location": {"address": "36 Renfield St", "admin_region": "Scotland", "country": "GB", "cross_street": "", "formatted_address": "36 Renfield St, Glasgow, Glasgow City, G2 1LU", "locality": "Glasgow", "post_town": "Glasgow", "postcode": "G2 1LU", "region": "Glasgow City"}, "name": "Revoluci\u00f3n de Cuba Glasgow", "related_places": {}, "timezone": "Europe/London"}, {"fsq_id": "571a5bb1498e7769619c1f58", "categories": [{"id": 13309, "name": "Middle Eastern Restaurant", "short_name": "Middle Eastern", "plural_name": "Middle Eastern Restaurants", "icon": {"prefix": "https://ss3.4sqi.net/img/categories_v2/food/middleeastern_", "suffix": ".png"}}, {"id": 13339, "name": "Shawarma Restaurant", "short_name": "Shawarma Restaurant", "plural_name": "Shawarma Restaurants", "icon": {"prefix": "https://ss3.4sqi.net/img/categories_v2/food/middleeastern_", "suffix": ".png"}}], "chains": [], "closed_bucket": "LikelyOpen", "distance": 495, "geocodes": {"main": {"latitude": 55.862194, "longitude": -4.248328}, "roof": {"latitude": 55.862194, "longitude": -4.248328}}, "link": "/v3/places/571a5bb1498e7769619c1f58", "location": {"address": "48 North Frederick Street", "admin_region": "Scotland", "country": "GB", "cross_street": "", "formatted_address": "48 North Frederick Street, Glasgow, Glasgow City, G1 2BS", "locality": "Glasgow", "post_town": "Glasgow", "postcode": "G1 2BS", "region": "Glasgow City"}, "name": "Pasha", "related_places": {}, "timezone": "Europe/London"}, {"fsq_id": "4c1cc2a6eac020a168f946c2", "categories": [{"id": 13199, "name": "Indian Restaurant", "short_name": "Indian", "plural_name": "Indian Restaurants", "icon": {"prefix": "https://ss3.4sqi.net/img/categories_v2/food/indian_", "suffix": ".png"}}, {"id": 13236, "name": "Italian Restaurant", "short_name": "Italian", "plural_name": "Italian Restaurants", "icon": {"prefix": "https://ss3.4sqi.net/img/categories_v2/food/italian_", "suffix": ".png"}}, {"id": 13302, "name": "Mediterranean Restaurant", "short_name": "Mediterranean", "plural_name": "Mediterranean Restaurants", "icon": {"prefix": "https://ss3.4sqi.net/img/categories_v2/food/mediterranean_", "suffix": ".png"}}], "chains": [], "closed_bucket": "VeryLikelyOpen", "distance": 573, "geocodes": {"main": {"latitude": 55.85967, "longitude": -4.248252}, "roof": {"latitude": 55.85967, "longitude": -4.248252}}, "link": "/v3/places/4c1cc2a6eac020a168f946c2", "location": {"address": "159 Ingram St", "admin_region": "Scotland", "country": "GB", "formatted_address": "159 Ingram St, Glasgow, Glasgow City, G1 1DW", "locality": "Glasgow", "post_town": "Glasgow", "postcode": "G1 1DW", "region": "Glasgow City"}, "name": "Mediterraneo", "related_places": {}, "timezone": "Europe/London"}, {"fsq_id": "4c110b613ce120a1b102091c", "categories": [{"id": 13003, "name": "Bar", "short_name": "Bar", "plural_name": "Bars", "icon": {"prefix": "https://ss3.4sqi.net/img/categories_v2/nightlife/pub_", "suffix": ".png"}}, {"id": 13065, "name": "Restaurant", "short_name": "Restaurant", "plural_name": "Restaurants", "icon": {"prefix": "https://ss3.4sqi.net/img/categories_v2/food/default_", "suffix": ".png"}}], "chains": [], "closed_bucket": "VeryLikelyOpen", "distance": 685, "geocodes": {"main": {"latitude": 55.858882, "longitude": -4.249139}, "roof": {"latitude": 55.858882, "longitude": -4.249139}}, "link": "/v3/places/4c110b613ce120a1b102091c", "location": {"address": "61-65 Glassford St", "admin_region": "Scotland", "country": "GB", "formatted_address": "61-65 Glassford St, Glasgow, Glasgow City, G1 1UG", "locality": "Glasgow", "post_town": "Glasgow", "postcode": "G1 1UG", "region": "Glasgow City"}, "name": "Warehouse Merchant City", "related_places": {}, "timezone": "Europe/London"}], "context": {"geo_bounds": {"circle": {"center": {"latitude": 55.862983, "longitude": -4.241}, "radius": 1000}}}}