{"results": [{"fsq_id": "4e1c4c481fc714dc5c3143ed", "categories": [{"id": 13006, "name": "Beer Bar", "short_name": "Beer Bar", "plural_name": "Beer Bars", "icon": {"prefix": "https://ss3.4sqi.net/img/categories_v2/nightlife/pub_", "suffix": ".png"}}, {"id": 13031, "name": "Burger Joint", "short_name": "Burgers", "plural_name": "Burger Joints", "icon": {"prefix": "https://ss3.4sqi.net/img/categories_v2/food/burger_", "suffix": ".png"}}], "chains": [], "closed_bucket": "Unsure", "distance": 157, "geocodes": {"main": {"latitude": 55.868325, "longitude": -4.292289}, "roof": {"latitude": 55.868325, "longitude": -4.292289}}, "link": "/v3/places/4e1c4c481fc714dc5c3143ed", "location": {"address": "1397 Argyle St", "admin_region": "Scotland", "country": "GB", "formatted_address": "1397 Argyle St, Glasgow, Glasgow City, G3 8AN", "locality": "Glasgow", "post_town": "Glasgow", "postcode": "G3 8AN", "region": "Glasgow City"}, "name": "BrewDog Glasgow", "related_places": {}, "timezone": "Europe/London"}, {"fsq_id": "59ca1ffe48b04e6426cef19e", "categories": [{"id": 13035, "name": "Coffee Shop", "short_name": "Coffee Shop", "plural_name": "Coffee Shops", "icon": {"prefix": "https://ss3.4sqi.net/img/categories_v2/food/coffeeshop_", "suffix": ".png"}}, {"id": 13065, "name": "Restaurant", "short_name": "Restaurant", "plural_name": "Restaurants", "icon": {"prefix": "https://ss3.4sqi.net/img/categories_v2/food/default_", "suffix": ".png"}}], "chains": [], "closed_bucket": "Unsure", "distance": 936, "geocodes": {"drop_off": {"latitude": 55.875652, "longitude": -4.282567}, "main": {"latitude": 55.87589, "longitude": -4.282498}, "roof": {"latitude": 55.87589, "longitude": -4.282498}}, "link": "/v3/places/59ca1ffe48b04e6426cef19e", "location": {"address": "518 Great Western Rd", "admin_region": "Scotland", "country": "GB", "cross_street": "", "formatted_address": "518 Great Western Rd, Glasgow, Glasgow City, G12 8EL", "locality": "Glasgow", "post_town": "Glasgow", "postcode": "G12 8EL", "region": "Glasgow City"}, "name": "Black Pine Coffee Co", "related_places": {}, "timezone": "Europe/London"}, {"fsq_id": "50489002e4b02a1c178f2de7", "categories": [{"id": 13006, "name": "Beer Bar", "short_name": "Beer Bar", "plural_name": "Beer Bars", "icon": {"prefix": "https://ss3.4sqi.net/img/categories_v2/nightlife/pub_", "suffix": ".png"}}, {"id": 13065, "name": "Restaurant", "short_name": "Restaurant", "plural_name": "Restaurants", "icon": {"prefix": "https://ss3.4sqi.net/img/categories_v2/food/default_", "suffix": ".png"}}], "chains": [], "closed_bucket": "VeryLikelyOpen", "distance": 890, "geocodes": {"main": {"latitude": 55.874937, "longitude": -4.28075}, "roof": {"latitude": 55.874937, "longitude": -4.28075}}, "link": "/v3/places/50489002e4b02a1c178f2de7", "location": {"address": "445 Great Western Rd", "admin_region": "Scotland", "country": "GB", "cross_street": "", "formatted_address": "445 Great Western Rd, Glasgow, Glasgow City, G12 8HH", "locality": "Glasgow", "post_town": "Glasgow", "postcode": "G12 8HH", "region": "Glasgow City"}, "name": "Inn Deep", "related_places": {}, "timezone": "Europe/London"}, {"fsq_id": "4b7b007cf964a5205b4b2fe3", "categories": [{"id": 13199, "name": "Indian Restaurant", "short_name": "Indian", "plural_name": "Indian Restaurants", "icon": {"prefix": "https://ss3.4sqi.net/img/categories_v2/food/indian_", "suffix": ".png"}}], "chains": [], "closed_bucket": "Unsure", "distance": 132, "geocodes": {"main": {"latitude": 55.867287, "longitude": -4.2911}, "roof": {"latitude": 55.867287, "longitude": -4.2911}}, "link": "/v3/places/4b7b007cf964a5205b4b2fe3", "location": {"address": "1355 Argyle St", "admin_region": "Scotland", "country": "GB", "formatted_address": "1355 Argyle St, Glasgow, Glasgow City, G3 8AD", "locality": "Glasgow", "post_town": "Glasgow", "postcode": "G3 8AD", "region": "Glasgow City"}, "name": "Mother India's Cafe", "related_places": {}, "timezone": "Europe/London"}, {"fsq_id": "536e0497498effee047e1ab2", "categories": [{"id": 13065, "name": "Restaurant", "short_name": "Restaurant", "plural_name": "Restaurants", "icon": {"prefix": "https://ss3.4sqi.net/img/categories_v2/food/default_", "suffix": ".png"}}], "chains": [], "closed_bucket": "Unsure", "distance": 417, "geocodes": {"main": {"latitude": 55.865754, "longitude": -4.284743}, "roof": {"latitude": 55.865754, "longitude": -4.284743}}, "link": "/v3/places/536e0497498effee047e1ab2", "location": {"address": "920 Sauchiehall St", "admin_region": "Scotland", "country": "GB", "cross_street": "", "formatted_address": "920 Sauchiehall St, Glasgow, G3 7TF", "locality": "Glasgow", "post_town": "Glasgow", "postcode": "G3 7TF"}, "name": "Ox and Finch", "related_places": {}, "timezone": "Europe/London"}, {"fsq_id": "4b687ef1f964a520237c2be3", "categories": [{"id": 13024, "name": "Whisky Bar", "short_name": "Whisky Bar", "plural_name": "Whisky Bars", "icon": {"prefix": "https://ss3.4sqi.net/img/categories_v2/nightlife/whiskey_", "suffix": ".png"}}], "chains": [], "closed_bucket": "Unsure", "distance": 468, "geocodes": {"main": {"latitude": 55.864838, "longitude": -4.2851}, "roof": {"latitude": 55.864838, "longitude": -4.2851}}, "link": "/v3/places/4b687ef1f964a520237c2be3", "location": {"address": "1147 Argyle St", "admin_region": "Scotland", "country": "GB", "cross_street": "Corunna St", "formatted_address": "1147 Argyle St (Corunna St), Glasgow, Glasgow City, G3 8TB", "locality": "Glasgow", "post_town": "Glasgow", "postcode": "G3 8TB", "region": "Glasgow City"}, "name": "The Ben Nevis", "related_places": {}, "timezone": "Europe/London"}, {"fsq_id": "58f67d601213846655187750", "categories": [{"id": 13064, "name": "Pizzeria", "short_name": "Pizza", "plural_name": "Pizzerias", "icon": {"prefix": "https://ss3.4sqi.net/img/categories_v2/food/pizza_", "suffix": ".png"}}, {"id": 13236, "name": "Italian Restaurant", "short_name": "Italian", "plural_name": "Italian Restaurants", "icon": {"prefix": "https://ss3.4sqi.net/img/categories_v2/food/italian_", "suffix": ".png"}}], "chains": [], "closed_bucket": "Unsure", "distance": 897, "geocodes": {"main": {"latitude": 55.87515, "longitude": -4.281633}, "roof": {"latitude": 55.87515, "longitude": -4.281633}}, "link": "/v3/places/58f67d601213846655187750", "location": {"address": "471 Great Western Rd", "admin_region": "Scotland", "country": "GB", "cross_street": "", "formatted_address": "471 Great Western Rd, Glasgow, Glasgow City, G12 8HL", "locality": "Glasgow", "post_town": "Glasgow", "postcode": "G12 8HL", "region": "Glasgow City"}, "name": "Paesano Pizza", "related_places": {}, "timezone": "Europe/London"}, {"fsq_id": "4b58d626f964a520d56d28e3", "categories": [{"id": 13003, "name": "Bar", "short_name": "Bar", "plural_name": "Bars", "icon": {"prefix": "https://ss3.4sqi.net/img/categories_v2/nightlife/pub_", "suffix": ".png"}}, {"id": 13337, "name": "Scottish Restaurant", "short_name": "Scottish", "plural_name": "Scottish Restaurants", "icon": {"prefix": "https://ss3.4sqi.net/img/categories_v2/food/default_", "suffix": ".png"}}], "chains": [], "closed_bucket": "Unsure", "distance": 751, "geocodes": {"main": {"latitude": 55.874909, "longitude": -4.29323}, "roof": {"latitude": 55.874909, "longitude": -4.29323}}, "link": "/v3/places/4b58d626f964a520d56d28e3", "location": {"address": "12 Ashton Lane", "admin_region": "Scotland", "country": "GB", "cross_street": "", "formatted_address": "12 Ashton Lane, Glasgow, Glasgow City, G12 8SJ", "locality": "Glasgow", "post_town": "Glasgow", "postcode": "G12 8SJ", "region": "Glasgow City"}, "name": "Ubiquitous Chip", "related_places": {}, "timezone": "Europe/London"}, {"fsq_id": "4b742075f964a52017c92de3", "categories": [{"id": 13035, "name": "Coffee Shop", "short_name": "Coffee Shop", "plural_name": "Coffee Shops", "icon": {"prefix": "https://ss3.4sqi.net/img/categories_v2/food/coffeeshop_", "suffix": ".png"}}, {"id": 13039, "name": "Deli", "short_name": "Deli", "plural_name": "Delis", "icon": {"prefix": "https://ss3.4sqi.net/img/categories_v2/food/deli_", "suffix": ".png"}}], "chains": [], "closed_bucket": "Unsure", "distance": 709, "geocodes": {"main": {"latitude": 55.87369, "longitude": -4.29519}, "roof": {"latitude": 55.87369, "longitude": -4.29519}}, "link": "/v3/places/4b742075f964a52017c92de3", "location": {"address": "134 Byres Rd", "admin_region": "Scotland", "country": "GB", "cross_street": "", "formatted_address": "134 Byres Rd, Glasgow, Glasgow City, G12 8TD", "locality": "Glasgow", "post_town": "Glasgow", "postcode": "G12 8TD", "region": "Glasgow City"}, "name": "Kember & Jones", "related_places": {}, "timezone": "Europe/London"}, {"fsq_id": "4bc2003eabf49521bdbfc193", "categories": [{"id": 13025, "name": "Wine Bar", "short_name": "Wine Bar", "plural_name": "Wine Bars", "icon": {"prefix": "https://ss3.4sqi.net/img/categories_v2/food/winery_", "suffix": ".png"}}, {"id": 13383, "name": "Steakhouse", "short_name": "Steakhouse", "plural_name": "Steakhouses", "icon": {"prefix": "https://ss3.4sqi.net/img/categories_v2/food/steakhouse_", "suffix": ".png"}}], "chains": [], "closed_bucket": "Unsure", "distance": 163, "geocodes": {"main": {"latitude": 55.866819, "longitude": -4.289157}, "roof": {"latitude": 55.866819, "longitude": -4.289157}}, "link": "/v3/places/4bc2003eabf49521bdbfc193", "location": {"address": "1055 Sauchiehall St", "admin_region": "Scotland", "country": "GB", "formatted_address": "1055 Sauchiehall St, Glasgow, Glasgow City, G3 7UD", "locality": "Glasgow", "post_town": "Glasgow", "postcode": "G3 7UD", "region": "Glasgow City"}, "name": "The Butchershop Bar & Grill", "related_places": {}, "timezone": "Europe/London"}, {"fsq_id": "5606f8f0498ecb20434d8a44", "categories": [{"id": 13236, "name": "Italian Restaurant", "short_name": "Italian", "plural_name": "Italian Restaurants", "icon": {"prefix": "https://ss3.4sqi.net/img/categories_v2/food/italian_", "suffix": ".png"}}], "chains": [], "closed_bucket": "LikelyOpen", "distance": 685, "geocodes": {"drop_off": {"latitude": 55.872408, "longitude": -4.280217}, "main": {"latitude": 55.87254, "longitude": -4.280291}, "roof": {"latitude": 55.87254, "longitude": -4.280291}}, "link": "/v3/places/5606f8f0498ecb20434d8a44", "location": {"address": "152 Park Rd", "admin_region": "Scotland", "country": "GB", "cross_street": "Gibson St", "formatted_address": "152 Park Rd (Gibson St), Glasgow, G4 9HB", "locality": "Glasgow", "post_town": "Glasgow", "postcode": "G4 9HB"}, "name": "Eusebi Deli", "related_places": {}, "timezone": "Europe/London"}, {"fsq_id": "4c8530ab74d7b60cac4999d8", "categories": [{"id": 13199, "name": "Indian Restaurant", "short_name": "Indian", "plural_name": "Indian Restaurants", "icon": {"prefix": "https://ss3.4sqi.net/img/categories_v2/food/indian_", "suffix": ".png"}}], "chains": [], "closed_bucket": "Unsure", "distance": 468, "geocodes": {"main": {"latitude": 55.865238, "longitude": -4.28364}, "roof": {"latitude": 55.865238, "longitude": -4.28364}}, "link": "/v3/places/4c8530ab74d7b60cac4999d8", "location": {"address": "28 Westminster Terrace", "admin_region": "Scotland", "country": "GB", "formatted_address": "28 Westminster Terrace, Glasgow, Glasgow City, G3 7RU", "locality": "Glasgow", "post_town": "Glasgow", "postcode": "G3 7RU", "region": "Glasgow City"}, "name": "Mother India", "related_places": {}, "timezone": "Europe/London"}, {"fsq_id": "56752941498ef438347e5c5e", "categories": [{"id": 13002, "name": "Bakery", "short_name": "Bakery", "plural_name": "Bakeries", "icon": {"prefix": "https://ss3.4sqi.net/img/categories_v2/food/bakery_", "suffix": ".png"}}, {"id": 13035, "name": "Coffee Shop", "short_name": "Coffee Shop", "plural_name": "Coffee Shops", "icon": {"prefix": "https://ss3.4sqi.net/img/categories_v2/food/coffeeshop_", "suffix": ".png"}}, {"id": 13145, "name": "Fast Food Restaurant", "short_name": "Fast Food", "plural_name": "Fast Food Restaurants", "icon": {"prefix": "https://ss3.4sqi.net/img/categories_v2/food/fastfood_", "suffix": ".png"}}], "chains": [], "closed_bucket": "LikelyOpen", "distance": 207, "geocodes": {"main": {"latitude": 55.86693, "longitude": -4.291825}, "roof": {"latitude": 55.86693, "longitude": -4.291825}}, "link": "/v3/places/56752941498ef438347e5c5e", "location": {"address": "27 Old Dumbarton Rd", "admin_region": "Scotland", "country": "GB", "cross_street": "", "formatted_address": "27 Old Dumbarton Rd, Glasgow, Glasgow City, G3 8RD", "locality": "Glasgow", "post_town": "Glasgow", "postcode": "G3 8RD", "region": "Glasgow City"}, "name": "Tantrum Doughnuts", "related_places": {}, "timezone": "Europe/London"}, {"fsq_id": "4b2544e3f964a520096f24e3", "categories": [{"id": 13057, "name": "Gastropub", "short_name": "Gastropub", "plural_name": "Gastropubs", "icon": {"prefix": "https://ss3.4sqi.net/img/categories_v2/food/gastropub_", "suffix": ".png"}}], "chains": [], "closed_bucket": "LikelyOpen", "distance": 635, "geocodes": {"main": {"latitude": 55.872578, "longitude": -4.282395}, "roof": {"latitude": 55.872578, "longitude": -4.282395}}, "link": "/v3/places/4b2544e3f964a520096f24e3", "location": {"address": "28 Gibson St", "admin_region": "Scotland", "country": "GB", "formatted_address": "28 Gibson St, Glasgow City, G12 8NX", "locality": "Glasgow City", "post_town": "Glasgow", "postcode": "G12 8NX", "region": "Glasgow City"}, "name": "Stravaigin", "related_places": {}, "timezone": "Europe/London"}, {"fsq_id": "4be5f1282468c9281fce0043", "categories": [{"id": 13018, "name": "Pub", "short_name": "Pub", "plural_name": "Pubs", "icon": {"prefix": "https://ss3.4sqi.net/img/categories_v2/nightlife/pub_", "suffix": ".png"}}], "chains": [], "closed_bucket": "Unsure", "distance": 945, "geocodes": {"main": {"latitude": 55.876487, "longitude": -4.285881}, "roof": {"latitude": 55.876487, "longitude": -4.285881}}, "link": "/v3/places/4be5f1282468c9281fce0043", "location": {"address": "617 Great Western Rd", "admin_region": "Scotland", "country": "GB", "cross_street": "Hillhead Street", "formatted_address": "617 Great Western Rd (Hillhead Street), Glasgow, Glasgow City, G12 8HX", "locality": "Glasgow", "post_town": "Glasgow", "postcode": "G12 8HX", "region": "Glasgow City"}, "name": "The Belle", "related_places": {}, "timezone": "Europe/London"}, {"fsq_id": "4c263d74b012b7135fd90893", "categories": [{"id": 13002, "name": "Bakery", "short_name": "Bakery", "plural_name": "Bakeries", "icon": {"prefix": "https://ss3.4sqi.net/img/categories_v2/food/bakery_", "suffix": ".png"}}, {"id": 13036, "name": "Tea Room", "short_name": "Tea Room", "plural_name": "Tea Rooms", "icon": {"prefix": "https://ss3.4sqi.net/img/categories_v2/food/tearoom_", "suffix": ".png"}}, {"id": 13065, "name": "Restaurant", "short_name": "Restaurant", "plural_name": "Restaurants", "icon": {"prefix": "https://ss3.4sqi.net/img/categories_v2/food/default_", "suffix": ".png"}}], "chains": [], "closed_bucket": "LikelyOpen", "distance": 594, "geocodes": {"main": {"latitude": 55.864291, "longitude": -4.283611}, "roof": {"latitude": 55.864291, "longitude": -4.283611}}, "link": "/v3/places/4c263d74b012b7135fd90893", "location": {"address": "1103 Argyle St", "address_extended": "Unit 8", "admin_region": "Scotland", "country": "GB", "cross_street": "Argyle Court", "formatted_address": "1103 Argyle St (Argyle Court), Glasgow, G3 8ND", "locality": "Glasgow", "post_town": "Glasgow", "postcode": "G3 8ND"}, "name": "The Hidden Lane Tearoom", "related_places": {"children": [{"fsq_id": "6177c84b1b7e0864e20470d8", "categories": [{"id": 11124, "name": "Office", "short_name": "Office", "plural_name": "Offices", "icon": {"prefix": "https://ss3.4sqi.net/img/categories_v2/building/default_", "suffix": ".png"}}], "name": "Rakata Technology Limited"}]}, "timezone": "Europe/London"}, {"fsq_id": "57f68e91cd108f2c10b87bbf", "categories": [{"id": 13031, "name": "Burger Joint", "short_name": "Burgers", "plural_name": "Burger Joints", "icon": {"prefix": "https://ss3.4sqi.net/img/categories_v2/food/burger_", "suffix": ".png"}}, {"id": 13068, "name": "American Restaurant", "short_name": "American", "plural_name": "American Restaurants", "icon": {"prefix": "https://ss3.4sqi.net/img/categories_v2/food/default_", "suffix": ".png"}}, {"id": 13334, "name": "Sandwich Spot", "short_name": "Sandwich Spot", "plural_name": "Sandwich Spots", "icon": {"prefix": "https://ss3.4sqi.net/img/categories_v2/food/deli_", "suffix": ".png"}}], "chains": [], "closed_bucket": "LikelyOpen", "distance": 997, "geocodes": {"drop_off": {"latitude": 55.877343, "longitude": -4.288241}, "main": {"latitude": 55.877193, "longitude": -4.288287}, "roof": {"latitude": 55.877193, "longitude": -4.288287}}, "link": "/v3/places/57f68e91cd108f2c10b87bbf", "location": {"address": "701 Great Western Rd", "admin_region": "Scotland", "country": "GB", "cross_street": "", "formatted_address": "701 Great Western Rd, Glasgow, Glasgow City, G12 8RA", "locality": "Glasgow", "post_town": "Glasgow", "postcode": "G12 8RA", "region": "Glasgow City"}, "name": "Bread Meats Bread", "related_places": {}, "timezone": "Europe/London"}, {"fsq_id": "5e3b37ed1c6a1c0008af933c", "categories": [{"id": 13072, "name": "Asian Restaurant", "short_name": "Asian", "plural_name": "Asian Restaurants", "icon": {"prefix": "https://ss3.4sqi.net/img/categories_v2/food/asian_", "suffix": ".png"}}], "chains": [], "closed_bucket": "VeryLikelyOpen", "distance": 969, "geocodes": {"drop_off": {"latitude": 55.877296, "longitude": -4.290347}, "main": {"latitude": 55.877133, "longitude": -4.290249}, "roof": {"latitude": 55.877133, "longitude": -4.290249}}, "link": "/v3/places/5e3b37ed1c6a1c0008af933c", "location": {"address": "Botanic Gardens Garage", "admin_region": "Scotland", "country": "GB", "cross_street": "", "formatted_address": "Botanic Gardens Garage, Glasgow, Glasgow City, G12 8BE", "locality": "Glasgow", "post_town": "Glasgow", "postcode": "G12 8BE", "region": "Glasgow City"}, "name": "Ka Pao", "related_places": {}, "timezone": "Europe/London"}, {"fsq_id": "4bae7badf964a520feb73be3", "categories": [{"id": 13065, "name": "Restaurant", "short_name": "Restaurant", "plural_name": "Restaurants", "icon": {"prefix": "https://ss3.4sqi.net/img/categories_v2/food/default_", "suffix": ".png"}}], "chains": [], "closed_bucket": "Unsure", "distance": 834, "geocodes": {"main": {"latitude": 55.875279, "longitude": -4.294118}, "roof": {"latitude": 55.875279, "longitude": -4.294118}}, "link": "/v3/places/4bae7badf964a520feb73be3", "location": {"address": "11 Ruthven Lane", "admin_region": "Scotland", "country": "GB", "cross_street": "Hillhead", "formatted_address": "11 Ruthven Lane (Hillhead), Glasgow, Glasgow City, G12 9BG", "locality": "Glasgow", "post_town": "Glasgow", "postcode": "G12 9BG", "region": "Glasgow City"}, "name": "The Bothy", "related_places": {}, "timezone": "Europe/London"}, {"fsq_id": "5635275a498e569169b27825", "categories": [{"id": 13145, "name": "Fast Food Restaurant", "short_name": "Fast Food", "plural_name": "Fast Food Restaurants", "icon": {"prefix": "https://ss3.4sqi.net/img/categories_v2/food/fastfood_", "suffix": ".png"}}, {"id": 13289, "name": "Korean Restaurant", "short_name": "Korean", "plural_name": "Korean Restaurants", "icon": {"prefix": "https://ss3.4sqi.net/img/categories_v2/food/korean_", "suffix": ".png"}}], "chains": [], "closed_bucket": "Unsure", "distance": 670, "geocodes": {"main": {"latitude": 55.871878, "longitude": -4.298324}, "roof": {"latitude": 55.871878, "longitude": -4.298324}}, "link": "/v3/places/5635275a498e569169b27825", "location": {"address": "14 Chancellor St", "admin_region": "Scotland", "country": "GB", "cross_street": "", "formatted_address": "14 Chancellor St, Glasgow, Glasgow City, G11 5RQ", "locality": "Glasgow", "post_town": "Glasgow", "postcode": "G11 5RQ", "region": "Glasgow City"}, "name": "Kimchi Cult", "related_places": {}, "timezone": "Europe/London"}, {"fsq_id": "4b53315cf964a520c39127e3", "categories": [{"id": 13099, "name": "Chinese Restaurant", "short_name": "Chinese", "plural_name": "Chinese Restaurants", "icon": {"prefix": "https://ss3.4sqi.net/img/categories_v2/food/asian_", "suffix": ".png"}}, {"id": 13263, "name": "Japanese Restaurant", "short_name": "Japanese", "plural_name": "Japanese Restaurants", "icon": {"prefix": "https://ss3.4sqi.net/img/categories_v2/food/japanese_", "suffix": ".png"}}], "chains": [], "closed_bucket": "LikelyOpen", "distance": 918, "geocodes": {"main": {"latitude": 55.875733, "longitude": -4.283404}, "roof": {"latitude": 55.875733, "longitude": -4.283404}}, "link": "/v3/places/4b53315cf964a520c39127e3", "location": {"address": "535 Great Western Rd", "admin_region": "Scotland", "country": "GB", "formatted_address": "535 Great Western Rd, Glasgow, Glasgow City, G12 8HN", "locality": "Glasgow", "post_town": "Glasgow", "postcode": "G12 8HN", "region": "Glasgow City"}, "name": "Wudon", "related_places": {}, "timezone": "Europe/London"}, {"fsq_id": "523f5bd411d202b54c76c7c3", "categories": [{"id": 13337, "name": "Scottish Restaurant", "short_name": "Scottish", "plural_name": "Scottish Restaurants", "icon": {"prefix": "https://ss3.4sqi.net/img/categories_v2/food/default_", "suffix": ".png"}}], "chains": [], "closed_bucket": "VeryLikelyOpen", "distance": 453, "geocodes": {"drop_off": {"latitude": 55.865039, "longitude": -4.285229}, "main": {"latitude": 55.864881, "longitude": -4.285277}, "roof": {"latitude": 55.864881, "longitude": -4.285277}}, "link": "/v3/places/523f5bd411d202b54c76c7c3", "location": {"address": "1155 Argyle St", "admin_region": "Scotland", "country": "GB", "cross_street": "", "formatted_address": "1155 Argyle St, Glasgow, G3 8TB", "locality": "Glasgow", "post_town": "Glasgow", "postcode": "G3 8TB"}, "name": "The Gannet", "related_places": {}, "timezone": "Europe/London"}, {"fsq_id": "4b65dd17f964a520ac042be3", "categories": [{"id": 13009, "name": "Cocktail Bar", "short_name": "Cocktail", "plural_name": "Cocktail Bars", "icon": {"prefix": "https://ss3.4sqi.net/img/categories_v2/nightlife/cocktails_", "suffix": ".png"}}, {"id": 13057, "name": "Gastropub", "short_name": "Gastropub", "plural_name": "Gastropubs", "icon": {"prefix": "https://ss3.4sqi.net/img/categories_v2/food/gastropub_", "suffix": ".png"}}], "chains": [], "closed_bucket": "Unsure", "distance": 697, "geocodes": {"main": {"latitude": 55.864078, "longitude": -4.281817}, "roof": {"latitude": 55.864078, "longitude": -4.281817}}, "link": "/v3/places/4b65dd17f964a520ac042be3", "location": {"address": "1008 Argyle St", "admin_region": "Scotland", "country": "GB", "cross_street": "", "formatted_address": "1008 Argyle St, Glasgow, Glasgow City, G3 8LX", "locality": "Glasgow", "post_town": "Glasgow", "postcode": "G3 8LX", "region": "Glasgow City"}, "name": "Lebowskis", "related_places": {}, "timezone": "Europe/London"}, {"fsq_id": "50d20bc9e4b029fc6804c7a9", "categories": [{"id": 13003, "name": "Bar", "short_name": "Bar", "plural_name": "Bars", "icon": {"prefix": "https://ss3.4sqi.net/img/categories_v2/nightlife/pub_", "suffix": ".png"}}, {"id": 13065, "name": "Restaurant", "short_name": "Restaurant", "plural_name": "Restaurants", "icon": {"prefix": "https://ss3.4sqi.net/img/categories_v2/food/default_", "suffix": ".png"}}], "chains": [], "closed_bucket": "Unsure", "distance": 767, "geocodes": {"main": {"latitude": 55.871394, "longitude": -4.300342}, "roof": {"latitude": 55.871394, "longitude": -4.300342}}, "link": "/v3/places/50d20bc9e4b029fc6804c7a9", "location": {"address": "16 Dowanhill St", "admin_region": "Scotland", "country": "GB", "cross_street": "Dalcross Street", "formatted_address": "16 Dowanhill St (Dalcross Street), Glasgow, G11 5QS", "locality": "Glasgow", "post_town": "Glasgow", "postcode": "G11 5QS"}, "name": "The Sparkle Horse", "related_places": {}, "timezone": "Europe/London"}, {"fsq_id": "4c125afbb7b9c9284698a737", "categories": [{"id": 13018, "name": "Pub", "short_name": "Pub", "plural_name": "Pubs", "icon": {"prefix": "https://ss3.4sqi.net/img/categories_v2/nightlife/pub_", "suffix": ".png"}}, {"id": 13049, "name": "Diner", "short_name": "Diner", "plural_name": "Diners", "icon": {"prefix": "https://ss3.4sqi.net/img/categories_v2/food/diner_", "suffix": ".png"}}], "chains": [], "closed_bucket": "VeryLikelyOpen", "distance": 222, "geocodes": {"main": {"latitude": 55.866412, "longitude": -4.288899}, "roof": {"latitude": 55.866412, "longitude": -4.288899}}, "link": "/v3/places/4c125afbb7b9c9284698a737", "location": {"address": "1256 Argyle St", "admin_region": "Scotland", "country": "GB", "cross_street": "West End", "formatted_address": "1256 Argyle St (West End), Glasgow, Glasgow City, G3 8TJ", "locality": "Glasgow", "post_town": "Glasgow", "postcode": "G3 8TJ", "region": "Glasgow City"}, "name": "Islay Inn", "related_places": {}, "timezone": "Europe/London"}, {"fsq_id": "4c582eed7613b713957b91ea", "categories": [{"id": 13034, "name": "Caf\u00e9", "short_name": "Caf\u00e9", "plural_name": "Caf\u00e9s", "icon": {"prefix": "https://ss3.4sqi.net/img/categories_v2/food/cafe_", "suffix": ".png"}}, {"id": 13035, "name": "Coffee Shop", "short_name": "Coffee Shop", "plural_name": "Coffee Shops", "icon": {"prefix": "https://ss3.4sqi.net/img/categories_v2/food/coffeeshop_", "suffix": ".png"}}, {"id": 13065, "name": "Restaurant", "short_name": "Restaurant", "plural_name": "Restaurants", "icon": {"prefix": "https://ss3.4sqi.net/img/categories_v2/food/default_", "suffix": ".png"}}], "chains": [], "closed_bucket": "VeryLikelyOpen", "distance": 590, "geocodes": {"main": {"latitude": 55.866964, "longitude": -4.280154}, "roof": {"latitude": 55.866964, "longitude": -4.280154}}, "link": "/v3/places/4c582eed7613b713957b91ea", "location": {"address": "Kelvingrove Park", "admin_region": "Scotland", "country": "GB", "cross_street": "at North Claremont Street", "formatted_address": "Kelvingrove Park (at North Claremont Street), Glasgow, Glasgow City, G3 7LH", "locality": "Glasgow", "post_town": "Glasgow", "postcode": "G3 7LH", "region": "Glasgow City"}, "name": "An Clachan Cafe", "related_places": {}, "timezone": "Europe/London"}, {"fsq_id": "4d28d36debacb1f71b01f54f", "categories": [{"id": 13024, "name": "Whisky Bar", "short_name": "Whisky Bar", "plural_name": "Whisky Bars", "icon": {"prefix": "https://ss3.4sqi.net/img/categories_v2/nightlife/whiskey_", "suffix": ".png"}}], "chains": [], "closed_bucket": "LikelyOpen", "distance": 829, "geocodes": {"main": {"latitude": 55.871154, "longitude": -4.276883}, "roof": {"latitude": 55.871154, "longitude": -4.276883}}, "link": "/v3/places/4d28d36debacb1f71b01f54f", "location": {"address": "232-246 Woodlands Rd", "admin_region": "Scotland", "country": "GB", "formatted_address": "232-246 Woodlands Rd, Glasgow, Glasgow City, G3 6ND", "locality": "Glasgow", "post_town": "Glasgow", "postcode": "G3 6ND", "region": "Glasgow City"}, "name": "Dram", "related_places": {}, "timezone": "Europe/London"}, {"fsq_id": "540c340d498e77fa8257b91e", "categories": [{"id": 13051, "name": "Fish and Chips Shop", "short_name": "Fish and Chips Shop", "plural_name": "Fish and Chips Shops", "icon": {"prefix": "https://ss3.4sqi.net/img/categories_v2/food/fishandchips_", "suffix": ".png"}}], "chains": [], "closed_bucket": "Unsure", "distance": 955, "geocodes": {"main": {"latitude": 55.876801, "longitude": -4.292377}, "roof": {"latitude": 55.876801, "longitude": -4.292377}}, "link": "/v3/places/540c340d498e77fa8257b91e", "location": {"address": "337 Byres Rd", "admin_region": "Scotland", "country": "GB", "cross_street": "", "formatted_address": "337 Byres Rd, Glasgow, Glasgow City, G12 8UQ", "locality": "Glasgow", "post_town": "Glasgow", "postcode": "G12 8UQ", "region": "Glasgow City"}, "name": "Old Salty's", "related_places": {}, "timezone": "Europe/London"}, {"fsq_id": "4b44d799f964a520d7fd25e3", "categories": [{"id": 13034, "name": "Caf\u00e9", "short_name": "Caf\u00e9", "plural_name": "Caf\u00e9s", "icon": {"prefix": "https://ss3.4sqi.net/img/categories_v2/food/cafe_", "suffix": ".png"}}, {"id": 13035, "name": "Coffee Shop", "short_name": "Coffee Shop", "plural_name": "Coffee Shops", "icon": {"prefix": "https://ss3.4sqi.net/img/categories_v2/food/coffeeshop_", "suffix": ".png"}}, {"id": 13065, "name": "Restaurant", "short_name": "Restaurant", "plural_name": "Restaurants", "icon": {"prefix": "https://ss3.4sqi.net/img/categories_v2/food/default_", "suffix": ".png"}}], "chains": [], "closed_bucket": "LikelyOpen", "distance": 647, "geocodes": {"main": {"latitude": 55.872238, "longitude": -4.281894}, "roof": {"latitude": 55.872238, "longitude": -4.281894}}, "link": "/v3/places/4b44d799f964a520d7fd25e3", "location": {"address": "3-5 Gibson St", "admin_region": "Scotland", "country": "GB", "cross_street": "at Park Rd", "formatted_address": "3-5 Gibson St (at Park Rd), Glasgow, Glasgow City, G12 8NU", "locality": "Glasgow", "post_town": "Glasgow", "postcode": "G12 8NU", "region": "Glasgow City"}, "name": "Offshore", "related_places": {}, "timezone": "Europe/London"}, {"fsq_id": "4b609ccdf964a52037f029e3", "categories": [{"id": 13003, "name": "Bar", "short_name": "Bar", "plural_name": "Bars", "icon": {"prefix": "https://ss3.4sqi.net/img/categories_v2/nightlife/pub_", "suffix": ".png"}}, {"id": 13027, "name": "Bistro", "short_name": "Bistro", "plural_name": "Bistros", "icon": {"prefix": "https://ss3.4sqi.net/img/categories_v2/food/default_", "suffix": ".png"}}], "chains": [], "closed_bucket": "Unsure", "distance": 625, "geocodes": {"drop_off": {"latitude": 55.87252, "longitude": -4.282678}, "main": {"latitude": 55.872402, "longitude": -4.282705}, "roof": {"latitude": 55.872402, "longitude": -4.282705}}, "link": "/v3/places/4b609ccdf964a52037f029e3", "location": {"address": "33-35 Gibson St", "admin_region": "Scotland", "country": "GB", "formatted_address": "33-35 Gibson St, Glasgow, Glasgow City, G12 8NU", "locality": "Glasgow", "post_town": "Glasgow", "postcode": "G12 8NU", "region": "Glasgow City"}, "name": "The Left Bank", "related_places": {}, "timezone": "Europe/London"}, {"fsq_id": "4bb4be3486a8d13a67c8de7f", "categories": [{"id": 13010, "name": "Dive Bar", "short_name": "Dive Bar", "plural_name": "Dive Bars", "icon": {"prefix": "https://ss3.4sqi.net/img/categories_v2/nightlife/divebar_", "suffix": ".png"}}, {"id": 13018, "name": "Pub", "short_name": "Pub", "plural_name": "Pubs", "icon": {"prefix": "https://ss3.4sqi.net/img/categories_v2/nightlife/pub_", "suffix": ".png"}}, {"id": 13065, "name": "Restaurant", "short_name": "Restaurant", "plural_name": "Restaurants", "icon": {"prefix": "https://ss3.4sqi.net/img/categories_v2/food/default_", "suffix": ".png"}}], "chains": [], "closed_bucket": "Unsure", "distance": 823, "geocodes": {"main": {"latitude": 55.873122, "longitude": -4.279327}, "roof": {"latitude": 55.873122, "longitude": -4.279327}}, "link": "/v3/places/4bb4be3486a8d13a67c8de7f", "location": {"address": "74 Park Rd", "admin_region": "Scotland", "country": "GB", "cross_street": "Woodlands Road", "formatted_address": "74 Park Rd (Woodlands Road), Glasgow, Glasgow City, G4 9JF", "locality": "Glasgow", "post_town": "Glasgow", "postcode": "G4 9JF", "region": "Glasgow City"}, "name": "The Doublet", "related_places": {}, "timezone": "Europe/London"}, {"fsq_id": "4c2deb7476a7ef3bf5e1deb8", "categories": [{"id": 13018, "name": "Pub", "short_name": "Pub", "plural_name": "Pubs", "icon": {"prefix": "https://ss3.4sqi.net/img/categories_v2/nightlife/pub_", "suffix": ".png"}}, {"id": 13065, "name": "Restaurant", "short_name": "Restaurant", "plural_name": "Restaurants", "icon": {"prefix": "https://ss3.4sqi.net/img/categories_v2/food/default_", "suffix": ".png"}}], "chains": [], "closed_bucket": "Unsure", "distance": 726, "geocodes": {"main": {"latitude": 55.874273, "longitude": -4.295138}, "roof": {"latitude": 55.874273, "longitude": -4.295138}}, "link": "/v3/places/4c2deb7476a7ef3bf5e1deb8", "location": {"address": "191 Byres Rd", "admin_region": "Scotland", "country": "GB", "cross_street": "at University Ave", "formatted_address": "191 Byres Rd (at University Ave), Glasgow, G12 8TN", "locality": "Glasgow", "post_town": "Glasgow", "postcode": "G12 8TN"}, "name": "Tennents Bar", "related_places": {}, "timezone": "Europe/London"}, {"fsq_id": "4c0164bef7ab0f471d0816b6", "categories": [{"id": 13018, "name": "Pub", "short_name": "Pub", "plural_name": "Pubs", "icon": {"prefix": "https://ss3.4sqi.net/img/categories_v2/nightlife/pub_", "suffix": ".png"}}, {"id": 13065, "name": "Restaurant", "short_name": "Restaurant", "plural_name": "Restaurants", "icon": {"prefix": "https://ss3.4sqi.net/img/categories_v2/food/default_", "suffix": ".png"}}], "chains": [], "closed_bucket": "Unsure", "distance": 803, "geocodes": {"main": {"latitude": 55.872066, "longitude": -4.278453}, "roof": {"latitude": 55.872066, "longitude": -4.278453}}, "link": "/v3/places/4c0164bef7ab0f471d0816b6", "location": {"address": "287 Woodlands Rd", "admin_region": "Scotland", "country": "GB", "cross_street": "", "formatted_address": "287 Woodlands Rd, Glasgow, Glasgow City, G3 6NF", "locality": "Glasgow", "post_town": "Glasgow", "postcode": "G3 6NF", "region": "Glasgow City"}, "name": "Old Schoolhouse Glasgow", "related_places": {}, "timezone": "Europe/London"}, {"fsq_id": "572774db498eb236fd4d4279", "categories": [{"id": 13034, "name": "Caf\u00e9", "short_name": "Caf\u00e9", "plural_name": "Caf\u00e9s", "icon": {"prefix": "https://ss3.4sqi.net/img/categories_v2/food/cafe_", "suffix": ".png"}}, {"id": 13035, "name": "Coffee Shop", "short_name": "Coffee Shop", "plural_name": "Coffee Shops", "icon": {"prefix": "https://ss3.4sqi.net/img/categories_v2/food/coffeeshop_", "suffix": ".png"}}, {"id": 13065, "name": "Restaurant", "short_name": "Restaurant", "plural_name": "Restaurants", "icon": {"prefix": "https://ss3.4sqi.net/img/categories_v2/food/default_", "suffix": ".png"}}], "chains": [], "closed_bucket": "VeryLikelyOpen", "distance": 888, "geocodes": {"drop_off": {"latitude": 55.874231, "longitude": -4.279504}, "main": {"latitude": 55.874123, "longitude": -4.279323}, "roof": {"latitude": 55.874123, "longitude": -4.279323}}, "link": "/v3/places/572774db498eb236fd4d4279", "location": {"address": "72 South Woodside Rd", "admin_region": "Scotland", "country": "GB", "cross_street": "", "formatted_address": "72 South Woodside Rd, Glasgow, G4 9HG", "locality": "Glasgow", "post_town": "Glasgow", "postcode": "G4 9HG"}, "name": "Kelvin Pocket", "related_places": {}, "timezone": "Europe/London"}, {"fsq_id": "4b0ab14bf964a520762623e3", "categories": [{"id": 13027, "name": "Bistro", "short_name": "Bistro", "plural_name": "Bistros", "icon": {"prefix": "https://ss3.4sqi.net/img/categories_v2/food/default_", "suffix": ".png"}}, {"id": 13034, "name": "Caf\u00e9", "short_name": "Caf\u00e9", "plural_name": "Caf\u00e9s", "icon": {"prefix": "https://ss3.4sqi.net/img/categories_v2/food/cafe_", "suffix": ".png"}}, {"id": 13035, "name": "Coffee Shop", "short_name": "Coffee Shop", "plural_name": "Coffee Shops", "icon": {"prefix": "https://ss3.4sqi.net/img/categories_v2/food/coffeeshop_", "suffix": ".png"}}], "chains": [], "closed_bucket": "LikelyOpen", "distance": 729, "geocodes": {"main": {"latitude": 55.873994, "longitude": -4.29541}, "roof": {"latitude": 55.873994, "longitude": -4.29541}}, "link": "/v3/places/4b0ab14bf964a520762623e3", "location": {"address": "189 Byres Rd", "admin_region": "Scotland", "country": "GB", "cross_street": "", "formatted_address": "189 Byres Rd, Glasgow, G12 8TS", "locality": "Glasgow", "post_town": "Glasgow", "postcode": "G12 8TS"}, "name": "Tinderbox", "related_places": {}, "timezone": "Europe/London"}, {"fsq_id": "58dd2a17d772f933eaaa3755", "categories": [{"id": 13018, "name": "Pub", "short_name": "Pub", "plural_name": "Pubs", "icon": {"prefix": "https://ss3.4sqi.net/img/categories_v2/nightlife/pub_", "suffix": ".png"}}, {"id": 13029, "name": "Brewery", "short_name": "Brewery", "plural_name": "Breweries", "icon": {"prefix": "https://ss3.4sqi.net/img/categories_v2/food/brewery_", "suffix": ".png"}}, {"id": 13065, "name": "Restaurant", "short_name": "Restaurant", "plural_name": "Restaurants", "icon": {"prefix": "https://ss3.4sqi.net/img/categories_v2/food/default_", "suffix": ".png"}}], "chains": [], "closed_bucket": "Unsure", "distance": 724, "geocodes": {"drop_off": {"latitude": 55.874505, "longitude": -4.293217}, "main": {"latitude": 55.874539, "longitude": -4.293253}, "roof": {"latitude": 55.874539, "longitude": -4.293253}}, "link": "/v3/places/58dd2a17d772f933eaaa3755", "location": {"address": "44-46 Ashton Ln", "admin_region": "Scotland", "country": "GB", "cross_street": "", "formatted_address": "44-46 Ashton Ln, Glasgow, Glasgow City, G12 8SJ", "locality": "Glasgow", "post_town": "Glasgow", "postcode": "G12 8SJ", "region": "Glasgow City"}, "name": "Innis & Gunn Beer Kitchen", "related_places": {}, "timezone": "Europe/London"}, {"fsq_id": "4d0263ce3fd4224b72abb677", "categories": [{"id": 13018, "name": "Pub", "short_name": "Pub", "plural_name": "Pubs", "icon": {"prefix": "https://ss3.4sqi.net/img/categories_v2/nightlife/pub_", "suffix": ".png"}}], "chains": [], "closed_bucket": "Unsure", "distance": 661, "geocodes": {"drop_off": {"latitude": 55.870369, "longitude": -4.29944}, "front_door": {"latitude": 55.870348, "longitude": -4.299355}, "main": {"latitude": 55.870348, "longitude": -4.299355}, "roof": {"latitude": 55.870338, "longitude": -4.299468}}, "link": "/v3/places/4d0263ce3fd4224b72abb677", "location": {"address": "141 Dumbarton Rd", "admin_region": "Scotland", "country": "GB", "cross_street": "Byres Road", "formatted_address": "141 Dumbarton Rd (Byres Road), Glasgow, Glasgow City, G11 6PR", "locality": "Glasgow", "post_town": "Glasgow", "postcode": "G11 6PR", "region": "Glasgow City"}, "name": "Three Judges", "related_places": {}, "timezone": "Europe/London"}, {"fsq_id": "4b658635f964a52041f32ae3", "categories": [{"id": 13018, "name": "Pub", "short_name": "Pub", "plural_name": "Pubs", "icon": {"prefix": "https://ss3.4sqi.net/img/categories_v2/nightlife/pub_", "suffix": ".png"}}, {"id": 13025, "name": "Wine Bar", "short_name": "Wine Bar", "plural_name": "Wine Bars", "icon": {"prefix": "https://ss3.4sqi.net/img/categories_v2/food/winery_", "suffix": ".png"}}, {"id": 13057, "name": "Gastropub", "short_name": "Gastropub", "plural_name": "Gastropubs", "icon": {"prefix": "https://ss3.4sqi.net/img/categories_v2/food/gastropub_", "suffix": ".png"}}], "chains": [], "closed_bucket": "LikelyOpen", "distance": 454, "geocodes": {"main": {"latitude": 55.865596, "longitude": -4.283827}, "roof": {"latitude": 55.865596, "longitude": -4.283827}}, "link": "/v3/places/4b658635f964a52041f32ae3", "location": {"address": "36a Kelvingrove St", "admin_region": "Scotland", "country": "GB", "formatted_address": "36a Kelvingrove St, Glasgow, Glasgow City, G3 7SA", "locality": "Glasgow", "post_town": "Glasgow", "postcode": "G3 7SA", "region": "Glasgow City"}, "name": "Big Slope", "related_places": {}, "timezone": "Europe/London"}, {"fsq_id": "57cf101c498e00f91f9e64cc", "categories": [{"id": 13006, "name": "Beer Bar", "short_name": "Beer Bar", "plural_name": "Beer Bars", "icon": {"prefix": "https://ss3.4sqi.net/img/categories_v2/nightlife/pub_", "suffix": ".png"}}, {"id": 13018, "name": "Pub", "short_name": "Pub", "plural_name": "Pubs", "icon": {"prefix": "https://ss3.4sqi.net/img/categories_v2/nightlife/pub_", "suffix": ".png"}}, {"id": 13065, "name": "Restaurant", "short_name": "Restaurant", "plural_name": "Restaurants", "icon": {"prefix": "https://ss3.4sqi.net/img/categories_v2/food/default_", "suffix": ".png"}}], "chains": [], "closed_bucket": "LikelyOpen", "distance": 742, "geocodes": {"drop_off": {"latitude": 55.870744, "longitude": -4.300571}, "main": {"latitude": 55.870642, "longitude": -4.300599}, "roof": {"latitude": 55.870642, "longitude": -4.300599}}, "link": "/v3/places/57cf101c498e00f91f9e64cc", "location": {"address": "165 Dumbarton Rd", "admin_region": "Scotland", "country": "GB", "cross_street": "", "formatted_address": "165 Dumbarton Rd, Glasgow, G11 6AA", "locality": "Glasgow", "post_town": "Glasgow", "postcode": "G11 6AA"}, "name": "Bag O Nails", "related_places": {}, "timezone": "Europe/London"}, {"fsq_id": "591a0dcd81348848d830ae17", "categories": [{"id": 13065, "name": "Restaurant", "short_name": "Restaurant", "plural_name": "Restaurants", "icon": {"prefix": "https://ss3.4sqi.net/img/categories_v2/food/default_", "suffix": ".png"}}], "chains": [], "closed_bucket": "LikelyOpen", "distance": 894, "geocodes": {"drop_off": {"latitude": 55.871534, "longitude": -4.302502}, "main": {"latitude": 55.871626, "longitude": -4.302733}, "roof": {"latitude": 55.871626, "longitude": -4.302733}}, "link": "/v3/places/591a0dcd81348848d830ae17", "location": {"address": "27 Hyndland St", "admin_region": "Scotland", "country": "GB", "cross_street": "", "formatted_address": "27 Hyndland St, Glasgow, Glasgow City, G11 5QF", "locality": "Glasgow", "post_town": "Glasgow", "postcode": "G11 5QF", "region": "Glasgow City"}, "name": "Partick Duck Club", "related_places": {}, "timezone": "Europe/London"}, {"fsq_id": "4c7954da2d3ba1437cd68dd0", "categories": [{"id": 13057, "name": "Gastropub", "short_name": "Gastropub", "plural_name": "Gastropubs", "icon": {"prefix": "https://ss3.4sqi.net/img/categories_v2/food/gastropub_", "suffix": ".png"}}, {"id": 13018, "name": "Pub", "short_name": "Pub", "plural_name": "Pubs", "icon": {"prefix": "https://ss3.4sqi.net/img/categories_v2/nightlife/pub_", "suffix": ".png"}}], "chains": [], "closed_bucket": "VeryLikelyOpen", "distance": 829, "geocodes": {"drop_off": {"latitude": 55.875553, "longitude": -4.293406}, "main": {"latitude": 55.875382, "longitude": -4.293244}, "roof": {"latitude": 55.875382, "longitude": -4.293244}}, "link": "/v3/places/4c7954da2d3ba1437cd68dd0", "location": {"address": "256-260 Byres Rd", "admin_region": "Scotland", "country": "GB", "formatted_address": "256-260 Byres Rd, Glasgow, Glasgow City, G12 8SH", "locality": "Glasgow", "post_town": "Glasgow", "postcode": "G12 8SH", "region": "Glasgow City"}, "name": "The Curler's Rest", "related_places": {}, "timezone": "Europe/London"}, {"fsq_id": "4bc9e70dfb84c9b6ded81b3e", "categories": [{"id": 13352, "name": "Thai Restaurant", "short_name": "Thai", "plural_name": "Thai Restaurants", "icon": {"prefix": "https://ss3.4sqi.net/img/categories_v2/food/thai_", "suffix": ".png"}}], "chains": [], "closed_bucket": "LikelyOpen", "distance": 363, "geocodes": {"main": {"latitude": 55.865373, "longitude": -4.286799}, "roof": {"latitude": 55.865373, "longitude": -4.286799}}, "link": "/v3/places/4bc9e70dfb84c9b6ded81b3e", "location": {"address": "1191 Argyle St", "admin_region": "Scotland", "country": "GB", "cross_street": "", "formatted_address": "1191 Argyle St, Glasgow, Glasgow City, G3 8TQ", "locality": "Glasgow", "post_town": "Glasgow", "postcode": "G3 8TQ", "region": "Glasgow City"}, "name": "Thai Siam", "related_places": {}, "timezone": "Europe/London"}, {"fsq_id": "52409f4d11d224590bfca521", "categories": [{"id": 13003, "name": "Bar", "short_name": "Bar", "plural_name": "Bars", "icon": {"prefix": "https://ss3.4sqi.net/img/categories_v2/nightlife/pub_", "suffix": ".png"}}, {"id": 13034, "name": "Caf\u00e9", "short_name": "Caf\u00e9", "plural_name": "Caf\u00e9s", "icon": {"prefix": "https://ss3.4sqi.net/img/categories_v2/food/cafe_", "suffix": ".png"}}, {"id": 13065, "name": "Restaurant", "short_name": "Restaurant", "plural_name": "Restaurants", "icon": {"prefix": "https://ss3.4sqi.net/img/categories_v2/food/default_", "suffix": ".png"}}], "chains": [], "closed_bucket": "VeryLikelyOpen", "distance": 613, "geocodes": {"main": {"latitude": 55.87321, "longitude": -4.284238}, "roof": {"latitude": 55.87321, "longitude": -4.284238}}, "link": "/v3/places/52409f4d11d224590bfca521", "location": {"address": "52-54 Bank St", "admin_region": "Scotland", "country": "GB", "cross_street": "", "formatted_address": "52-54 Bank St, Glasgow, G12 8LZ", "locality": "Glasgow", "post_town": "Glasgow", "postcode": "G12 8LZ"}, "name": "Bank Street Bar Kitchen", "related_places": {}, "timezone": "Europe/London"}, {"fsq_id": "4b4a3ca9f964a520238026e3", "categories": [{"id": 13018, "name": "Pub", "short_name": "Pub", "plural_name": "Pubs", "icon": {"prefix": "https://ss3.4sqi.net/img/categories_v2/nightlife/pub_", "suffix": ".png"}}, {"id": 13065, "name": "Restaurant", "short_name": "Restaurant", "plural_name": "Restaurants", "icon": {"prefix": "https://ss3.4sqi.net/img/categories_v2/food/default_", "suffix": ".png"}}], "chains": [], "closed_bucket": "VeryLikelyOpen", "distance": 749, "geocodes": {"main": {"latitude": 55.874714, "longitude": -4.292943}, "roof": {"latitude": 55.874714, "longitude": -4.292943}}, "link": "/v3/places/4b4a3ca9f964a520238026e3", "location": {"address": "21/29 Ashton Lane", "admin_region": "Scotland", "country": "GB", "cross_street": "", "formatted_address": "21/29 Ashton Lane, Glasgow, Glasgow City, G12 8SJ", "locality": "Glasgow", "post_town": "Glasgow", "postcode": "G12 8SJ", "region": "Glasgow City"}, "name": "Jinty McGuinty's", "related_places": {}, "timezone": "Europe/London"}, {"fsq_id": "4ee28df99a521fcbefc9cf9a", "categories": [{"id": 13003, "name": "Bar", "short_name": "Bar", "plural_name": "Bars", "icon": {"prefix": "https://ss3.4sqi.net/img/categories_v2/nightlife/pub_", "suffix": ".png"}}], "chains": [], "closed_bucket": "LikelyOpen", "distance": 226, "geocodes": {"main": {"latitude": 55.866966, "longitude": -4.292106}, "roof": {"latitude": 55.866966, "longitude": -4.292106}}, "link": "/v3/places/4ee28df99a521fcbefc9cf9a", "location": {"address": "41 Old Dumbarton Rd", "admin_region": "Scotland", "country": "GB", "cross_street": "Yorkhill St", "formatted_address": "41 Old Dumbarton Rd (Yorkhill St), Glasgow, G3 8RD", "locality": "Glasgow", "post_town": "Glasgow", "postcode": "G3 8RD"}, "name": "Dukes Bar", "related_places": {}, "timezone": "Europe/London"}, {"fsq_id": "4c894ce9da5da1cdec563be9", "categories": [{"id": 13018, "name": "Pub", "short_name": "Pub", "plural_name": "Pubs", "icon": {"prefix": "https://ss3.4sqi.net/img/categories_v2/nightlife/pub_", "suffix": ".png"}}], "chains": [], "closed_bucket": "Unsure", "distance": 712, "geocodes": {"main": {"latitude": 55.863859, "longitude": -4.281039}, "roof": {"latitude": 55.863859, "longitude": -4.281039}}, "link": "/v3/places/4c894ce9da5da1cdec563be9", "location": {"address": "1004 Argyle St", "admin_region": "Scotland", "country": "GB", "formatted_address": "1004 Argyle St, Glasgow, Glasgow City, G3 8LZ", "locality": "Glasgow", "post_town": "Glasgow", "postcode": "G3 8LZ", "region": "Glasgow City"}, "name": "The Brass Monkey", "related_places": {}, "timezone": "Europe/London"}, {"fsq_id": "62a63961596a3f54a806d0c0", "categories": [{"id": 13003, "name": "Bar", "short_name": "Bar", "plural_name": "Bars", "icon": {"prefix": "https://ss3.4sqi.net/img/categories_v2/nightlife/pub_", "suffix": ".png"}}], "chains": [], "closed_bucket": "VeryLikelyOpen", "distance": 925, "geocodes": {"main": {"latitude": 55.875739, "longitude": -4.282388}, "roof": {"latitude": 55.875739, "longitude": -4.282388}}, "link": "/v3/places/62a63961596a3f54a806d0c0", "location": {"admin_region": "Scotland", "country": "GB", "cross_street": "", "formatted_address": "Glasgow, Glasgow City, G12 8EN", "locality": "Glasgow", "post_town": "Glasgow", "postcode": "G12 8EN", "region": "Glasgow City"}, "name": "The Bakehouse", "related_places": {}, "timezone": "Europe/London"}, {"fsq_id": "4b85775ff964a520cb5f31e3", "categories": [{"id": 13035, "name": "Coffee Shop", "short_name": "Coffee Shop", "plural_name": "Coffee Shops", "icon": {"prefix": "https://ss3.4sqi.net/img/categories_v2/food/coffeeshop_", "suffix": ".png"}}, {"id": 13065, "name": "Restaurant", "short_name": "Restaurant", "plural_name": "Restaurants", "icon": {"prefix": "https://ss3.4sqi.net/img/categories_v2/food/default_", "suffix": ".png"}}], "chains": [], "closed_bucket": "Unsure", "distance": 822, "geocodes": {"main": {"latitude": 55.871452, "longitude": -4.277208}, "roof": {"latitude": 55.871452, "longitude": -4.277208}}, "link": "/v3/places/4b85775ff964a520cb5f31e3", "location": {"address": "250-254 Woodlands Rd", "admin_region": "Scotland", "country": "GB", "cross_street": "", "formatted_address": "250-254 Woodlands Rd, Glasgow City, G3 6ND", "locality": "Glasgow City", "post_town": "Glasgow", "postcode": "G3 6ND", "region": "Glasgow City"}, "name": "iCafe", "related_places": {}, "timezone": "Europe/London"}, {"fsq_id": "530b2e55498e560107d891b4", "categories": [{"id": 13031, "name": "Burger Joint", "short_name": "Burgers", "plural_name": "Burger Joints", "icon": {"prefix": "https://ss3.4sqi.net/img/categories_v2/food/burger_", "suffix": ".png"}}], "chains": [], "closed_bucket": "VeryLikelyOpen", "distance": 916, "geocodes": {"main": {"latitude": 55.860216, "longitude": -4.287621}, "roof": {"latitude": 55.860216, "longitude": -4.287621}}, "link": "/v3/places/530b2e55498e560107d891b4", "location": {"address": "Queens Dock", "admin_region": "Scotland", "country": "GB", "cross_street": "", "formatted_address": "Queens Dock, Glasgow, Glasgow City, G3 8YW", "locality": "Glasgow", "post_town": "Glasgow", "postcode": "G3 8YW", "region": "Glasgow City"}, "name": "Clydebuilt Bar & Kitchen", "related_places": {}, "timezone": "Europe/London"}, {"fsq_id": "4b83da0ff964a5208f1331e3", "categories": [{"id": 13035, "name": "Coffee Shop", "short_name": "Coffee Shop", "plural_name": "Coffee Shops", "icon": {"prefix": "https://ss3.4sqi.net/img/categories_v2/food/coffeeshop_", "suffix": ".png"}}, {"id": 13065, "name": "Restaurant", "short_name": "Restaurant", "plural_name": "Restaurants", "icon": {"prefix": "https://ss3.4sqi.net/img/categories_v2/food/default_", "suffix": ".png"}}], "chains": [], "closed_bucket": "Unsure", "distance": 905, "geocodes": {"main": {"latitude": 55.876473, "longitude": -4.291666}, "roof": {"latitude": 55.876473, "longitude": -4.291666}}, "link": "/v3/places/4b83da0ff964a5208f1331e3", "location": {"address": "58 Cresswell St", "admin_region": "Scotland", "country": "GB", "cross_street": "Cresswell Lane", "formatted_address": "58 Cresswell St (Cresswell Lane), Glasgow, Glasgow City, G12 8BY", "locality": "Glasgow", "post_town": "Glasgow", "postcode": "G12 8BY", "region": "Glasgow City"}, "name": "Atrium Coffee House", "related_places": {}, "timezone": "Europe/London"}], "context": {"geo_bounds": {"circle": {"center": {"latitude": 55.868352, "longitude": -4.289405}, "radius": 1000}}}}