{"results": [{"fsq_id": "4cc6bd4201fb236af8b7b8ba", "categories": [{"id": 13039, "name": "Deli", "short_name": "Deli", "plural_name": "Delis", "icon": {"prefix": "https://ss3.4sqi.net/img/categories_v2/food/deli_", "suffix": ".png"}}, {"id": 13145, "name": "Fast Food Restaurant", "short_name": "Fast Food", "plural_name": "Fast Food Restaurants", "icon": {"prefix": "https://ss3.4sqi.net/img/categories_v2/food/fastfood_", "suffix": ".png"}}, {"id": 13334, "name": "Sandwich Spot", "short_name": "Sandwich Spot", "plural_name": "Sandwich Spots", "icon": {"prefix": "https://ss3.4sqi.net/img/categories_v2/food/deli_", "suffix": ".png"}}], "chains": [{"id": "ab4bee40-d68a-012e-5619-003048cad9da", "name": "Subway"}], "closed_bucket": "VeryLikelyOpen", "distance": 923, "geocodes": {"main": {"latitude": 55.842422, "longitude": -4.275403}, "roof": {"latitude": 55.842422, "longitude": -4.275403}}, "link": "/v3/places/4cc6bd4201fb236af8b7b8ba", "location": {"address": "38 Herriet St", "admin_region": "Scotland", "country": "GB", "cross_street": "at Albert Dr.", "formatted_address": "38 Herriet St (at Albert Dr.), Glasgow, G41 2JY", "locality": "Glasgow", "post_town": "Glasgow", "postcode": "G41 2JY"}, "name": "Subway", "related_places": {}, "timezone": "Europe/London"}, {"fsq_id": "70c287f4444db0aeaae7a9f2", "categories": [{"id": 13065, "name": "Restaurant", "short_name": "Restaurant", "plural_name": "Restaurants", "icon": {"prefix": "https://ss3.4sqi.net/img/categories_v2/food/default_", "suffix": ".png"}}], "chains": [], "closed_bucket": "LikelyOpen", "distance": 479, "geocodes": {"drop_off": {"latitude": 55.837886, "longitude": -4.295707}, "main": {"latitude": 55.8381, "longitude": -4.295659}, "roof": {"latitude": 55.8381, "longitude": -4.295659}}, "link": "/v3/places/70c287f4444db0aeaae7a9f2", "location": {"admin_region": "Scotland", "country": "GB", "formatted_address": "Glasgow, Glasgow City", "locality": "Glasgow", "post_town": "Glasgow", "region": "Glasgow City"}, "name": "Trusty Buck's", "related_places": {}, "timezone": "Europe/London"}, {"fsq_id": "83c0debf618942c65af68eb3", "categories": [{"id": 10000, "name": "Arts and Entertainment", "short_name": "Arts & Entertainment", "plural_name": "Arts and Entertainment", "icon": {"prefix": "https://ss3.4sqi.net/img/categories_v2/arts_entertainment/default_", "suffix": ".png"}}, {"id": 13003, "name": "Bar", "short_name": "Bar", "plural_name": "Bars", "icon": {"prefix": "https://ss3.4sqi.net/img/categories_v2/nightlife/pub_", "suffix": ".png"}}, {"id": 13065, "name": "Restaurant", "short_name": "Restaurant", "plural_name": "Restaurants", "icon": {"prefix": "https://ss3.4sqi.net/img/categories_v2/food/default_", "suffix": ".png"}}], "chains": [], "closed_bucket": "Unsure", "distance": 807, "geocodes": {"drop_off": {"latitude": 55.83866, "longitude": -4.277608}, "main": {"latitude": 55.838818, "longitude": -4.277604}, "roof": {"latitude": 55.838818, "longitude": -4.277604}}, "link": "/v3/places/83c0debf618942c65af68eb3", "location": {"address": "20 Glencairn Dr", "admin_region": "Scotland", "country": "GB", "formatted_address": "20 Glencairn Dr, Glasgow, G41 4QN", "locality": "Glasgow", "post_town": "Glasgow", "postcode": "G41 4QN"}, "name": "Rukhsana Foods", "related_places": {}, "timezone": "Europe/London"}, {"fsq_id": "4cfa257a7f2db1f76baa25d4", "categories": [{"id": 13034, "name": "Caf\u00e9", "short_name": "Caf\u00e9", "plural_name": "Caf\u00e9s", "icon": {"prefix": "https://ss3.4sqi.net/img/categories_v2/food/cafe_", "suffix": ".png"}}, {"id": 13035, "name": "Coffee Shop", "short_name": "Coffee Shop", "plural_name": "Coffee Shops", "icon": {"prefix": "https://ss3.4sqi.net/img/categories_v2/food/coffeeshop_", "suffix": ".png"}}, {"id": 13065, "name": "Restaurant", "short_name": "Restaurant", "plural_name": "Restaurants", "icon": {"prefix": "https://ss3.4sqi.net/img/categories_v2/food/default_", "suffix": ".png"}}], "chains": [], "closed_bucket": "VeryLikelyOpen", "distance": 907, "geocodes": {"main": {"latitude": 55.833845, "longitude": -4.282565}, "roof": {"latitude": 55.833845, "longitude": -4.282565}}, "link": "/v3/places/4cfa257a7f2db1f76baa25d4", "location": {"address": "100 Minard Rd", "admin_region": "Scotland", "country": "GB", "cross_street": "", "formatted_address": "100 Minard Rd, Glasgow, G41 2DL", "locality": "Glasgow", "post_town": "Glasgow", "postcode": "G41 2DL"}, "name": "Cafe Solo", "related_places": {}, "timezone": "Europe/London"}, {"fsq_id": "5dc6bd8aabd6c100082bb1b5", "categories": [{"id": 13337, "name": "Scottish Restaurant", "short_name": "Scottish", "plural_name": "Scottish Restaurants", "icon": {"prefix": "https://ss3.4sqi.net/img/categories_v2/food/default_", "suffix": ".png"}}], "chains": [], "closed_bucket": "LikelyOpen", "distance": 937, "geocodes": {"drop_off": {"latitude": 55.838993, "longitude": -4.275359}, "main": {"latitude": 55.839108, "longitude": -4.275301}, "roof": {"latitude": 55.839108, "longitude": -4.275301}}, "link": "/v3/places/5dc6bd8aabd6c100082bb1b5", "location": {"address": "142 Nithsdale Rd", "admin_region": "Scotland", "country": "GB", "cross_street": "", "formatted_address": "142 Nithsdale Rd, Glasgow, Glasgow City, G41 5RB", "locality": "Glasgow", "post_town": "Glasgow", "postcode": "G41 5RB", "region": "Glasgow City"}, "name": "Six by Nico", "related_places": {}, "timezone": "Europe/London"}, {"fsq_id": "55b3dbae498e45ee0891c71f", "categories": [{"id": 13027, "name": "Bistro", "short_name": "Bistro", "plural_name": "Bistros", "icon": {"prefix": "https://ss3.4sqi.net/img/categories_v2/food/default_", "suffix": ".png"}}], "chains": [], "closed_bucket": "Unsure", "distance": 939, "geocodes": {"drop_off": {"latitude": 55.838876, "longitude": -4.275124}, "main": {"latitude": 55.839017, "longitude": -4.275053}, "roof": {"latitude": 55.839017, "longitude": -4.275053}}, "link": "/v3/places/55b3dbae498e45ee0891c71f", "location": {"address": "138 Nithsdale Rd", "admin_region": "Scotland", "country": "GB", "cross_street": "", "formatted_address": "138 Nithsdale Rd, Glasgow, G41 5RB", "locality": "Glasgow", "post_town": "Glasgow", "postcode": "G41 5RB"}, "name": "Christopher Robin Limited", "related_places": {}, "timezone": "Europe/London"}, {"fsq_id": "736358a402e84037c6883d6b", "categories": [{"id": 13236, "name": "Italian Restaurant", "short_name": "Italian", "plural_name": "Italian Restaurants", "icon": {"prefix": "https://ss3.4sqi.net/img/categories_v2/food/italian_", "suffix": ".png"}}], "chains": [], "closed_bucket": "LikelyOpen", "distance": 943, "geocodes": {"drop_off": {"latitude": 55.838952, "longitude": -4.275277}, "main": {"latitude": 55.839114, "longitude": -4.275196}, "roof": {"latitude": 55.839114, "longitude": -4.275196}}, "link": "/v3/places/736358a402e84037c6883d6b", "location": {"address": "142 Nithsdale Rd", "admin_region": "Scotland", "country": "GB", "formatted_address": "142 Nithsdale Rd, Glasgow, G41 5RB", "locality": "Glasgow", "post_town": "Glasgow", "postcode": "G41 5RB"}, "name": "Zeno", "related_places": {}, "timezone": "Europe/London"}, {"fsq_id": "531f79b9498ef8bf7eb56496", "categories": [{"id": 13072, "name": "Asian Restaurant", "short_name": "Asian", "plural_name": "Asian Restaurants", "icon": {"prefix": "https://ss3.4sqi.net/img/categories_v2/food/asian_", "suffix": ".png"}}], "chains": [], "closed_bucket": "VeryLikelyOpen", "distance": 953, "geocodes": {"main": {"latitude": 55.849454, "longitude": -4.292473}, "roof": {"latitude": 55.849454, "longitude": -4.292473}}, "link": "/v3/places/531f79b9498ef8bf7eb56496", "location": {"address": "562 Dumbarton Rd", "country": "GB", "cross_street": "", "formatted_address": "562 Dumbarton Rd, Glasgow, Glasgow City", "locality": "Glasgow", "post_town": "Glasgow", "region": "Glasgow City"}, "name": "The Pacific Bar & Kitsch Inn", "related_places": {}, "timezone": "Europe/London"}, {"fsq_id": "4cb44e701168a093a1764723", "categories": [{"id": 13072, "name": "Asian Restaurant", "short_name": "Asian", "plural_name": "Asian Restaurants", "icon": {"prefix": "https://ss3.4sqi.net/img/categories_v2/food/asian_", "suffix": ".png"}}], "chains": [], "closed_bucket": "VeryLikelyOpen", "distance": 965, "geocodes": {"drop_off": {"latitude": 55.849754, "longitude": -4.29029}, "main": {"latitude": 55.84958, "longitude": -4.290269}, "roof": {"latitude": 55.84958, "longitude": -4.290269}}, "link": "/v3/places/4cb44e701168a093a1764723", "location": {"address": "MacLellan St", "admin_region": "Scotland", "country": "GB", "cross_street": "maclellan st", "formatted_address": "MacLellan St (maclellan st), Kinning Park, Glasgow City, G41 1RR", "locality": "Kinning Park", "post_town": "Glasgow", "postcode": "G41 1RR", "region": "Glasgow City"}, "name": "Pakora Junction Snack Bar", "related_places": {}, "timezone": "Europe/London"}, {"fsq_id": "54e5e440498e4ac03ebf30a5", "categories": [{"id": 13142, "name": "English Restaurant", "short_name": "English", "plural_name": "English Restaurants", "icon": {"prefix": "https://ss3.4sqi.net/img/categories_v2/food/default_", "suffix": ".png"}}], "chains": [], "closed_bucket": "VeryLikelyOpen", "distance": 967, "geocodes": {"main": {"latitude": 55.838926, "longitude": -4.274805}, "roof": {"latitude": 55.838926, "longitude": -4.274805}}, "link": "/v3/places/54e5e440498e4ac03ebf30a5", "location": {"address": "122 Nithsdale Rd", "admin_region": "Scotland", "country": "GB", "cross_street": "", "formatted_address": "122 Nithsdale Rd, Glasgow, G41 5RB", "locality": "Glasgow", "post_town": "Glasgow", "postcode": "G41 5RB"}, "name": "Ollie's", "related_places": {}, "timezone": "Europe/London"}, {"fsq_id": "4e46da29d22d12b08bc78d80", "categories": [{"id": 13064, "name": "Pizzeria", "short_name": "Pizza", "plural_name": "Pizzerias", "icon": {"prefix": "https://ss3.4sqi.net/img/categories_v2/food/pizza_", "suffix": ".png"}}, {"id": 13145, "name": "Fast Food Restaurant", "short_name": "Fast Food", "plural_name": "Fast Food Restaurants", "icon": {"prefix": "https://ss3.4sqi.net/img/categories_v2/food/fastfood_", "suffix": ".png"}}, {"id": 13199, "name": "Indian Restaurant", "short_name": "Indian", "plural_name": "Indian Restaurants", "icon": {"prefix": "https://ss3.4sqi.net/img/categories_v2/food/indian_", "suffix": ".png"}}], "chains": [], "closed_bucket": "VeryLikelyOpen", "distance": 977, "geocodes": {"main": {"latitude": 55.842585, "longitude": -4.274392}, "roof": {"latitude": 55.842585, "longitude": -4.274392}}, "link": "/v3/places/4e46da29d22d12b08bc78d80", "location": {"address": "246 Albert Dr", "admin_region": "Scotland", "country": "GB", "cross_street": "", "formatted_address": "246 Albert Dr, Glasgow, Glasgow City, G41 2NL", "locality": "Glasgow", "post_town": "Glasgow", "postcode": "G41 2NL", "region": "Glasgow City"}, "name": "Rajas", "related_places": {}, "timezone": "Europe/London"}], "context": {"geo_bounds": {"circle": {"center": {"latitude": 55.840988, "longitude": -4.289947}, "radius": 1000}}}}