{"results": [{"fsq_id": "544bde6e498e4d8c2ebc60bf", "categories": [{"id": 13051, "name": "Fish and Chips Shop", "short_name": "Fish and Chips Shop", "plural_name": "Fish and Chips Shops", "icon": {"prefix": "https://ss3.4sqi.net/img/categories_v2/food/fishandchips_", "suffix": ".png"}}], "chains": [], "closed_bucket": "VeryLikelyOpen", "distance": 741, "geocodes": {"drop_off": {"latitude": 55.827244, "longitude": -4.259059}, "main": {"latitude": 55.82734, "longitude": -4.259006}, "roof": {"latitude": 55.82734, "longitude": -4.259006}}, "link": "/v3/places/544bde6e498e4d8c2ebc60bf", "location": {"address": "1027 Cathcart Rd", "admin_region": "Scotland", "country": "GB", "cross_street": "", "formatted_address": "1027 Cathcart Rd, Glasgow, G42 9XJ", "locality": "Glasgow", "post_town": "Glasgow", "postcode": "G42 9XJ"}, "name": "Hooked Fish & Chips", "related_places": {}, "timezone": "Europe/London"}, {"fsq_id": "4bae5929f964a5201ea63be3", "categories": [{"id": 13003, "name": "Bar", "short_name": "Bar", "plural_name": "Bars", "icon": {"prefix": "https://ss3.4sqi.net/img/categories_v2/nightlife/pub_", "suffix": ".png"}}, {"id": 13057, "name": "Gastropub", "short_name": "Gastropub", "plural_name": "Gastropubs", "icon": {"prefix": "https://ss3.4sqi.net/img/categories_v2/food/gastropub_", "suffix": ".png"}}], "chains": [], "closed_bucket": "LikelyOpen", "distance": 877, "geocodes": {"main": {"latitude": 55.823189, "longitude": -4.25881}, "roof": {"latitude": 55.823189, "longitude": -4.25881}}, "link": "/v3/places/4bae5929f964a5201ea63be3", "location": {"address": "1153-1155 Cathcart Rd", "admin_region": "Scotland", "country": "GB", "formatted_address": "1153-1155 Cathcart Rd, Glasgow, Glasgow City, G42 9HB", "locality": "Glasgow", "post_town": "Glasgow", "postcode": "G42 9HB", "region": "Glasgow City"}, "name": "Clockwork Beer Co", "related_places": {}, "timezone": "Europe/London"}, {"fsq_id": "4e36e8adb61cddd1cd4cd4c0", "categories": [{"id": 13199, "name": "Indian Restaurant", "short_name": "Indian", "plural_name": "Indian Restaurants", "icon": {"prefix": "https://ss3.4sqi.net/img/categories_v2/food/indian_", "suffix": ".png"}}], "chains": [], "closed_bucket": "VeryLikelyOpen", "distance": 961, "geocodes": {"main": {"latitude": 55.824909, "longitude": -4.261908}, "roof": {"latitude": 55.824909, "longitude": -4.261908}}, "link": "/v3/places/4e36e8adb61cddd1cd4cd4c0", "location": {"address": "250 Battlefield Rd", "admin_region": "Scotland", "country": "GB", "formatted_address": "250 Battlefield Rd, Glasgow, G42 9HU", "locality": "Glasgow", "post_town": "Glasgow", "postcode": "G42 9HU"}, "name": "Alishan Tandoori", "related_places": {}, "timezone": "Europe/London"}, {"fsq_id": "60fb34827f12bd23e97068f5", "categories": [{"id": 13031, "name": "Burger Joint", "short_name": "Burgers", "plural_name": "Burger Joints", "icon": {"prefix": "https://ss3.4sqi.net/img/categories_v2/food/burger_", "suffix": ".png"}}, {"id": 13145, "name": "Fast Food Restaurant", "short_name": "Fast Food", "plural_name": "Fast Food Restaurants", "icon": {"prefix": "https://ss3.4sqi.net/img/categories_v2/food/fastfood_", "suffix": ".png"}}], "chains": [{"id": "ab4a3530-d68a-012e-5619-003048cad9da", "name": "McDonald's"}], "closed_bucket": "VeryLikelyOpen", "distance": 253, "geocodes": {"main": {"latitude": 55.829946, "longitude": -4.246584}, "roof": {"latitude": 55.829946, "longitude": -4.246584}}, "link": "/v3/places/60fb34827f12bd23e97068f5", "location": {"address": "557 Prospecthill Rd", "admin_region": "Scotland", "country": "GB", "cross_street": "", "formatted_address": "557 Prospecthill Rd, Glasgow, G42 0AE", "locality": "Glasgow", "post_town": "Glasgow", "postcode": "G42 0AE"}, "name": "McDonald's", "related_places": {}, "timezone": "Europe/London"}, {"fsq_id": "e5b4a76300214589694fff6c", "categories": [{"id": 13065, "name": "Restaurant", "short_name": "Restaurant", "plural_name": "Restaurants", "icon": {"prefix": "https://ss3.4sqi.net/img/categories_v2/food/default_", "suffix": ".png"}}], "chains": [], "closed_bucket": "VeryLikelyOpen", "distance": 150, "geocodes": {"drop_off": {"latitude": 55.826693, "longitude": -4.246735}, "main": {"latitude": 55.826681, "longitude": -4.246555}, "roof": {"latitude": 55.826681, "longitude": -4.246555}}, "link": "/v3/places/e5b4a76300214589694fff6c", "location": {"address": "899 Aikenhead Rd", "admin_region": "Scotland", "country": "GB", "formatted_address": "899 Aikenhead Rd, Glasgow, G42 0NT", "locality": "Glasgow", "post_town": "Glasgow", "postcode": "G42 0NT"}, "name": "Yum Chinese Takeaway", "related_places": {}, "timezone": "Europe/London"}, {"fsq_id": "4ba3c3b1f964a520c75c38e3", "categories": [{"id": 13003, "name": "Bar", "short_name": "Bar", "plural_name": "Bars", "icon": {"prefix": "https://ss3.4sqi.net/img/categories_v2/nightlife/pub_", "suffix": ".png"}}], "chains": [], "closed_bucket": "VeryLikelyOpen", "distance": 170, "geocodes": {"main": {"latitude": 55.82665, "longitude": -4.246169}, "roof": {"latitude": 55.82665, "longitude": -4.246169}}, "link": "/v3/places/4ba3c3b1f964a520c75c38e3", "location": {"country": "GB", "cross_street": "", "formatted_address": ""}, "name": "The Montford House", "related_places": {}, "timezone": "Europe/London"}, {"fsq_id": "4daf555c1e7264cc0e332f4e", "categories": [{"id": 13145, "name": "Fast Food Restaurant", "short_name": "Fast Food", "plural_name": "Fast Food Restaurants", "icon": {"prefix": "https://ss3.4sqi.net/img/categories_v2/food/fastfood_", "suffix": ".png"}}, {"id": 13199, "name": "Indian Restaurant", "short_name": "Indian", "plural_name": "Indian Restaurants", "icon": {"prefix": "https://ss3.4sqi.net/img/categories_v2/food/indian_", "suffix": ".png"}}], "chains": [], "closed_bucket": "Unsure", "distance": 468, "geocodes": {"main": {"latitude": 55.8238, "longitude": -4.249024}, "roof": {"latitude": 55.8238, "longitude": -4.249024}}, "link": "/v3/places/4daf555c1e7264cc0e332f4e", "location": {"address": "1003 Aikenhead Rd", "admin_region": "Scotland", "country": "GB", "cross_street": "", "formatted_address": "1003 Aikenhead Rd, Glasgow, Glasgow City, G44 4SF", "locality": "Glasgow", "post_town": "Glasgow", "postcode": "G44 4SF", "region": "Glasgow City"}, "name": "Barbecue Palace", "related_places": {}, "timezone": "Europe/London"}, {"fsq_id": "87a9784465bf44ddfeff8cbd", "categories": [{"id": 13035, "name": "Coffee Shop", "short_name": "Coffee Shop", "plural_name": "Coffee Shops", "icon": {"prefix": "https://ss3.4sqi.net/img/categories_v2/food/coffeeshop_", "suffix": ".png"}}, {"id": 13145, "name": "Fast Food Restaurant", "short_name": "Fast Food", "plural_name": "Fast Food Restaurants", "icon": {"prefix": "https://ss3.4sqi.net/img/categories_v2/food/fastfood_", "suffix": ".png"}}], "chains": [], "closed_bucket": "Unsure", "distance": 480, "geocodes": {"drop_off": {"latitude": 55.823855, "longitude": -4.249191}, "main": {"latitude": 55.823751, "longitude": -4.248953}, "roof": {"latitude": 55.823751, "longitude": -4.248953}}, "link": "/v3/places/87a9784465bf44ddfeff8cbd", "location": {"address": "1005 Aikenhead Rd", "admin_region": "Scotland", "country": "GB", "formatted_address": "1005 Aikenhead Rd, Glasgow, Glasgow City, G44 4SF", "locality": "Glasgow", "post_town": "Glasgow", "postcode": "G44 4SF", "region": "Glasgow City"}, "name": "The Coffee Shack", "related_places": {}, "timezone": "Europe/London"}, {"fsq_id": "4c2223e59a67a5934ef6db87", "categories": [{"id": 13018, "name": "Pub", "short_name": "Pub", "plural_name": "Pubs", "icon": {"prefix": "https://ss3.4sqi.net/img/categories_v2/nightlife/pub_", "suffix": ".png"}}, {"id": 13065, "name": "Restaurant", "short_name": "Restaurant", "plural_name": "Restaurants", "icon": {"prefix": "https://ss3.4sqi.net/img/categories_v2/food/default_", "suffix": ".png"}}], "chains": [], "closed_bucket": "VeryLikelyOpen", "distance": 507, "geocodes": {"main": {"latitude": 55.823502, "longitude": -4.2487}, "roof": {"latitude": 55.823502, "longitude": -4.2487}}, "link": "/v3/places/4c2223e59a67a5934ef6db87", "location": {"address": "156-164 Ardmay Crescent", "admin_region": "Scotland", "country": "GB", "cross_street": "", "formatted_address": "156-164 Ardmay Crescent, Glasgow, Glasgow City, G44 4PP", "locality": "Glasgow", "post_town": "Glasgow", "postcode": "G44 4PP", "region": "Glasgow City"}, "name": "Beechwood Tavern", "related_places": {}, "timezone": "Europe/London"}, {"fsq_id": "4c9647cc94a0236a2f7d9d12", "categories": [{"id": 13099, "name": "Chinese Restaurant", "short_name": "Chinese", "plural_name": "Chinese Restaurants", "icon": {"prefix": "https://ss3.4sqi.net/img/categories_v2/food/asian_", "suffix": ".png"}}], "chains": [], "closed_bucket": "VeryLikelyOpen", "distance": 517, "geocodes": {"main": {"latitude": 55.826354, "longitude": -4.255054}, "roof": {"latitude": 55.826354, "longitude": -4.255054}}, "link": "/v3/places/4c9647cc94a0236a2f7d9d12", "location": {"address": "13 Cumming Dr, Mount Florida", "admin_region": "Scotland", "country": "GB", "cross_street": "Mount Florida", "formatted_address": "13 Cumming Dr, Mount Florida (Mount Florida), Glasgow, Glasgow City, G42 9AE", "locality": "Glasgow", "post_town": "Glasgow", "postcode": "G42 9AE", "region": "Glasgow City"}, "name": "Good Choi's Cuisine", "related_places": {}, "timezone": "Europe/London"}, {"fsq_id": "52a3840c11d251e43167cb77", "categories": [{"id": 13099, "name": "Chinese Restaurant", "short_name": "Chinese", "plural_name": "Chinese Restaurants", "icon": {"prefix": "https://ss3.4sqi.net/img/categories_v2/food/asian_", "suffix": ".png"}}], "chains": [], "closed_bucket": "VeryLikelyOpen", "distance": 533, "geocodes": {"main": {"latitude": 55.82348, "longitude": -4.25094}, "roof": {"latitude": 55.82348, "longitude": -4.25094}}, "link": "/v3/places/52a3840c11d251e43167cb77", "location": {"country": "GB", "cross_street": "", "formatted_address": ""}, "name": "Lucky Garden", "related_places": {}, "timezone": "Europe/London"}, {"fsq_id": "9ad7da3940c94f76b3372009", "categories": [{"id": 13003, "name": "Bar", "short_name": "Bar", "plural_name": "Bars", "icon": {"prefix": "https://ss3.4sqi.net/img/categories_v2/nightlife/pub_", "suffix": ".png"}}], "chains": [], "closed_bucket": "Unsure", "distance": 540, "geocodes": {"drop_off": {"latitude": 55.823242, "longitude": -4.248395}, "main": {"latitude": 55.82315, "longitude": -4.24841}, "roof": {"latitude": 55.82315, "longitude": -4.24841}}, "link": "/v3/places/9ad7da3940c94f76b3372009", "location": {"address": "156-164 Ardmay Crescent", "admin_region": "Scotland", "country": "GB", "formatted_address": "156-164 Ardmay Crescent, Glasgow, G44 4PP", "locality": "Glasgow", "post_town": "Glasgow", "postcode": "G44 4PP"}, "name": "Maguire, Mary", "related_places": {}, "timezone": "Europe/London"}, {"fsq_id": "5188f63b498eaddd9d66aeef", "categories": [{"id": 13039, "name": "Deli", "short_name": "Deli", "plural_name": "Delis", "icon": {"prefix": "https://ss3.4sqi.net/img/categories_v2/food/deli_", "suffix": ".png"}}], "chains": [], "closed_bucket": "VeryLikelyOpen", "distance": 669, "geocodes": {"main": {"latitude": 55.825299, "longitude": -4.256913}, "roof": {"latitude": 55.825299, "longitude": -4.256913}}, "link": "/v3/places/5188f63b498eaddd9d66aeef", "location": {"address": "1 Carmunnock Rd", "admin_region": "Scotland", "country": "GB", "cross_street": "", "formatted_address": "1 Carmunnock Rd, Glasgow, G44 4TZ", "locality": "Glasgow", "post_town": "Glasgow", "postcode": "G44 4TZ"}, "name": "Arturos Deli", "related_places": {}, "timezone": "Europe/London"}, {"fsq_id": "4c866fa374d7b60c0809a4d8", "categories": [{"id": 13199, "name": "Indian Restaurant", "short_name": "Indian", "plural_name": "Indian Restaurants", "icon": {"prefix": "https://ss3.4sqi.net/img/categories_v2/food/indian_", "suffix": ".png"}}], "chains": [], "closed_bucket": "VeryLikelyOpen", "distance": 675, "geocodes": {"main": {"latitude": 55.826144, "longitude": -4.257814}, "roof": {"latitude": 55.826144, "longitude": -4.257814}}, "link": "/v3/places/4c866fa374d7b60c0809a4d8", "location": {"address": "1096 Cathcart Rd", "admin_region": "Scotland", "country": "GB", "cross_street": "at Bolton Dr.", "formatted_address": "1096 Cathcart Rd (at Bolton Dr.), Glasgow, G42 9XW", "locality": "Glasgow", "post_town": "Glasgow", "postcode": "G42 9XW"}, "name": "Shezan Tandoori", "related_places": {}, "timezone": "Europe/London"}, {"fsq_id": "5ffa1ff883f8904fe590fac1", "categories": [{"id": 13035, "name": "Coffee Shop", "short_name": "Coffee Shop", "plural_name": "Coffee Shops", "icon": {"prefix": "https://ss3.4sqi.net/img/categories_v2/food/coffeeshop_", "suffix": ".png"}}, {"id": 13065, "name": "Restaurant", "short_name": "Restaurant", "plural_name": "Restaurants", "icon": {"prefix": "https://ss3.4sqi.net/img/categories_v2/food/default_", "suffix": ".png"}}], "chains": [], "closed_bucket": "LikelyOpen", "distance": 675, "geocodes": {"drop_off": {"latitude": 55.825002, "longitude": -4.257006}, "main": {"latitude": 55.825044, "longitude": -4.256765}, "roof": {"latitude": 55.825044, "longitude": -4.256765}}, "link": "/v3/places/5ffa1ff883f8904fe590fac1", "location": {"address": "25 Carmunnock Rd", "admin_region": "Scotland", "country": "GB", "cross_street": "", "formatted_address": "25 Carmunnock Rd, Glasgow, Glasgow City, G44 4TZ", "locality": "Glasgow", "post_town": "Glasgow", "postcode": "G44 4TZ", "region": "Glasgow City"}, "name": "Honey & Salt", "related_places": {}, "timezone": "Europe/London"}, {"fsq_id": "5aa2d6046c08d133ac75c700", "categories": [{"id": 13025, "name": "Wine Bar", "short_name": "Wine Bar", "plural_name": "Wine Bars", "icon": {"prefix": "https://ss3.4sqi.net/img/categories_v2/food/winery_", "suffix": ".png"}}, {"id": 13031, "name": "Burger Joint", "short_name": "Burgers", "plural_name": "Burger Joints", "icon": {"prefix": "https://ss3.4sqi.net/img/categories_v2/food/burger_", "suffix": ".png"}}, {"id": 13068, "name": "American Restaurant", "short_name": "American", "plural_name": "American Restaurants", "icon": {"prefix": "https://ss3.4sqi.net/img/categories_v2/food/default_", "suffix": ".png"}}], "chains": [], "closed_bucket": "VeryLikelyOpen", "distance": 681, "geocodes": {"drop_off": {"latitude": 55.826111, "longitude": -4.257507}, "main": {"latitude": 55.825883, "longitude": -4.257771}, "roof": {"latitude": 55.825883, "longitude": -4.257771}}, "link": "/v3/places/5aa2d6046c08d133ac75c700", "location": {"address": "1102 Cathcart Rd", "admin_region": "Scotland", "country": "GB", "cross_street": "", "formatted_address": "1102 Cathcart Rd, Glasgow, Glasgow City, G42 9EG", "locality": "Glasgow", "post_town": "Glasgow", "postcode": "G42 9EG", "region": "Glasgow City"}, "name": "Hoagies", "related_places": {}, "timezone": "Europe/London"}, {"fsq_id": "5ed7860bdf4d490008d8fe4f", "categories": [{"id": 13199, "name": "Indian Restaurant", "short_name": "Indian", "plural_name": "Indian Restaurants", "icon": {"prefix": "https://ss3.4sqi.net/img/categories_v2/food/indian_", "suffix": ".png"}}, {"id": 13316, "name": "Pakistani Restaurant", "short_name": "Pakistani", "plural_name": "Pakistani Restaurants", "icon": {"prefix": "https://ss3.4sqi.net/img/categories_v2/food/default_", "suffix": ".png"}}], "chains": [], "closed_bucket": "LikelyOpen", "distance": 690, "geocodes": {"drop_off": {"latitude": 55.83396, "longitude": -4.248665}, "main": {"latitude": 55.83402, "longitude": -4.248142}, "roof": {"latitude": 55.83402, "longitude": -4.248142}}, "link": "/v3/places/5ed7860bdf4d490008d8fe4f", "location": {"address": "491 Aikenhead Rd", "admin_region": "Scotland", "country": "GB", "cross_street": "", "formatted_address": "491 Aikenhead Rd, Glasgow, Glasgow City, G42 0PW", "locality": "Glasgow", "post_town": "Glasgow", "postcode": "G42 0PW", "region": "Glasgow City"}, "name": "Paratha Box", "related_places": {"parent": {"fsq_id": "58442a34a19e9066cd24fcec", "categories": [{"id": 11011, "name": "Car Wash and Detail", "short_name": "Car Washes", "plural_name": "Car Washes and Details", "icon": {"prefix": "https://ss3.4sqi.net/img/categories_v2/shops/carwash_", "suffix": ".png"}}], "name": "Sparkle Car Wash"}}, "timezone": "Europe/London"}, {"fsq_id": "4decae94b0fb8293f80c752a", "categories": [{"id": 13049, "name": "Diner", "short_name": "Diner", "plural_name": "Diners", "icon": {"prefix": "https://ss3.4sqi.net/img/categories_v2/food/diner_", "suffix": ".png"}}], "chains": [], "closed_bucket": "LikelyOpen", "distance": 698, "geocodes": {"drop_off": {"latitude": 55.825061, "longitude": -4.257016}, "main": {"latitude": 55.825093, "longitude": -4.256837}, "roof": {"latitude": 55.825093, "longitude": -4.256837}}, "link": "/v3/places/4decae94b0fb8293f80c752a", "location": {"address": "19 Carmunnock Rd", "admin_region": "Scotland", "country": "GB", "cross_street": "", "formatted_address": "19 Carmunnock Rd, Glasgow, Glasgow City", "locality": "Glasgow", "post_town": "Glasgow", "region": "Glasgow City"}, "name": "Cafe Amalfi", "related_places": {}, "timezone": "Europe/London"}, {"fsq_id": "4daf5b3efa8c123fa7ecba58", "categories": [{"id": 13145, "name": "Fast Food Restaurant", "short_name": "Fast Food", "plural_name": "Fast Food Restaurants", "icon": {"prefix": "https://ss3.4sqi.net/img/categories_v2/food/fastfood_", "suffix": ".png"}}, {"id": 13199, "name": "Indian Restaurant", "short_name": "Indian", "plural_name": "Indian Restaurants", "icon": {"prefix": "https://ss3.4sqi.net/img/categories_v2/food/indian_", "suffix": ".png"}}], "chains": [], "closed_bucket": "VeryLikelyOpen", "distance": 722, "geocodes": {"main": {"latitude": 55.825154, "longitude": -4.257609}, "roof": {"latitude": 55.825154, "longitude": -4.257609}}, "link": "/v3/places/4daf5b3efa8c123fa7ecba58", "location": {"address": "1154 Cathcart Rd", "admin_region": "Scotland", "country": "GB", "cross_street": "", "formatted_address": "1154 Cathcart Rd, Glasgow, Glasgow City, G42 9EG", "locality": "Glasgow", "post_town": "Glasgow", "postcode": "G42 9EG", "region": "Glasgow City"}, "name": "Lassani Tandoori Halal", "related_places": {}, "timezone": "Europe/London"}, {"fsq_id": "8272168a12404ffe33b9c5b8", "categories": [{"id": 13099, "name": "Chinese Restaurant", "short_name": "Chinese", "plural_name": "Chinese Restaurants", "icon": {"prefix": "https://ss3.4sqi.net/img/categories_v2/food/asian_", "suffix": ".png"}}, {"id": 13145, "name": "Fast Food Restaurant", "short_name": "Fast Food", "plural_name": "Fast Food Restaurants", "icon": {"prefix": "https://ss3.4sqi.net/img/categories_v2/food/fastfood_", "suffix": ".png"}}], "chains": [], "closed_bucket": "LikelyOpen", "distance": 732, "geocodes": {"main": {"latitude": 55.834524, "longitude": -4.248543}, "roof": {"latitude": 55.834524, "longitude": -4.248543}}, "link": "/v3/places/8272168a12404ffe33b9c5b8", "location": {"address": "485 Aikenhead Rd", "admin_region": "Scotland", "country": "GB", "formatted_address": "485 Aikenhead Rd, Glasgow, G42 0PP", "locality": "Glasgow", "post_town": "Glasgow", "postcode": "G42 0PP"}, "name": "Golden House", "related_places": {}, "timezone": "Europe/London"}, {"fsq_id": "59217a0478782c76cde3bed3", "categories": [{"id": 13034, "name": "Caf\u00e9", "short_name": "Caf\u00e9", "plural_name": "Caf\u00e9s", "icon": {"prefix": "https://ss3.4sqi.net/img/categories_v2/food/cafe_", "suffix": ".png"}}, {"id": 13065, "name": "Restaurant", "short_name": "Restaurant", "plural_name": "Restaurants", "icon": {"prefix": "https://ss3.4sqi.net/img/categories_v2/food/default_", "suffix": ".png"}}], "chains": [], "closed_bucket": "VeryLikelyOpen", "distance": 732, "geocodes": {"drop_off": {"latitude": 55.827128, "longitude": -4.258846}, "main": {"latitude": 55.826922, "longitude": -4.258958}, "roof": {"latitude": 55.826922, "longitude": -4.258958}}, "link": "/v3/places/59217a0478782c76cde3bed3", "location": {"address": "1036 Cathcart Rd Mount Florida", "admin_region": "Scotland", "country": "GB", "cross_street": "", "formatted_address": "1036 Cathcart Rd Mount Florida, Glasgow, Glasgow City, G42 9XW", "locality": "Glasgow", "post_town": "Glasgow", "postcode": "G42 9XW", "region": "Glasgow City"}, "name": "Mala Carne", "related_places": {}, "timezone": "Europe/London"}, {"fsq_id": "47ebfd3e88a54e79d7a48e40", "categories": [{"id": 13051, "name": "Fish and Chips Shop", "short_name": "Fish and Chips Shop", "plural_name": "Fish and Chips Shops", "icon": {"prefix": "https://ss3.4sqi.net/img/categories_v2/food/fishandchips_", "suffix": ".png"}}], "chains": [], "closed_bucket": "Unsure", "distance": 739, "geocodes": {"main": {"latitude": 55.827389, "longitude": -4.259077}, "roof": {"latitude": 55.827389, "longitude": -4.259077}}, "link": "/v3/places/47ebfd3e88a54e79d7a48e40", "location": {"address": "1027 Cathcart Rd", "admin_region": "Scotland", "country": "GB", "formatted_address": "1027 Cathcart Rd, Glasgow, G42 9XJ", "locality": "Glasgow", "post_town": "Glasgow", "postcode": "G42 9XJ"}, "name": "Papa G", "related_places": {}, "timezone": "Europe/London"}, {"fsq_id": "6209551803de4c178085244b", "categories": [{"id": 13003, "name": "Bar", "short_name": "Bar", "plural_name": "Bars", "icon": {"prefix": "https://ss3.4sqi.net/img/categories_v2/nightlife/pub_", "suffix": ".png"}}, {"id": 13068, "name": "American Restaurant", "short_name": "American", "plural_name": "American Restaurants", "icon": {"prefix": "https://ss3.4sqi.net/img/categories_v2/food/default_", "suffix": ".png"}}], "chains": [], "closed_bucket": "Unsure", "distance": 740, "geocodes": {"drop_off": {"latitude": 55.827326, "longitude": -4.25921}, "main": {"latitude": 55.827438, "longitude": -4.259149}, "roof": {"latitude": 55.827438, "longitude": -4.259149}}, "link": "/v3/places/6209551803de4c178085244b", "location": {"address": "1021 Cathcart Rd", "admin_region": "Scotland", "country": "GB", "cross_street": "", "formatted_address": "1021 Cathcart Rd, Glasgow, Glasgow City, G42 9XJ", "locality": "Glasgow", "post_town": "Glasgow", "postcode": "G42 9XJ", "region": "Glasgow City"}, "name": "Buck\u2019s Bar", "related_places": {}, "timezone": "Europe/London"}, {"fsq_id": "4e7223521495e4ca142bfff6", "categories": [{"id": 13034, "name": "Caf\u00e9", "short_name": "Caf\u00e9", "plural_name": "Caf\u00e9s", "icon": {"prefix": "https://ss3.4sqi.net/img/categories_v2/food/cafe_", "suffix": ".png"}}, {"id": 13035, "name": "Coffee Shop", "short_name": "Coffee Shop", "plural_name": "Coffee Shops", "icon": {"prefix": "https://ss3.4sqi.net/img/categories_v2/food/coffeeshop_", "suffix": ".png"}}, {"id": 13145, "name": "Fast Food Restaurant", "short_name": "Fast Food", "plural_name": "Fast Food Restaurants", "icon": {"prefix": "https://ss3.4sqi.net/img/categories_v2/food/fastfood_", "suffix": ".png"}}], "chains": [], "closed_bucket": "LikelyOpen", "distance": 741, "geocodes": {"main": {"latitude": 55.82711, "longitude": -4.259349}, "roof": {"latitude": 55.82711, "longitude": -4.259349}}, "link": "/v3/places/4e7223521495e4ca142bfff6", "location": {"address": "10 Clincart Rd", "admin_region": "Scotland", "country": "GB", "formatted_address": "10 Clincart Rd, Glasgow, G42 9DJ", "locality": "Glasgow", "post_town": "Glasgow", "postcode": "G42 9DJ"}, "name": "Loafers", "related_places": {}, "timezone": "Europe/London"}, {"fsq_id": "5cdff7ad6fd626002c3f880b", "categories": [{"id": 13034, "name": "Caf\u00e9", "short_name": "Caf\u00e9", "plural_name": "Caf\u00e9s", "icon": {"prefix": "https://ss3.4sqi.net/img/categories_v2/food/cafe_", "suffix": ".png"}}, {"id": 13035, "name": "Coffee Shop", "short_name": "Coffee Shop", "plural_name": "Coffee Shops", "icon": {"prefix": "https://ss3.4sqi.net/img/categories_v2/food/coffeeshop_", "suffix": ".png"}}, {"id": 13065, "name": "Restaurant", "short_name": "Restaurant", "plural_name": "Restaurants", "icon": {"prefix": "https://ss3.4sqi.net/img/categories_v2/food/default_", "suffix": ".png"}}], "chains": [], "closed_bucket": "LikelyOpen", "distance": 742, "geocodes": {"drop_off": {"latitude": 55.827754, "longitude": -4.259384}, "main": {"latitude": 55.827753, "longitude": -4.259159}, "roof": {"latitude": 55.827753, "longitude": -4.259159}}, "link": "/v3/places/5cdff7ad6fd626002c3f880b", "location": {"address": "1007 Cathcart Rd", "admin_region": "Scotland", "country": "GB", "cross_street": "", "formatted_address": "1007 Cathcart Rd, Glasgow, Glasgow City, G42 9XJ", "locality": "Glasgow", "post_town": "Glasgow", "postcode": "G42 9XJ", "region": "Glasgow City"}, "name": "Cafe Salmagundi", "related_places": {}, "timezone": "Europe/London"}, {"fsq_id": "4e554e5318a8e7aa2cd8614f", "categories": [{"id": 13145, "name": "Fast Food Restaurant", "short_name": "Fast Food", "plural_name": "Fast Food Restaurants", "icon": {"prefix": "https://ss3.4sqi.net/img/categories_v2/food/fastfood_", "suffix": ".png"}}], "chains": [], "closed_bucket": "VeryLikelyOpen", "distance": 742, "geocodes": {"main": {"latitude": 55.826976, "longitude": -4.258925}, "roof": {"latitude": 55.826976, "longitude": -4.258925}}, "link": "/v3/places/4e554e5318a8e7aa2cd8614f", "location": {"country": "GB", "cross_street": "", "formatted_address": ""}, "name": "Papa-G's Fish and Chips", "related_places": {}, "timezone": "Europe/London"}, {"fsq_id": "4f3e3169e4b0500b68105de7", "categories": [{"id": 11056, "name": "Food and Beverage Service", "short_name": "Food Service", "plural_name": "Food and Beverage Services", "icon": {"prefix": "https://ss3.4sqi.net/img/categories_v2/shops/foodanddrink_", "suffix": ".png"}}, {"id": 13040, "name": "Dessert Shop", "short_name": "Desserts", "plural_name": "Dessert Shops", "icon": {"prefix": "https://ss3.4sqi.net/img/categories_v2/food/dessert_", "suffix": ".png"}}, {"id": 13065, "name": "Restaurant", "short_name": "Restaurant", "plural_name": "Restaurants", "icon": {"prefix": "https://ss3.4sqi.net/img/categories_v2/food/default_", "suffix": ".png"}}], "chains": [], "closed_bucket": "VeryLikelyOpen", "distance": 751, "geocodes": {"main": {"latitude": 55.827031, "longitude": -4.258891}, "roof": {"latitude": 55.827031, "longitude": -4.258891}}, "link": "/v3/places/4f3e3169e4b0500b68105de7", "location": {"address": "1032 Cathcart Rd", "admin_region": "Scotland", "country": "GB", "cross_street": "", "formatted_address": "1032 Cathcart Rd, Glasgow, G42 9XW", "locality": "Glasgow", "post_town": "Glasgow", "postcode": "G42 9XW"}, "name": "Dream Cakes", "related_places": {}, "timezone": "Europe/London"}, {"fsq_id": "5096b3b1e4b0f17ed655b119", "categories": [{"id": 13051, "name": "Fish and Chips Shop", "short_name": "Fish and Chips Shop", "plural_name": "Fish and Chips Shops", "icon": {"prefix": "https://ss3.4sqi.net/img/categories_v2/food/fishandchips_", "suffix": ".png"}}], "chains": [], "closed_bucket": "VeryLikelyOpen", "distance": 754, "geocodes": {"drop_off": {"latitude": 55.827285, "longitude": -4.259134}, "main": {"latitude": 55.827389, "longitude": -4.259077}, "roof": {"latitude": 55.827389, "longitude": -4.259077}}, "link": "/v3/places/5096b3b1e4b0f17ed655b119", "location": {"address": "1027 Cathcart Rd", "admin_region": "Scotland", "country": "GB", "formatted_address": "1027 Cathcart Rd, Glasgow, G42 9XJ", "locality": "Glasgow", "post_town": "Glasgow", "postcode": "G42 9XJ"}, "name": "Dolan's Classic Fish & Chip Shop", "related_places": {}, "timezone": "Europe/London"}, {"fsq_id": "4e9adaf28231878c159ca551", "categories": [{"id": 13145, "name": "Fast Food Restaurant", "short_name": "Fast Food", "plural_name": "Fast Food Restaurants", "icon": {"prefix": "https://ss3.4sqi.net/img/categories_v2/food/fastfood_", "suffix": ".png"}}, {"id": 13334, "name": "Sandwich Spot", "short_name": "Sandwich Spot", "plural_name": "Sandwich Spots", "icon": {"prefix": "https://ss3.4sqi.net/img/categories_v2/food/deli_", "suffix": ".png"}}], "chains": [], "closed_bucket": "VeryLikelyOpen", "distance": 754, "geocodes": {"main": {"latitude": 55.827596, "longitude": -4.259154}, "roof": {"latitude": 55.827596, "longitude": -4.259154}}, "link": "/v3/places/4e9adaf28231878c159ca551", "location": {"address": "1009 Cathcart Rd", "admin_region": "Scotland", "country": "GB", "cross_street": "", "formatted_address": "1009 Cathcart Rd, Glasgow, Glasgow City, G42 9XJ", "locality": "Glasgow", "post_town": "Glasgow", "postcode": "G42 9XJ", "region": "Glasgow City"}, "name": "New York Jacks", "related_places": {}, "timezone": "Europe/London"}, {"fsq_id": "4d5596d8611aa35de4bf3639", "categories": [{"id": 13064, "name": "Pizzeria", "short_name": "Pizza", "plural_name": "Pizzerias", "icon": {"prefix": "https://ss3.4sqi.net/img/categories_v2/food/pizza_", "suffix": ".png"}}, {"id": 13145, "name": "Fast Food Restaurant", "short_name": "Fast Food", "plural_name": "Fast Food Restaurants", "icon": {"prefix": "https://ss3.4sqi.net/img/categories_v2/food/fastfood_", "suffix": ".png"}}], "chains": [], "closed_bucket": "VeryLikelyOpen", "distance": 761, "geocodes": {"main": {"latitude": 55.825895, "longitude": -4.257561}, "roof": {"latitude": 55.825895, "longitude": -4.257561}}, "link": "/v3/places/4d5596d8611aa35de4bf3639", "location": {"address": "1108 Cathcart Rd", "admin_region": "Scotland", "country": "GB", "cross_street": "", "formatted_address": "1108 Cathcart Rd, Glasgow, Glasgow City, G42 9EG", "locality": "Glasgow", "post_town": "Glasgow", "postcode": "G42 9EG", "region": "Glasgow City"}, "name": "Stefano's Pizzeria", "related_places": {}, "timezone": "Europe/London"}, {"fsq_id": "d761d7e36d4242c93845adc4", "categories": [{"id": 13236, "name": "Italian Restaurant", "short_name": "Italian", "plural_name": "Italian Restaurants", "icon": {"prefix": "https://ss3.4sqi.net/img/categories_v2/food/italian_", "suffix": ".png"}}], "chains": [], "closed_bucket": "LikelyOpen", "distance": 761, "geocodes": {"drop_off": {"latitude": 55.827297, "longitude": -4.259157}, "main": {"latitude": 55.826952, "longitude": -4.259344}, "roof": {"latitude": 55.826952, "longitude": -4.259344}}, "link": "/v3/places/d761d7e36d4242c93845adc4", "location": {"address": "1021 Cathcart Rd", "admin_region": "Scotland", "country": "GB", "formatted_address": "1021 Cathcart Rd, Glasgow, Glasgow City, G42 9XJ", "locality": "Glasgow", "post_town": "Glasgow", "postcode": "G42 9XJ", "region": "Glasgow City"}, "name": "Meatballs Master", "related_places": {}, "timezone": "Europe/London"}, {"fsq_id": "7e1ffeb8d32a43d022403e73", "categories": [{"id": 13065, "name": "Restaurant", "short_name": "Restaurant", "plural_name": "Restaurants", "icon": {"prefix": "https://ss3.4sqi.net/img/categories_v2/food/default_", "suffix": ".png"}}], "chains": [], "closed_bucket": "VeryLikelyOpen", "distance": 787, "geocodes": {"main": {"latitude": 55.828255, "longitude": -4.234663}, "roof": {"latitude": 55.828255, "longitude": -4.234663}}, "link": "/v3/places/7e1ffeb8d32a43d022403e73", "location": {"address": "31 Glenmore Ave", "admin_region": "Scotland", "country": "GB", "formatted_address": "31 Glenmore Ave, Glasgow, Glasgow City, G42 0EH", "locality": "Glasgow", "post_town": "Glasgow", "postcode": "G42 0EH", "region": "Glasgow City"}, "name": "Karahi Grill", "related_places": {}, "timezone": "Europe/London"}, {"fsq_id": "54d60b69fda54f46668af376", "categories": [{"id": 13145, "name": "Fast Food Restaurant", "short_name": "Fast Food", "plural_name": "Fast Food Restaurants", "icon": {"prefix": "https://ss3.4sqi.net/img/categories_v2/food/fastfood_", "suffix": ".png"}}], "chains": [], "closed_bucket": "VeryLikelyOpen", "distance": 864, "geocodes": {"main": {"latitude": 55.834051, "longitude": -4.255918}, "roof": {"latitude": 55.834051, "longitude": -4.255918}}, "link": "/v3/places/54d60b69fda54f46668af376", "location": {"address": "661 Cathcart Rd", "admin_region": "Scotland", "country": "GB", "formatted_address": "661 Cathcart Rd, Glasgow, G42 8AP", "locality": "Glasgow", "post_town": "Glasgow", "postcode": "G42 8AP"}, "name": "Chicken Express", "related_places": {}, "timezone": "Europe/London"}, {"fsq_id": "4c76b8d3f247370434d363eb", "categories": [{"id": 13003, "name": "Bar", "short_name": "Bar", "plural_name": "Bars", "icon": {"prefix": "https://ss3.4sqi.net/img/categories_v2/nightlife/pub_", "suffix": ".png"}}], "chains": [], "closed_bucket": "LikelyOpen", "distance": 869, "geocodes": {"main": {"latitude": 55.824343, "longitude": -4.259825}, "roof": {"latitude": 55.824343, "longitude": -4.259825}}, "link": "/v3/places/4c76b8d3f247370434d363eb", "location": {"address": "318 Battlefield Rd", "admin_region": "Scotland", "country": "GB", "cross_street": "", "formatted_address": "318 Battlefield Rd, Glasgow, G42 9JD", "locality": "Glasgow", "post_town": "Glasgow", "postcode": "G42 9JD"}, "name": "The Florida Park", "related_places": {}, "timezone": "Europe/London"}, {"fsq_id": "921c9d8d67542d9364ca5d6b", "categories": [{"id": 11163, "name": "Shipping, Freight, and Material Transportation Service", "short_name": "Shipping Service", "plural_name": "Shipping, Freight, and Material Transportation Services", "icon": {"prefix": "https://ss3.4sqi.net/img/categories_v2/shops/default_", "suffix": ".png"}}, {"id": 13065, "name": "Restaurant", "short_name": "Restaurant", "plural_name": "Restaurants", "icon": {"prefix": "https://ss3.4sqi.net/img/categories_v2/food/default_", "suffix": ".png"}}], "chains": [], "closed_bucket": "LikelyOpen", "distance": 874, "geocodes": {"drop_off": {"latitude": 55.834147, "longitude": -4.256179}, "main": {"latitude": 55.834203, "longitude": -4.256028}, "roof": {"latitude": 55.834203, "longitude": -4.256028}}, "link": "/v3/places/921c9d8d67542d9364ca5d6b", "location": {"address": "651 Cathcart Rd", "admin_region": "Scotland", "country": "GB", "formatted_address": "651 Cathcart Rd, Glasgow, Glasgow City, G42 8AP", "locality": "Glasgow", "post_town": "Glasgow", "postcode": "G42 8AP", "region": "Glasgow City"}, "name": "DHL Express Service Point", "related_places": {}, "timezone": "Europe/London"}, {"fsq_id": "a78b85cfc1fd459a47a4841d", "categories": [{"id": 13051, "name": "Fish and Chips Shop", "short_name": "Fish and Chips Shop", "plural_name": "Fish and Chips Shops", "icon": {"prefix": "https://ss3.4sqi.net/img/categories_v2/food/fishandchips_", "suffix": ".png"}}, {"id": 13064, "name": "Pizzeria", "short_name": "Pizza", "plural_name": "Pizzerias", "icon": {"prefix": "https://ss3.4sqi.net/img/categories_v2/food/pizza_", "suffix": ".png"}}, {"id": 13145, "name": "Fast Food Restaurant", "short_name": "Fast Food", "plural_name": "Fast Food Restaurants", "icon": {"prefix": "https://ss3.4sqi.net/img/categories_v2/food/fastfood_", "suffix": ".png"}}], "chains": [], "closed_bucket": "LikelyOpen", "distance": 482, "geocodes": {"main": {"latitude": 55.823746, "longitude": -4.249058}, "roof": {"latitude": 55.823746, "longitude": -4.249058}}, "link": "/v3/places/a78b85cfc1fd459a47a4841d", "location": {"address": "1007 Aikenhead Rd", "admin_region": "Scotland", "country": "GB", "formatted_address": "1007 Aikenhead Rd, Glasgow, G44 4SF", "locality": "Glasgow", "post_town": "Glasgow", "postcode": "G44 4SF"}, "name": "Valentino's", "related_places": {}}, {"fsq_id": "4bcd176e0a1a4094240296aa", "categories": [{"id": 13065, "name": "Restaurant", "short_name": "Restaurant", "plural_name": "Restaurants", "icon": {"prefix": "https://ss3.4sqi.net/img/categories_v2/food/default_", "suffix": ".png"}}], "chains": [], "closed_bucket": "LikelyOpen", "distance": 493, "geocodes": {"drop_off": {"latitude": 55.823738, "longitude": -4.249241}, "main": {"latitude": 55.823642, "longitude": -4.24902}, "roof": {"latitude": 55.823642, "longitude": -4.24902}}, "link": "/v3/places/4bcd176e0a1a4094240296aa", "location": {"address": "1007 Aikenhead Rd", "admin_region": "Scotland", "country": "GB", "formatted_address": "1007 Aikenhead Rd, Glasgow", "locality": "Glasgow", "post_town": "Glasgow"}, "name": "Valentinos Fish & Chips, Pizzeria", "related_places": {}}, {"fsq_id": "b7db5cf0a4a146d65e48b398", "categories": [{"id": 11076, "name": "Home Improvement Service", "short_name": "Home Improvement Service", "plural_name": "Home Improvement Services", "icon": {"prefix": "https://ss3.4sqi.net/img/categories_v2/shops/hardware_", "suffix": ".png"}}, {"id": 13046, "name": "Ice Cream Parlor", "short_name": "Ice Cream", "plural_name": "Ice Cream Parlors", "icon": {"prefix": "https://ss3.4sqi.net/img/categories_v2/food/icecream_", "suffix": ".png"}}, {"id": 13065, "name": "Restaurant", "short_name": "Restaurant", "plural_name": "Restaurants", "icon": {"prefix": "https://ss3.4sqi.net/img/categories_v2/food/default_", "suffix": ".png"}}, {"id": 17082, "name": "Furniture and Home Store", "short_name": "Furniture and Home Store", "plural_name": "Furniture and Home Stores", "icon": {"prefix": "https://ss3.4sqi.net/img/categories_v2/shops/furniture_", "suffix": ".png"}}], "chains": [], "closed_bucket": "LikelyOpen", "distance": 707, "geocodes": {"drop_off": {"latitude": 55.826012, "longitude": -4.257979}, "main": {"latitude": 55.825871, "longitude": -4.257981}, "roof": {"latitude": 55.825871, "longitude": -4.257981}}, "link": "/v3/places/b7db5cf0a4a146d65e48b398", "location": {"address": "7 Bolton Dr", "admin_region": "Scotland", "country": "GB", "formatted_address": "7 Bolton Dr, Glasgow, G42 9DX", "locality": "Glasgow", "post_town": "Glasgow", "postcode": "G42 9DX"}, "name": "Mount Florida Scoopalicious", "related_places": {}}, {"fsq_id": "15e6aaf0f75841bae2d60823", "categories": [{"id": 13065, "name": "Restaurant", "short_name": "Restaurant", "plural_name": "Restaurants", "icon": {"prefix": "https://ss3.4sqi.net/img/categories_v2/food/default_", "suffix": ".png"}}], "chains": [], "closed_bucket": "LikelyOpen", "distance": 719, "geocodes": {"drop_off": {"latitude": 55.824975, "longitude": -4.257451}, "main": {"latitude": 55.825051, "longitude": -4.257571}, "roof": {"latitude": 55.825051, "longitude": -4.257571}}, "link": "/v3/places/15e6aaf0f75841bae2d60823", "location": {"address": "1154 Cathcart Rd", "admin_region": "Scotland", "country": "GB", "formatted_address": "1154 Cathcart Rd, Glasgow, G42 9EG", "locality": "Glasgow", "post_town": "Glasgow", "postcode": "G42 9EG"}, "name": "Lassani", "related_places": {}}, {"fsq_id": "93d1623bc4b0412a35f7ae38", "categories": [{"id": 13044, "name": "Frozen Yogurt Shop", "short_name": "Yogurt", "plural_name": "Frozen Yogurt Shops", "icon": {"prefix": "https://ss3.4sqi.net/img/categories_v2/food/frozenyogurt_", "suffix": ".png"}}, {"id": 13065, "name": "Restaurant", "short_name": "Restaurant", "plural_name": "Restaurants", "icon": {"prefix": "https://ss3.4sqi.net/img/categories_v2/food/default_", "suffix": ".png"}}], "chains": [], "closed_bucket": "LikelyOpen", "distance": 726, "geocodes": {"drop_off": {"latitude": 55.827199, "longitude": -4.258977}, "main": {"latitude": 55.827401, "longitude": -4.258868}, "roof": {"latitude": 55.827401, "longitude": -4.258868}}, "link": "/v3/places/93d1623bc4b0412a35f7ae38", "location": {"address": "1027 Cathcart Rd", "admin_region": "Scotland", "country": "GB", "formatted_address": "1027 Cathcart Rd, Glasgow", "locality": "Glasgow", "post_town": "Glasgow"}, "name": "YUGO Frozen Yoghurt", "related_places": {}}, {"fsq_id": "3ff57014610e48239ffbfbdc", "categories": [{"id": 13236, "name": "Italian Restaurant", "short_name": "Italian", "plural_name": "Italian Restaurants", "icon": {"prefix": "https://ss3.4sqi.net/img/categories_v2/food/italian_", "suffix": ".png"}}], "chains": [], "closed_bucket": "VeryLikelyOpen", "distance": 739, "geocodes": {"main": {"latitude": 55.827389, "longitude": -4.259077}, "roof": {"latitude": 55.827389, "longitude": -4.259077}}, "link": "/v3/places/3ff57014610e48239ffbfbdc", "location": {"address": "1021 Cathcart Rd", "admin_region": "Scotland", "country": "GB", "formatted_address": "1021 Cathcart Rd, Glasgow, G42 9XJ", "locality": "Glasgow", "post_town": "Glasgow", "postcode": "G42 9XJ"}, "name": "Sapori D'italia Meatballs Master", "related_places": {}}, {"fsq_id": "4f03e728951e4b9c99713819", "categories": [{"id": 13035, "name": "Coffee Shop", "short_name": "Coffee Shop", "plural_name": "Coffee Shops", "icon": {"prefix": "https://ss3.4sqi.net/img/categories_v2/food/coffeeshop_", "suffix": ".png"}}, {"id": 13145, "name": "Fast Food Restaurant", "short_name": "Fast Food", "plural_name": "Fast Food Restaurants", "icon": {"prefix": "https://ss3.4sqi.net/img/categories_v2/food/fastfood_", "suffix": ".png"}}], "chains": [], "closed_bucket": "Unsure", "distance": 782, "geocodes": {"main": {"latitude": 55.827775, "longitude": -4.234754}, "roof": {"latitude": 55.827775, "longitude": -4.234754}}, "link": "/v3/places/4f03e728951e4b9c99713819", "location": {"address": "22 Glenmore Ave Toryglen", "country": "GB", "formatted_address": "22 Glenmore Ave Toryglen, Glasgow", "locality": "Glasgow", "post_town": "Glasgow"}, "name": "The Blether Community Cafe", "related_places": {}}, {"fsq_id": "7e507d0be86a457ff32cea72", "categories": [{"id": 13003, "name": "Bar", "short_name": "Bar", "plural_name": "Bars", "icon": {"prefix": "https://ss3.4sqi.net/img/categories_v2/nightlife/pub_", "suffix": ".png"}}], "chains": [], "closed_bucket": "Unsure", "distance": 792, "geocodes": {"drop_off": {"latitude": 55.824203, "longitude": -4.236735}, "main": {"latitude": 55.823972, "longitude": -4.236776}, "roof": {"latitude": 55.823972, "longitude": -4.236776}}, "link": "/v3/places/7e507d0be86a457ff32cea72", "location": {"address": "360 Curtis Ave, Rutherglen", "country": "GB", "formatted_address": "360 Curtis Ave, Rutherglen, Glasgow", "locality": "Glasgow", "post_town": "Glasgow"}, "name": "100 Acre", "related_places": {}}, {"fsq_id": "b44f430f89ff45c589a6f641", "categories": [{"id": 13065, "name": "Restaurant", "short_name": "Restaurant", "plural_name": "Restaurants", "icon": {"prefix": "https://ss3.4sqi.net/img/categories_v2/food/default_", "suffix": ".png"}}], "chains": [], "closed_bucket": "Unsure", "distance": 867, "geocodes": {"main": {"latitude": 55.834105, "longitude": -4.255885}, "roof": {"latitude": 55.834105, "longitude": -4.255885}}, "link": "/v3/places/b44f430f89ff45c589a6f641", "location": {"address": "671 Cathcart Rd", "admin_region": "Scotland", "country": "GB", "formatted_address": "671 Cathcart Rd, Glasgow, G42 8AP", "locality": "Glasgow", "post_town": "Glasgow", "postcode": "G42 8AP"}, "name": "Food Depot", "related_places": {}}, {"fsq_id": "4d52c8906440432a926b97c8", "categories": [{"id": 13051, "name": "Fish and Chips Shop", "short_name": "Fish and Chips Shop", "plural_name": "Fish and Chips Shops", "icon": {"prefix": "https://ss3.4sqi.net/img/categories_v2/food/fishandchips_", "suffix": ".png"}}], "chains": [], "closed_bucket": "Unsure", "distance": 959, "geocodes": {"main": {"latitude": 55.834616, "longitude": -4.257091}, "roof": {"latitude": 55.834616, "longitude": -4.257091}}, "link": "/v3/places/4d52c8906440432a926b97c8", "location": {"address": "646 Cathcart Rd", "admin_region": "Scotland", "country": "GB", "formatted_address": "646 Cathcart Rd, Glasgow, G42 8AA", "locality": "Glasgow", "post_town": "Glasgow", "postcode": "G42 8AA"}, "name": "G's Fish & Chips", "related_places": {}}], "context": {"geo_bounds": {"circle": {"center": {"latitude": 55.827974, "longitude": -4.247278}, "radius": 1000}}}}