{"results": [{"fsq_id": "4fb020cae4b0771d83262d40", "categories": [{"id": 13099, "name": "Chinese Restaurant", "short_name": "Chinese", "plural_name": "Chinese Restaurants", "icon": {"prefix": "https://ss3.4sqi.net/img/categories_v2/food/asian_", "suffix": ".png"}}], "chains": [], "closed_bucket": "VeryLikelyOpen", "distance": 248, "geocodes": {"main": {"latitude": 55.868177, "longitude": -4.189158}, "roof": {"latitude": 55.868177, "longitude": -4.189158}}, "link": "/v3/places/4fb020cae4b0771d83262d40", "location": {"country": "GB", "cross_street": "", "formatted_address": ""}, "name": "Oriental Smithycroft Road Riddrie", "related_places": {}, "timezone": "Europe/London"}, {"fsq_id": "5638ffa160b2753ece75baf4", "categories": [{"id": 13145, "name": "Fast Food Restaurant", "short_name": "Fast Food", "plural_name": "Fast Food Restaurants", "icon": {"prefix": "https://ss3.4sqi.net/img/categories_v2/food/fastfood_", "suffix": ".png"}}, {"id": 13199, "name": "Indian Restaurant", "short_name": "Indian", "plural_name": "Indian Restaurants", "icon": {"prefix": "https://ss3.4sqi.net/img/categories_v2/food/indian_", "suffix": ".png"}}], "chains": [], "closed_bucket": "LikelyOpen", "distance": 283, "geocodes": {"main": {"latitude": 55.868152, "longitude": -4.188667}, "roof": {"latitude": 55.868152, "longitude": -4.188667}}, "link": "/v3/places/5638ffa160b2753ece75baf4", "location": {"address": "94 Smithycroft Rd", "admin_region": "Scotland", "country": "GB", "formatted_address": "94 Smithycroft Rd, Glasgow, G33 2RQ", "locality": "Glasgow", "post_town": "Glasgow", "postcode": "G33 2RQ"}, "name": "Curry Palace", "related_places": {}, "timezone": "Europe/London"}, {"fsq_id": "cb1015ba710d4248355518f2", "categories": [{"id": 13145, "name": "Fast Food Restaurant", "short_name": "Fast Food", "plural_name": "Fast Food Restaurants", "icon": {"prefix": "https://ss3.4sqi.net/img/categories_v2/food/fastfood_", "suffix": ".png"}}], "chains": [], "closed_bucket": "LikelyOpen", "distance": 508, "geocodes": {"main": {"latitude": 55.870423, "longitude": -4.186667}, "roof": {"latitude": 55.870423, "longitude": -4.186667}}, "link": "/v3/places/cb1015ba710d4248355518f2", "location": {"address": "230 Smithycroft Rd", "admin_region": "Scotland", "country": "GB", "formatted_address": "230 Smithycroft Rd, Glasgow, G33 2QZ", "locality": "Glasgow", "post_town": "Glasgow", "postcode": "G33 2QZ"}, "name": "Curry Corner", "related_places": {}, "timezone": "Europe/London"}, {"fsq_id": "4c1908a54ff90f47d64c0f49", "categories": [{"id": 13145, "name": "Fast Food Restaurant", "short_name": "Fast Food", "plural_name": "Fast Food Restaurants", "icon": {"prefix": "https://ss3.4sqi.net/img/categories_v2/food/fastfood_", "suffix": ".png"}}], "chains": [], "closed_bucket": "VeryLikelyOpen", "distance": 564, "geocodes": {"drop_off": {"latitude": 55.863552, "longitude": -4.19812}, "main": {"latitude": 55.863058, "longitude": -4.197766}, "roof": {"latitude": 55.863058, "longitude": -4.197766}}, "link": "/v3/places/4c1908a54ff90f47d64c0f49", "location": {"address": "Cumbernauld Rd", "country": "GB", "cross_street": "", "formatted_address": "Cumbernauld Rd, Glasgow, Glasgow City", "locality": "Glasgow", "post_town": "Glasgow", "region": "Glasgow City"}, "name": "Conte's Fish N Chip Bar", "related_places": {}, "timezone": "Europe/London"}, {"fsq_id": "4c51ff1099ecc9b69342315a", "categories": [{"id": 13099, "name": "Chinese Restaurant", "short_name": "Chinese", "plural_name": "Chinese Restaurants", "icon": {"prefix": "https://ss3.4sqi.net/img/categories_v2/food/asian_", "suffix": ".png"}}], "chains": [], "closed_bucket": "VeryLikelyOpen", "distance": 878, "geocodes": {"main": {"latitude": 55.862398, "longitude": -4.203842}, "roof": {"latitude": 55.862398, "longitude": -4.203842}}, "link": "/v3/places/4c51ff1099ecc9b69342315a", "location": {"address": "402 Cumbernauld Rd", "admin_region": "Scotland", "country": "GB", "cross_street": "haghill", "formatted_address": "402 Cumbernauld Rd (haghill), Glasgow, Glasgow City, G31 3NN", "locality": "Glasgow", "post_town": "Glasgow", "postcode": "G31 3NN", "region": "Glasgow City"}, "name": "Poa San", "related_places": {}, "timezone": "Europe/London"}, {"fsq_id": "4e8d57b5000846323b6b29b6", "categories": [{"id": 13145, "name": "Fast Food Restaurant", "short_name": "Fast Food", "plural_name": "Fast Food Restaurants", "icon": {"prefix": "https://ss3.4sqi.net/img/categories_v2/food/fastfood_", "suffix": ".png"}}], "chains": [], "closed_bucket": "LikelyOpen", "distance": 889, "geocodes": {"main": {"latitude": 55.859637, "longitude": -4.189331}, "roof": {"latitude": 55.859637, "longitude": -4.189331}}, "link": "/v3/places/4e8d57b5000846323b6b29b6", "location": {"address": "7 Murrayfield St", "admin_region": "Scotland", "country": "GB", "formatted_address": "7 Murrayfield St, Glasgow, G32 6EW", "locality": "Glasgow", "post_town": "Glasgow", "postcode": "G32 6EW"}, "name": "New Panda House", "related_places": {}, "timezone": "Europe/London"}, {"fsq_id": "e397d3ae57fa4b7fd89d367e", "categories": [{"id": 13065, "name": "Restaurant", "short_name": "Restaurant", "plural_name": "Restaurants", "icon": {"prefix": "https://ss3.4sqi.net/img/categories_v2/food/default_", "suffix": ".png"}}], "chains": [], "closed_bucket": "Unsure", "distance": 914, "geocodes": {"main": {"latitude": 55.862466, "longitude": -4.204509}, "roof": {"latitude": 55.862466, "longitude": -4.204509}}, "link": "/v3/places/e397d3ae57fa4b7fd89d367e", "location": {"address": "376 Cumbernauld Rd", "admin_region": "Scotland", "country": "GB", "formatted_address": "376 Cumbernauld Rd, Glasgow, G31 3NN", "locality": "Glasgow", "post_town": "Glasgow", "postcode": "G31 3NN"}, "name": "K M Tasty Bites", "related_places": {}, "timezone": "Europe/London"}, {"fsq_id": "4c705204b5a5236ae6ff4f52", "categories": [{"id": 13034, "name": "Caf\u00e9", "short_name": "Caf\u00e9", "plural_name": "Caf\u00e9s", "icon": {"prefix": "https://ss3.4sqi.net/img/categories_v2/food/cafe_", "suffix": ".png"}}, {"id": 13145, "name": "Fast Food Restaurant", "short_name": "Fast Food", "plural_name": "Fast Food Restaurants", "icon": {"prefix": "https://ss3.4sqi.net/img/categories_v2/food/fastfood_", "suffix": ".png"}}, {"id": 13236, "name": "Italian Restaurant", "short_name": "Italian", "plural_name": "Italian Restaurants", "icon": {"prefix": "https://ss3.4sqi.net/img/categories_v2/food/italian_", "suffix": ".png"}}], "chains": [], "closed_bucket": "LikelyOpen", "distance": 1008, "geocodes": {"main": {"latitude": 55.862832, "longitude": -4.206412}, "roof": {"latitude": 55.862832, "longitude": -4.206412}}, "link": "/v3/places/4c705204b5a5236ae6ff4f52", "location": {"address": "331-335 Cumbernauld Rd", "admin_region": "Scotland", "country": "GB", "cross_street": "", "formatted_address": "331-335 Cumbernauld Rd, Glasgow, G31 3LP", "locality": "Glasgow", "post_town": "Glasgow", "postcode": "G31 3LP"}, "name": "Cafe Zecchino", "related_places": {}, "timezone": "Europe/London"}, {"fsq_id": "78af11bfad9240b2d7ba1472", "categories": [{"id": 13145, "name": "Fast Food Restaurant", "short_name": "Fast Food", "plural_name": "Fast Food Restaurants", "icon": {"prefix": "https://ss3.4sqi.net/img/categories_v2/food/fastfood_", "suffix": ".png"}}], "chains": [], "closed_bucket": "Unsure", "distance": 284, "geocodes": {"main": {"latitude": 55.868267, "longitude": -4.188496}, "roof": {"latitude": 55.868267, "longitude": -4.188496}}, "link": "/v3/places/78af11bfad9240b2d7ba1472", "location": {"address": "108 Smithycroft Rd", "admin_region": "Scotland", "country": "GB", "formatted_address": "108 Smithycroft Rd, Glasgow, G33 2RQ", "locality": "Glasgow", "post_town": "Glasgow", "postcode": "G33 2RQ"}, "name": "Sir Chef", "related_places": {}}, {"fsq_id": "2572529784864c7b7565a1cb", "categories": [{"id": 13040, "name": "Dessert Shop", "short_name": "Desserts", "plural_name": "Dessert Shops", "icon": {"prefix": "https://ss3.4sqi.net/img/categories_v2/food/dessert_", "suffix": ".png"}}, {"id": 13145, "name": "Fast Food Restaurant", "short_name": "Fast Food", "plural_name": "Fast Food Restaurants", "icon": {"prefix": "https://ss3.4sqi.net/img/categories_v2/food/fastfood_", "suffix": ".png"}}], "chains": [], "closed_bucket": "Unsure", "distance": 586, "geocodes": {"drop_off": {"latitude": 55.86339, "longitude": -4.186846}, "main": {"latitude": 55.863424, "longitude": -4.186604}, "roof": {"latitude": 55.863424, "longitude": -4.186604}}, "link": "/v3/places/2572529784864c7b7565a1cb", "location": {"address": "Silverburn Shopping Centre", "country": "GB", "formatted_address": "Silverburn Shopping Centre, Glasgow", "locality": "Glasgow", "post_town": "Glasgow"}, "name": "Y\u00fcp Frozen Yogurt", "related_places": {}}, {"fsq_id": "88f1bf75b7ef46da60e63ef5", "categories": [{"id": 13065, "name": "Restaurant", "short_name": "Restaurant", "plural_name": "Restaurants", "icon": {"prefix": "https://ss3.4sqi.net/img/categories_v2/food/default_", "suffix": ".png"}}], "chains": [], "closed_bucket": "LikelyOpen", "distance": 885, "geocodes": {"drop_off": {"latitude": 55.862505, "longitude": -4.203833}, "main": {"latitude": 55.862398, "longitude": -4.203842}, "roof": {"latitude": 55.862398, "longitude": -4.203842}}, "link": "/v3/places/88f1bf75b7ef46da60e63ef5", "location": {"address": "Cumbernauld Rd. Muirhead", "country": "GB", "formatted_address": "Cumbernauld Rd. Muirhead, Glasgow", "locality": "Glasgow", "post_town": "Glasgow"}, "name": "Orchid Lane", "related_places": {}}, {"fsq_id": "fa80f524be9f44df673153b6", "categories": [{"id": 13065, "name": "Restaurant", "short_name": "Restaurant", "plural_name": "Restaurants", "icon": {"prefix": "https://ss3.4sqi.net/img/categories_v2/food/default_", "suffix": ".png"}}], "chains": [], "closed_bucket": "Unsure", "distance": 887, "geocodes": {"main": {"latitude": 55.861578, "longitude": -4.202522}, "roof": {"latitude": 55.861578, "longitude": -4.202522}}, "link": "/v3/places/fa80f524be9f44df673153b6", "location": {"address": "3-5 Dukes Cour", "country": "GB", "formatted_address": "3-5 Dukes Cour"}, "name": "Aberfolyle Delicatessen and Trossachs Butcher", "related_places": {}}], "context": {"geo_bounds": {"circle": {"center": {"latitude": 55.867405, "longitude": -4.192788}, "radius": 1000}}}}