{"results": [{"fsq_id": "54c61ff3498ec3e20f6a64b2", "categories": [{"id": 13035, "name": "Coffee Shop", "short_name": "Coffee Shop", "plural_name": "Coffee Shops", "icon": {"prefix": "https://ss3.4sqi.net/img/categories_v2/food/coffeeshop_", "suffix": ".png"}}, {"id": 13065, "name": "Restaurant", "short_name": "Restaurant", "plural_name": "Restaurants", "icon": {"prefix": "https://ss3.4sqi.net/img/categories_v2/food/default_", "suffix": ".png"}}], "chains": [], "closed_bucket": "LikelyOpen", "distance": 918, "geocodes": {"main": {"latitude": 55.870559, "longitude": -4.316758}, "roof": {"latitude": 55.870559, "longitude": -4.316758}}, "link": "/v3/places/54c61ff3498ec3e20f6a64b2", "location": {"address": "579 Dumbarton Rd", "admin_region": "Scotland", "country": "GB", "cross_street": "Meadow Rd", "formatted_address": "579 Dumbarton Rd (Meadow Rd), Glasgow, Glasgow City, G11 6HY", "locality": "Glasgow", "post_town": "Glasgow", "postcode": "G11 6HY", "region": "Glasgow City"}, "name": "Meadow Road Coffee", "related_places": {}, "timezone": "Europe/London"}, {"fsq_id": "59d12b1befa82a766c5f27ec", "categories": [{"id": 13064, "name": "Pizzeria", "short_name": "Pizza", "plural_name": "Pizzerias", "icon": {"prefix": "https://ss3.4sqi.net/img/categories_v2/food/pizza_", "suffix": ".png"}}], "chains": [], "closed_bucket": "VeryLikelyOpen", "distance": 895, "geocodes": {"main": {"latitude": 55.870558, "longitude": -4.315847}, "roof": {"latitude": 55.870558, "longitude": -4.315847}}, "link": "/v3/places/59d12b1befa82a766c5f27ec", "location": {"address": "561 Dumbarton Rd", "admin_region": "Scotland", "country": "GB", "cross_street": "", "formatted_address": "561 Dumbarton Rd, Glasgow, Glasgow City, G11 6HU", "locality": "Glasgow", "post_town": "Glasgow", "postcode": "G11 6HU", "region": "Glasgow City"}, "name": "Basta", "related_places": {}, "timezone": "Europe/London"}, {"fsq_id": "57ff424738fa621fceda6354", "categories": [{"id": 13035, "name": "Coffee Shop", "short_name": "Coffee Shop", "plural_name": "Coffee Shops", "icon": {"prefix": "https://ss3.4sqi.net/img/categories_v2/food/coffeeshop_", "suffix": ".png"}}, {"id": 13065, "name": "Restaurant", "short_name": "Restaurant", "plural_name": "Restaurants", "icon": {"prefix": "https://ss3.4sqi.net/img/categories_v2/food/default_", "suffix": ".png"}}], "chains": [], "closed_bucket": "LikelyOpen", "distance": 887, "geocodes": {"drop_off": {"latitude": 55.870798, "longitude": -4.307859}, "main": {"latitude": 55.8707, "longitude": -4.307858}, "roof": {"latitude": 55.8707, "longitude": -4.307858}}, "link": "/v3/places/57ff424738fa621fceda6354", "location": {"address": "381 Dumbarton Rd", "admin_region": "Scotland", "country": "GB", "cross_street": "Vine Street", "formatted_address": "381 Dumbarton Rd (Vine Street), Glasgow, Glasgow City, G11 6BA", "locality": "Glasgow", "post_town": "Glasgow", "postcode": "G11 6BA", "region": "Glasgow City"}, "name": "Caffe Monza", "related_places": {}, "timezone": "Europe/London"}, {"fsq_id": "4e8ef9707ee6c06365c0a110", "categories": [{"id": 13039, "name": "Deli", "short_name": "Deli", "plural_name": "Delis", "icon": {"prefix": "https://ss3.4sqi.net/img/categories_v2/food/deli_", "suffix": ".png"}}, {"id": 13145, "name": "Fast Food Restaurant", "short_name": "Fast Food", "plural_name": "Fast Food Restaurants", "icon": {"prefix": "https://ss3.4sqi.net/img/categories_v2/food/fastfood_", "suffix": ".png"}}, {"id": 13334, "name": "Sandwich Spot", "short_name": "Sandwich Spot", "plural_name": "Sandwich Spots", "icon": {"prefix": "https://ss3.4sqi.net/img/categories_v2/food/deli_", "suffix": ".png"}}], "chains": [{"id": "ab4bee40-d68a-012e-5619-003048cad9da", "name": "Subway"}], "closed_bucket": "VeryLikelyOpen", "distance": 27, "geocodes": {"main": {"latitude": 55.862844, "longitude": -4.311642}, "roof": {"latitude": 55.862844, "longitude": -4.311642}}, "link": "/v3/places/4e8ef9707ee6c06365c0a110", "location": {"address": "795 Govan Cross Shopping Center", "address_extended": "Unit 3", "admin_region": "Scotland", "country": "GB", "formatted_address": "795 Govan Cross Shopping Center, Glasgow, G51 3JW", "locality": "Glasgow", "post_town": "Glasgow", "postcode": "G51 3JW"}, "name": "Subway", "related_places": {"parent": {"fsq_id": "4ca47d54d5a2a1433df85190", "categories": [{"id": 17115, "name": "Shopping Plaza", "short_name": "Shopping Plaza", "plural_name": "Shopping Plazas", "icon": {"prefix": "https://ss3.4sqi.net/img/categories_v2/shops/mall_", "suffix": ".png"}}], "name": "Govan Cross Shopping Centre"}}, "timezone": "Europe/London"}, {"fsq_id": "529f473d11d244431bf81587", "categories": [{"id": 13003, "name": "Bar", "short_name": "Bar", "plural_name": "Bars", "icon": {"prefix": "https://ss3.4sqi.net/img/categories_v2/nightlife/pub_", "suffix": ".png"}}, {"id": 13057, "name": "Gastropub", "short_name": "Gastropub", "plural_name": "Gastropubs", "icon": {"prefix": "https://ss3.4sqi.net/img/categories_v2/food/gastropub_", "suffix": ".png"}}], "chains": [], "closed_bucket": "LikelyOpen", "distance": 866, "geocodes": {"main": {"latitude": 55.870641, "longitude": -4.309819}, "roof": {"latitude": 55.870641, "longitude": -4.309819}}, "link": "/v3/places/529f473d11d244431bf81587", "location": {"address": "427-429 Dumbarton Rd", "admin_region": "Scotland", "country": "GB", "cross_street": "", "formatted_address": "427-429 Dumbarton Rd, Glasgow, G11 6DD", "locality": "Glasgow", "post_town": "Glasgow", "postcode": "G11 6DD"}, "name": "Deoch an Dorus", "related_places": {}, "timezone": "Europe/London"}, {"fsq_id": "526ba0c3498ed07193995d14", "categories": [{"id": 13034, "name": "Caf\u00e9", "short_name": "Caf\u00e9", "plural_name": "Caf\u00e9s", "icon": {"prefix": "https://ss3.4sqi.net/img/categories_v2/food/cafe_", "suffix": ".png"}}, {"id": 13065, "name": "Restaurant", "short_name": "Restaurant", "plural_name": "Restaurants", "icon": {"prefix": "https://ss3.4sqi.net/img/categories_v2/food/default_", "suffix": ".png"}}], "chains": [], "closed_bucket": "LikelyOpen", "distance": 23, "geocodes": {"main": {"latitude": 55.862838, "longitude": -4.310836}, "roof": {"latitude": 55.862838, "longitude": -4.310836}}, "link": "/v3/places/526ba0c3498ed07193995d14", "location": {"address": "794 Govan Rd", "admin_region": "Scotland", "country": "GB", "cross_street": "", "formatted_address": "794 Govan Rd, Glasgow, G51 2YL", "locality": "Glasgow", "post_town": "Glasgow", "postcode": "G51 2YL"}, "name": "Cafe 13", "related_places": {}, "timezone": "Europe/London"}, {"fsq_id": "4be1b9e787e42d7f97ad870b", "categories": [{"id": 13003, "name": "Bar", "short_name": "Bar", "plural_name": "Bars", "icon": {"prefix": "https://ss3.4sqi.net/img/categories_v2/nightlife/pub_", "suffix": ".png"}}], "chains": [], "closed_bucket": "VeryLikelyOpen", "distance": 115, "geocodes": {"main": {"latitude": 55.863336, "longitude": -4.313165}, "roof": {"latitude": 55.863336, "longitude": -4.313165}}, "link": "/v3/places/4be1b9e787e42d7f97ad870b", "location": {"country": "GB", "formatted_address": ""}, "name": "The Brechin", "related_places": {}, "timezone": "Europe/London"}, {"fsq_id": "50704149e4b06e5e717947ce", "categories": [{"id": 13034, "name": "Caf\u00e9", "short_name": "Caf\u00e9", "plural_name": "Caf\u00e9s", "icon": {"prefix": "https://ss3.4sqi.net/img/categories_v2/food/cafe_", "suffix": ".png"}}, {"id": 13035, "name": "Coffee Shop", "short_name": "Coffee Shop", "plural_name": "Coffee Shops", "icon": {"prefix": "https://ss3.4sqi.net/img/categories_v2/food/coffeeshop_", "suffix": ".png"}}, {"id": 13236, "name": "Italian Restaurant", "short_name": "Italian", "plural_name": "Italian Restaurants", "icon": {"prefix": "https://ss3.4sqi.net/img/categories_v2/food/italian_", "suffix": ".png"}}], "chains": [], "closed_bucket": "VeryLikelyOpen", "distance": 467, "geocodes": {"main": {"latitude": 55.864121, "longitude": -4.318764}, "roof": {"latitude": 55.864121, "longitude": -4.318764}}, "link": "/v3/places/50704149e4b06e5e717947ce", "location": {"address": "13 Elder St", "admin_region": "Scotland", "country": "GB", "cross_street": "", "formatted_address": "13 Elder St, Glasgow, G51 3DY", "locality": "Glasgow", "post_town": "Glasgow", "postcode": "G51 3DY"}, "name": "No 13 Cafe", "related_places": {}, "timezone": "Europe/London"}, {"fsq_id": "58cc2a421174200c2f08a5f4", "categories": [{"id": 13046, "name": "Ice Cream Parlor", "short_name": "Ice Cream", "plural_name": "Ice Cream Parlors", "icon": {"prefix": "https://ss3.4sqi.net/img/categories_v2/food/icecream_", "suffix": ".png"}}, {"id": 13065, "name": "Restaurant", "short_name": "Restaurant", "plural_name": "Restaurants", "icon": {"prefix": "https://ss3.4sqi.net/img/categories_v2/food/default_", "suffix": ".png"}}], "chains": [], "closed_bucket": "VeryLikelyOpen", "distance": 569, "geocodes": {"drop_off": {"latitude": 55.860351, "longitude": -4.30359}, "main": {"latitude": 55.860195, "longitude": -4.303637}, "roof": {"latitude": 55.860195, "longitude": -4.303637}}, "link": "/v3/places/58cc2a421174200c2f08a5f4", "location": {"address": "585 Govan Rd", "admin_region": "Scotland", "country": "GB", "cross_street": "", "formatted_address": "585 Govan Rd, Glasgow, G51 2AS", "locality": "Glasgow", "post_town": "Glasgow", "postcode": "G51 2AS"}, "name": "Harleys Ice Cream Parlour", "related_places": {}, "timezone": "Europe/London"}, {"fsq_id": "52504c67498e9e2eb8cbf9f3", "categories": [{"id": 13016, "name": "Lounge", "short_name": "Lounge", "plural_name": "Lounges", "icon": {"prefix": "https://ss3.4sqi.net/img/categories_v2/nightlife/default_", "suffix": ".png"}}, {"id": 13022, "name": "Sports Bar", "short_name": "Sports Bar", "plural_name": "Sports Bars", "icon": {"prefix": "https://ss3.4sqi.net/img/categories_v2/nightlife/sportsbar_", "suffix": ".png"}}], "chains": [], "closed_bucket": "VeryLikelyOpen", "distance": 754, "geocodes": {"main": {"latitude": 55.863373, "longitude": -4.313447}, "roof": {"latitude": 55.863373, "longitude": -4.313447}}, "link": "/v3/places/52504c67498e9e2eb8cbf9f3", "location": {"address": "803 Govan Rd", "admin_region": "Scotland", "country": "GB", "cross_street": "", "formatted_address": "803 Govan Rd, Govan, Glasgow City, G51 3DJ", "locality": "Govan", "post_town": "Glasgow", "postcode": "G51 3DJ", "region": "Glasgow City"}, "name": "Brechin Bar", "related_places": {}, "timezone": "Europe/London"}, {"fsq_id": "4dc6f85b52b1e8f9f7fa4354", "categories": [{"id": 13018, "name": "Pub", "short_name": "Pub", "plural_name": "Pubs", "icon": {"prefix": "https://ss3.4sqi.net/img/categories_v2/nightlife/pub_", "suffix": ".png"}}], "chains": [], "closed_bucket": "VeryLikelyOpen", "distance": 860, "geocodes": {"main": {"latitude": 55.870611, "longitude": -4.312167}, "roof": {"latitude": 55.870611, "longitude": -4.312167}}, "link": "/v3/places/4dc6f85b52b1e8f9f7fa4354", "location": {"address": "483 Dumbarton Rd", "admin_region": "Scotland", "country": "GB", "cross_street": "", "formatted_address": "483 Dumbarton Rd, Glasgow, Glasgow City, G11 6EJ", "locality": "Glasgow", "post_town": "Glasgow", "postcode": "G11 6EJ", "region": "Glasgow City"}, "name": "The Rosevale Tavern", "related_places": {}, "timezone": "Europe/London"}, {"fsq_id": "5deaade92361ea00081b554d", "categories": [{"id": 13377, "name": "Vegan and Vegetarian Restaurant", "short_name": "Vegan and Vegetarian Restaurant", "plural_name": "Vegan and Vegetarian Restaurants", "icon": {"prefix": "https://ss3.4sqi.net/img/categories_v2/food/vegetarian_", "suffix": ".png"}}], "chains": [], "closed_bucket": "VeryLikelyOpen", "distance": 865, "geocodes": {"drop_off": {"latitude": 55.870754, "longitude": -4.311508}, "main": {"latitude": 55.87086, "longitude": -4.311509}, "roof": {"latitude": 55.87086, "longitude": -4.311509}}, "link": "/v3/places/5deaade92361ea00081b554d", "location": {"address": "494 Dumbarton Rd", "admin_region": "Scotland", "country": "GB", "cross_street": "", "formatted_address": "494 Dumbarton Rd, Glasgow, Glasgow City, G11 6SL", "locality": "Glasgow", "post_town": "Glasgow", "postcode": "G11 6SL", "region": "Glasgow City"}, "name": "Suissi Vegan Kitchen", "related_places": {}, "timezone": "Europe/London"}, {"fsq_id": "606873ebf9f8281db6d0d7fb", "categories": [{"id": 13032, "name": "Cafe, Coffee, and Tea House", "short_name": "Cafe, Coffee, and Tea House", "plural_name": "Cafes, Coffee, and Tea Houses", "icon": {"prefix": "https://ss3.4sqi.net/img/categories_v2/food/coffeeshop_", "suffix": ".png"}}, {"id": 13379, "name": "Vietnamese Restaurant", "short_name": "Vietnamese", "plural_name": "Vietnamese Restaurants", "icon": {"prefix": "https://ss3.4sqi.net/img/categories_v2/food/vietnamese_", "suffix": ".png"}}], "chains": [], "closed_bucket": "LikelyOpen", "distance": 867, "geocodes": {"drop_off": {"latitude": 55.870789, "longitude": -4.308699}, "main": {"latitude": 55.870652, "longitude": -4.308698}, "roof": {"latitude": 55.870652, "longitude": -4.308698}}, "link": "/v3/places/606873ebf9f8281db6d0d7fb", "location": {"address": "401 Dumbarton Rd", "admin_region": "Scotland", "country": "GB", "cross_street": "", "formatted_address": "401 Dumbarton Rd, Glasgow, Glasgow City, G11 6BE", "locality": "Glasgow", "post_town": "Glasgow", "postcode": "G11 6BE", "region": "Glasgow City"}, "name": "Banh Mi & Tea", "related_places": {}, "timezone": "Europe/London"}, {"fsq_id": "5adf40c64acb196e9768faf4", "categories": [{"id": 13035, "name": "Coffee Shop", "short_name": "Coffee Shop", "plural_name": "Coffee Shops", "icon": {"prefix": "https://ss3.4sqi.net/img/categories_v2/food/coffeeshop_", "suffix": ".png"}}, {"id": 13065, "name": "Restaurant", "short_name": "Restaurant", "plural_name": "Restaurants", "icon": {"prefix": "https://ss3.4sqi.net/img/categories_v2/food/default_", "suffix": ".png"}}], "chains": [], "closed_bucket": "VeryLikelyOpen", "distance": 875, "geocodes": {"drop_off": {"latitude": 55.870719, "longitude": -4.314662}, "main": {"latitude": 55.870837, "longitude": -4.314664}, "roof": {"latitude": 55.870837, "longitude": -4.314664}}, "link": "/v3/places/5adf40c64acb196e9768faf4", "location": {"address": "540 Dumbarton Rd", "admin_region": "Scotland", "country": "GB", "cross_street": "", "formatted_address": "540 Dumbarton Rd, Glasgow, Glasgow City", "locality": "Glasgow", "post_town": "Glasgow", "region": "Glasgow City"}, "name": "Space Speciality Coffee House", "related_places": {}, "timezone": "Europe/London"}, {"fsq_id": "b97fc338db784f3afed623f4", "categories": [{"id": 13035, "name": "Coffee Shop", "short_name": "Coffee Shop", "plural_name": "Coffee Shops", "icon": {"prefix": "https://ss3.4sqi.net/img/categories_v2/food/coffeeshop_", "suffix": ".png"}}, {"id": 13065, "name": "Restaurant", "short_name": "Restaurant", "plural_name": "Restaurants", "icon": {"prefix": "https://ss3.4sqi.net/img/categories_v2/food/default_", "suffix": ".png"}}], "chains": [], "closed_bucket": "Unsure", "distance": 880, "geocodes": {"main": {"latitude": 55.870576, "longitude": -4.315532}, "roof": {"latitude": 55.870576, "longitude": -4.315532}}, "link": "/v3/places/b97fc338db784f3afed623f4", "location": {"address": "561 Dumbarton Rd, Partick", "country": "GB", "formatted_address": "561 Dumbarton Rd, Partick, Glasgow, Glasgow City", "locality": "Glasgow", "post_town": "Glasgow", "region": "Glasgow City"}, "name": "Dr Jimmy's", "related_places": {}, "timezone": "Europe/London"}, {"fsq_id": "4d1a69cbc5f5b1f7a197d336", "categories": [{"id": 13099, "name": "Chinese Restaurant", "short_name": "Chinese", "plural_name": "Chinese Restaurants", "icon": {"prefix": "https://ss3.4sqi.net/img/categories_v2/food/asian_", "suffix": ".png"}}], "chains": [], "closed_bucket": "VeryLikelyOpen", "distance": 890, "geocodes": {"main": {"latitude": 55.870916, "longitude": -4.315122}, "roof": {"latitude": 55.870916, "longitude": -4.315122}}, "link": "/v3/places/4d1a69cbc5f5b1f7a197d336", "location": {"address": "1B Apsley St", "admin_region": "Scotland", "country": "GB", "cross_street": "", "formatted_address": "1B Apsley St, Glasgow, Glasgow City, G11 7SZ", "locality": "Glasgow", "post_town": "Glasgow", "postcode": "G11 7SZ", "region": "Glasgow City"}, "name": "China Red", "related_places": {}, "timezone": "Europe/London"}, {"fsq_id": "57cb0ed5498ec51d0b10af25", "categories": [{"id": 13072, "name": "Asian Restaurant", "short_name": "Asian", "plural_name": "Asian Restaurants", "icon": {"prefix": "https://ss3.4sqi.net/img/categories_v2/food/asian_", "suffix": ".png"}}], "chains": [], "closed_bucket": "Unsure", "distance": 892, "geocodes": {"main": {"latitude": 55.871115, "longitude": -4.312569}, "roof": {"latitude": 55.871115, "longitude": -4.312569}}, "link": "/v3/places/57cb0ed5498ec51d0b10af25", "location": {"address": "16 Crow Rd", "admin_region": "Scotland", "country": "GB", "cross_street": "", "formatted_address": "16 Crow Rd, Glasgow, Glasgow City, G11 7RT", "locality": "Glasgow", "post_town": "Glasgow", "postcode": "G11 7RT", "region": "Glasgow City"}, "name": "The Best Curry", "related_places": {}, "timezone": "Europe/London"}, {"fsq_id": "52645b6411d2a03227a9752a", "categories": [{"id": 13199, "name": "Indian Restaurant", "short_name": "Indian", "plural_name": "Indian Restaurants", "icon": {"prefix": "https://ss3.4sqi.net/img/categories_v2/food/indian_", "suffix": ".png"}}], "chains": [], "closed_bucket": "LikelyOpen", "distance": 897, "geocodes": {"main": {"latitude": 55.870623, "longitude": -4.311957}, "roof": {"latitude": 55.870623, "longitude": -4.311957}}, "link": "/v3/places/52645b6411d2a03227a9752a", "location": {"address": "477 Dumbarton Rd", "admin_region": "Scotland", "country": "GB", "cross_street": "", "formatted_address": "477 Dumbarton Rd, Glasgow, G11 6EJ", "locality": "Glasgow", "post_town": "Glasgow", "postcode": "G11 6EJ"}, "name": "Bollywood Spice", "related_places": {}, "timezone": "Europe/London"}, {"fsq_id": "61ca1bfa080fc2113fb98fba", "categories": [{"id": 13003, "name": "Bar", "short_name": "Bar", "plural_name": "Bars", "icon": {"prefix": "https://ss3.4sqi.net/img/categories_v2/nightlife/pub_", "suffix": ".png"}}, {"id": 13299, "name": "Malay Restaurant", "short_name": "Malay", "plural_name": "Malay Restaurants", "icon": {"prefix": "https://ss3.4sqi.net/img/categories_v2/food/malaysian_", "suffix": ".png"}}], "chains": [], "closed_bucket": "LikelyOpen", "distance": 905, "geocodes": {"drop_off": {"latitude": 55.87071, "longitude": -4.315574}, "main": {"latitude": 55.870837, "longitude": -4.315575}, "roof": {"latitude": 55.870837, "longitude": -4.315575}}, "link": "/v3/places/61ca1bfa080fc2113fb98fba", "location": {"address": "566-568 Dumbarton Rd", "admin_region": "Scotland", "country": "GB", "cross_street": "", "formatted_address": "566-568 Dumbarton Rd, Glasgow, Glasgow City, G11 6RH", "locality": "Glasgow", "post_town": "Glasgow", "postcode": "G11 6RH", "region": "Glasgow City"}, "name": "Ga Ga Kitchen & Bar", "related_places": {}, "timezone": "Europe/London"}, {"fsq_id": "572ce8ef498ee9624b42882e", "categories": [{"id": 13099, "name": "Chinese Restaurant", "short_name": "Chinese", "plural_name": "Chinese Restaurants", "icon": {"prefix": "https://ss3.4sqi.net/img/categories_v2/food/asian_", "suffix": ".png"}}], "chains": [], "closed_bucket": "VeryLikelyOpen", "distance": 909, "geocodes": {"main": {"latitude": 55.87094, "longitude": -4.314702}, "roof": {"latitude": 55.87094, "longitude": -4.314702}}, "link": "/v3/places/572ce8ef498ee9624b42882e", "location": {"country": "GB", "cross_street": "", "formatted_address": ""}, "name": "Shangri-La", "related_places": {}, "timezone": "Europe/London"}, {"fsq_id": "c9ebc58cf03248fcce053173", "categories": [{"id": 13025, "name": "Wine Bar", "short_name": "Wine Bar", "plural_name": "Wine Bars", "icon": {"prefix": "https://ss3.4sqi.net/img/categories_v2/food/winery_", "suffix": ".png"}}], "chains": [], "closed_bucket": "LikelyOpen", "distance": 921, "geocodes": {"main": {"latitude": 55.870912, "longitude": -4.306006}, "roof": {"latitude": 55.870912, "longitude": -4.306006}}, "link": "/v3/places/c9ebc58cf03248fcce053173", "location": {"address": "317 Dumbarton Rd", "admin_region": "Scotland", "country": "GB", "formatted_address": "317 Dumbarton Rd, Glasgow, G11 6AL", "locality": "Glasgow", "post_town": "Glasgow", "postcode": "G11 6AL"}, "name": "Ettrick Bar", "related_places": {}, "timezone": "Europe/London"}, {"fsq_id": "4fc7b1c1e4b0a81931b9eb89", "categories": [{"id": 13099, "name": "Chinese Restaurant", "short_name": "Chinese", "plural_name": "Chinese Restaurants", "icon": {"prefix": "https://ss3.4sqi.net/img/categories_v2/food/asian_", "suffix": ".png"}}], "chains": [], "closed_bucket": "VeryLikelyOpen", "distance": 936, "geocodes": {"main": {"latitude": 55.871001, "longitude": -4.316387}, "roof": {"latitude": 55.871001, "longitude": -4.316387}}, "link": "/v3/places/4fc7b1c1e4b0a81931b9eb89", "location": {"address": "4 Exeter Dr", "admin_region": "Scotland", "country": "GB", "cross_street": "", "formatted_address": "4 Exeter Dr, Glasgow, G11 7UX", "locality": "Glasgow", "post_town": "Glasgow", "postcode": "G11 7UX"}, "name": "Ruby Chinese Takeaway", "related_places": {}, "timezone": "Europe/London"}, {"fsq_id": "4dc52632c65b89d3ca6613c5", "categories": [{"id": 13034, "name": "Caf\u00e9", "short_name": "Caf\u00e9", "plural_name": "Caf\u00e9s", "icon": {"prefix": "https://ss3.4sqi.net/img/categories_v2/food/cafe_", "suffix": ".png"}}, {"id": 13035, "name": "Coffee Shop", "short_name": "Coffee Shop", "plural_name": "Coffee Shops", "icon": {"prefix": "https://ss3.4sqi.net/img/categories_v2/food/coffeeshop_", "suffix": ".png"}}, {"id": 13065, "name": "Restaurant", "short_name": "Restaurant", "plural_name": "Restaurants", "icon": {"prefix": "https://ss3.4sqi.net/img/categories_v2/food/default_", "suffix": ".png"}}], "chains": [], "closed_bucket": "LikelyOpen", "distance": 949, "geocodes": {"main": {"latitude": 55.871124, "longitude": -4.305978}, "roof": {"latitude": 55.871124, "longitude": -4.305978}}, "link": "/v3/places/4dc52632c65b89d3ca6613c5", "location": {"address": "9 Gardner St", "admin_region": "Scotland", "country": "GB", "cross_street": "", "formatted_address": "9 Gardner St, Glasgow, Glasgow City, G11 5NR", "locality": "Glasgow", "post_town": "Glasgow", "postcode": "G11 5NR", "region": "Glasgow City"}, "name": "Tea Garden", "related_places": {}, "timezone": "Europe/London"}, {"fsq_id": "88c9be1f92544fa60b77c200", "categories": [{"id": 13199, "name": "Indian Restaurant", "short_name": "Indian", "plural_name": "Indian Restaurants", "icon": {"prefix": "https://ss3.4sqi.net/img/categories_v2/food/indian_", "suffix": ".png"}}, {"id": 13265, "name": "Japanese Curry Restaurant", "short_name": "Japanese Curry", "plural_name": "Japanese Curry Restaurants", "icon": {"prefix": "https://ss3.4sqi.net/img/categories_v2/food/default_", "suffix": ".png"}}], "chains": [], "closed_bucket": "LikelyOpen", "distance": 951, "geocodes": {"drop_off": {"latitude": 55.871598, "longitude": -4.313029}, "main": {"latitude": 55.871498, "longitude": -4.313247}, "roof": {"latitude": 55.871498, "longitude": -4.313247}}, "link": "/v3/places/88c9be1f92544fa60b77c200", "location": {"address": "23 Crow Rd", "admin_region": "Scotland", "country": "GB", "formatted_address": "23 Crow Rd, Glasgow, G11 7RT", "locality": "Glasgow", "post_town": "Glasgow", "postcode": "G11 7RT"}, "name": "Harlequin Restaurants", "related_places": {}, "timezone": "Europe/London"}, {"fsq_id": "6162cbbce3eba6051865dde8", "categories": [{"id": 13001, "name": "Bagel Shop", "short_name": "Bagels", "plural_name": "Bagel Shops", "icon": {"prefix": "https://ss3.4sqi.net/img/categories_v2/food/bagels_", "suffix": ".png"}}, {"id": 13145, "name": "Fast Food Restaurant", "short_name": "Fast Food", "plural_name": "Fast Food Restaurants", "icon": {"prefix": "https://ss3.4sqi.net/img/categories_v2/food/fastfood_", "suffix": ".png"}}], "chains": [], "closed_bucket": "Unsure", "distance": 956, "geocodes": {"drop_off": {"latitude": 55.870818, "longitude": -4.305165}, "main": {"latitude": 55.87096, "longitude": -4.305166}, "roof": {"latitude": 55.87096, "longitude": -4.305166}}, "link": "/v3/places/6162cbbce3eba6051865dde8", "location": {"address": "292 Dumbarton Rd Patrick", "admin_region": "Scotland", "country": "GB", "cross_street": "", "formatted_address": "292 Dumbarton Rd Patrick, Glasgow, Glasgow City, G11 6TD", "locality": "Glasgow", "post_town": "Glasgow", "postcode": "G11 6TD", "region": "Glasgow City"}, "name": "Brawsome Bagels", "related_places": {}, "timezone": "Europe/London"}, {"fsq_id": "a823b450ff204eb660390133", "categories": [{"id": 13032, "name": "Cafe, Coffee, and Tea House", "short_name": "Cafe, Coffee, and Tea House", "plural_name": "Cafes, Coffee, and Tea Houses", "icon": {"prefix": "https://ss3.4sqi.net/img/categories_v2/food/coffeeshop_", "suffix": ".png"}}, {"id": 13145, "name": "Fast Food Restaurant", "short_name": "Fast Food", "plural_name": "Fast Food Restaurants", "icon": {"prefix": "https://ss3.4sqi.net/img/categories_v2/food/fastfood_", "suffix": ".png"}}, {"id": 13199, "name": "Indian Restaurant", "short_name": "Indian", "plural_name": "Indian Restaurants", "icon": {"prefix": "https://ss3.4sqi.net/img/categories_v2/food/indian_", "suffix": ".png"}}], "chains": [], "closed_bucket": "LikelyOpen", "distance": 591, "geocodes": {"main": {"latitude": 55.860158, "longitude": -4.303356}, "roof": {"latitude": 55.860158, "longitude": -4.303356}}, "link": "/v3/places/a823b450ff204eb660390133", "location": {"address": "644 Govan Rd", "admin_region": "Scotland", "country": "GB", "formatted_address": "644 Govan Rd, Glasgow, G51 2AQ", "locality": "Glasgow", "post_town": "Glasgow", "postcode": "G51 2AQ"}, "name": "New Cafe India All in One", "related_places": {}}, {"fsq_id": "7be8a7e21e234bd47f983dbb", "categories": [{"id": 13003, "name": "Bar", "short_name": "Bar", "plural_name": "Bars", "icon": {"prefix": "https://ss3.4sqi.net/img/categories_v2/nightlife/pub_", "suffix": ".png"}}, {"id": 13034, "name": "Caf\u00e9", "short_name": "Caf\u00e9", "plural_name": "Caf\u00e9s", "icon": {"prefix": "https://ss3.4sqi.net/img/categories_v2/food/cafe_", "suffix": ".png"}}, {"id": 13065, "name": "Restaurant", "short_name": "Restaurant", "plural_name": "Restaurants", "icon": {"prefix": "https://ss3.4sqi.net/img/categories_v2/food/default_", "suffix": ".png"}}], "chains": [], "closed_bucket": "LikelyOpen", "distance": 762, "geocodes": {"drop_off": {"latitude": 55.864326, "longitude": -4.29948}, "main": {"latitude": 55.86444, "longitude": -4.299424}, "roof": {"latitude": 55.86444, "longitude": -4.299424}}, "link": "/v3/places/7be8a7e21e234bd47f983dbb", "location": {"admin_region": "Scotland", "country": "GB", "formatted_address": "Glasgow", "locality": "Glasgow", "post_town": "Glasgow"}, "name": "SWG3 Poetry club", "related_places": {}}, {"fsq_id": "306a3784faf44b5dd2b669a3", "categories": [{"id": 13035, "name": "Coffee Shop", "short_name": "Coffee Shop", "plural_name": "Coffee Shops", "icon": {"prefix": "https://ss3.4sqi.net/img/categories_v2/food/coffeeshop_", "suffix": ".png"}}, {"id": 13303, "name": "Mexican Restaurant", "short_name": "Mexican", "plural_name": "Mexican Restaurants", "icon": {"prefix": "https://ss3.4sqi.net/img/categories_v2/food/mexican_", "suffix": ".png"}}], "chains": [], "closed_bucket": "Unsure", "distance": 780, "geocodes": {"main": {"latitude": 55.869961, "longitude": -4.309728}, "roof": {"latitude": 55.869961, "longitude": -4.309728}}, "link": "/v3/places/306a3784faf44b5dd2b669a3", "location": {"address": "Merkland Ct, Partick", "admin_region": "Scotland", "country": "GB", "formatted_address": "Merkland Ct, Partick, Glasgow, G11 6BU", "locality": "Glasgow", "post_town": "Glasgow", "postcode": "G11 6BU"}, "name": "Bean Me Up Partick", "related_places": {}}, {"fsq_id": "b1b5b9c8926c4a98ef1086c1", "categories": [{"id": 12097, "name": "Social Club", "short_name": "Social Club", "plural_name": "Social Clubs", "icon": {"prefix": "https://ss3.4sqi.net/img/categories_v2/building/default_", "suffix": ".png"}}, {"id": 13065, "name": "Restaurant", "short_name": "Restaurant", "plural_name": "Restaurants", "icon": {"prefix": "https://ss3.4sqi.net/img/categories_v2/food/default_", "suffix": ".png"}}], "chains": [], "closed_bucket": "LikelyOpen", "distance": 879, "geocodes": {"main": {"latitude": 55.859851, "longitude": -4.324308}, "roof": {"latitude": 55.859851, "longitude": -4.324308}}, "link": "/v3/places/b1b5b9c8926c4a98ef1086c1", "location": {"address": "211 Crossloan Rd", "admin_region": "Scotland", "country": "GB", "formatted_address": "211 Crossloan Rd, Glasgow", "locality": "Glasgow", "post_town": "Glasgow"}, "name": "Fairfield Club Govan", "related_places": {}}], "context": {"geo_bounds": {"circle": {"center": {"latitude": 55.863, "longitude": -4.311378}, "radius": 1000}}}}