{"results": [{"fsq_id": "4bfcc91c4cf820a1e390ebf4", "categories": [{"id": 13236, "name": "Italian Restaurant", "short_name": "Italian", "plural_name": "Italian Restaurants", "icon": {"prefix": "https://ss3.4sqi.net/img/categories_v2/food/italian_", "suffix": ".png"}}], "chains": [], "closed_bucket": "LikelyOpen", "distance": 436, "geocodes": {"main": {"latitude": 55.827133, "longitude": -4.266318}, "roof": {"latitude": 55.827133, "longitude": -4.266318}}, "link": "/v3/places/4bfcc91c4cf820a1e390ebf4", "location": {"address": "55 Battlefield Rd", "admin_region": "Scotland", "country": "GB", "formatted_address": "55 Battlefield Rd, Glasgow, G42 9JL", "locality": "Glasgow", "post_town": "Glasgow", "postcode": "G42 9JL"}, "name": "Battlefield Rest", "related_places": {}, "timezone": "Europe/London"}, {"fsq_id": "5af6b5d1c876c8002cdb8a28", "categories": [{"id": 13035, "name": "Coffee Shop", "short_name": "Coffee Shop", "plural_name": "Coffee Shops", "icon": {"prefix": "https://ss3.4sqi.net/img/categories_v2/food/coffeeshop_", "suffix": ".png"}}, {"id": 13065, "name": "Restaurant", "short_name": "Restaurant", "plural_name": "Restaurants", "icon": {"prefix": "https://ss3.4sqi.net/img/categories_v2/food/default_", "suffix": ".png"}}], "chains": [], "closed_bucket": "LikelyOpen", "distance": 561, "geocodes": {"drop_off": {"latitude": 55.827276, "longitude": -4.268118}, "main": {"latitude": 55.827134, "longitude": -4.268139}, "roof": {"latitude": 55.827134, "longitude": -4.268139}}, "link": "/v3/places/5af6b5d1c876c8002cdb8a28", "location": {"address": "50 Battlefield Rd", "admin_region": "Scotland", "country": "GB", "cross_street": "", "formatted_address": "50 Battlefield Rd, Glasgow, Glasgow City, G42 9QF", "locality": "Glasgow", "post_town": "Glasgow", "postcode": "G42 9QF", "region": "Glasgow City"}, "name": "Grain and Grind", "related_places": {}, "timezone": "Europe/London"}, {"fsq_id": "4bae5929f964a5201ea63be3", "categories": [{"id": 13003, "name": "Bar", "short_name": "Bar", "plural_name": "Bars", "icon": {"prefix": "https://ss3.4sqi.net/img/categories_v2/nightlife/pub_", "suffix": ".png"}}, {"id": 13057, "name": "Gastropub", "short_name": "Gastropub", "plural_name": "Gastropubs", "icon": {"prefix": "https://ss3.4sqi.net/img/categories_v2/food/gastropub_", "suffix": ".png"}}], "chains": [], "closed_bucket": "LikelyOpen", "distance": 428, "geocodes": {"main": {"latitude": 55.823189, "longitude": -4.25881}, "roof": {"latitude": 55.823189, "longitude": -4.25881}}, "link": "/v3/places/4bae5929f964a5201ea63be3", "location": {"address": "1153-1155 Cathcart Rd", "admin_region": "Scotland", "country": "GB", "formatted_address": "1153-1155 Cathcart Rd, Glasgow, Glasgow City, G42 9HB", "locality": "Glasgow", "post_town": "Glasgow", "postcode": "G42 9HB", "region": "Glasgow City"}, "name": "Clockwork Beer Co", "related_places": {}, "timezone": "Europe/London"}, {"fsq_id": "4ba55019f964a5207af938e3", "categories": [{"id": 13018, "name": "Pub", "short_name": "Pub", "plural_name": "Pubs", "icon": {"prefix": "https://ss3.4sqi.net/img/categories_v2/nightlife/pub_", "suffix": ".png"}}, {"id": 13065, "name": "Restaurant", "short_name": "Restaurant", "plural_name": "Restaurants", "icon": {"prefix": "https://ss3.4sqi.net/img/categories_v2/food/default_", "suffix": ".png"}}], "chains": [], "closed_bucket": "Unsure", "distance": 775, "geocodes": {"main": {"latitude": 55.827677, "longitude": -4.271553}, "roof": {"latitude": 55.827677, "longitude": -4.271553}}, "link": "/v3/places/4ba55019f964a5207af938e3", "location": {"address": "16 Algie St", "admin_region": "Scotland", "country": "GB", "formatted_address": "16 Algie St, Glasgow, Glasgow City, G41 3DJ", "locality": "Glasgow", "post_town": "Glasgow", "postcode": "G41 3DJ", "region": "Glasgow City"}, "name": "Church on the Hill", "related_places": {}, "timezone": "Europe/London"}, {"fsq_id": "4e36e8adb61cddd1cd4cd4c0", "categories": [{"id": 13199, "name": "Indian Restaurant", "short_name": "Indian", "plural_name": "Indian Restaurants", "icon": {"prefix": "https://ss3.4sqi.net/img/categories_v2/food/indian_", "suffix": ".png"}}], "chains": [], "closed_bucket": "VeryLikelyOpen", "distance": 283, "geocodes": {"main": {"latitude": 55.824909, "longitude": -4.261908}, "roof": {"latitude": 55.824909, "longitude": -4.261908}}, "link": "/v3/places/4e36e8adb61cddd1cd4cd4c0", "location": {"address": "250 Battlefield Rd", "admin_region": "Scotland", "country": "GB", "formatted_address": "250 Battlefield Rd, Glasgow, G42 9HU", "locality": "Glasgow", "post_town": "Glasgow", "postcode": "G42 9HU"}, "name": "Alishan Tandoori", "related_places": {}, "timezone": "Europe/London"}, {"fsq_id": "4bc74c7d6501c9b6b0243e29", "categories": [{"id": 13065, "name": "Restaurant", "short_name": "Restaurant", "plural_name": "Restaurants", "icon": {"prefix": "https://ss3.4sqi.net/img/categories_v2/food/default_", "suffix": ".png"}}], "chains": [], "closed_bucket": "LikelyOpen", "distance": 905, "geocodes": {"main": {"latitude": 55.828558, "longitude": -4.273646}, "roof": {"latitude": 55.828558, "longitude": -4.273646}}, "link": "/v3/places/4bc74c7d6501c9b6b0243e29", "location": {"address": "2-4 Camphill Ave", "admin_region": "Scotland", "country": "GB", "cross_street": "", "formatted_address": "2-4 Camphill Ave, Glasgow, Glasgow City, G41 3AY", "locality": "Glasgow", "post_town": "Glasgow", "postcode": "G41 3AY", "region": "Glasgow City"}, "name": "The Ivory Hotel", "related_places": {}, "timezone": "Europe/London"}, {"fsq_id": "4f3e3169e4b0500b68105de7", "categories": [{"id": 11056, "name": "Food and Beverage Service", "short_name": "Food Service", "plural_name": "Food and Beverage Services", "icon": {"prefix": "https://ss3.4sqi.net/img/categories_v2/shops/foodanddrink_", "suffix": ".png"}}, {"id": 13040, "name": "Dessert Shop", "short_name": "Desserts", "plural_name": "Dessert Shops", "icon": {"prefix": "https://ss3.4sqi.net/img/categories_v2/food/dessert_", "suffix": ".png"}}, {"id": 13065, "name": "Restaurant", "short_name": "Restaurant", "plural_name": "Restaurants", "icon": {"prefix": "https://ss3.4sqi.net/img/categories_v2/food/default_", "suffix": ".png"}}], "chains": [], "closed_bucket": "VeryLikelyOpen", "distance": 7, "geocodes": {"main": {"latitude": 55.827031, "longitude": -4.258891}, "roof": {"latitude": 55.827031, "longitude": -4.258891}}, "link": "/v3/places/4f3e3169e4b0500b68105de7", "location": {"address": "1032 Cathcart Rd", "admin_region": "Scotland", "country": "GB", "cross_street": "", "formatted_address": "1032 Cathcart Rd, Glasgow, G42 9XW", "locality": "Glasgow", "post_town": "Glasgow", "postcode": "G42 9XW"}, "name": "Dream Cakes", "related_places": {}, "timezone": "Europe/London"}, {"fsq_id": "4e7223521495e4ca142bfff6", "categories": [{"id": 13034, "name": "Caf\u00e9", "short_name": "Caf\u00e9", "plural_name": "Caf\u00e9s", "icon": {"prefix": "https://ss3.4sqi.net/img/categories_v2/food/cafe_", "suffix": ".png"}}, {"id": 13035, "name": "Coffee Shop", "short_name": "Coffee Shop", "plural_name": "Coffee Shops", "icon": {"prefix": "https://ss3.4sqi.net/img/categories_v2/food/coffeeshop_", "suffix": ".png"}}, {"id": 13145, "name": "Fast Food Restaurant", "short_name": "Fast Food", "plural_name": "Fast Food Restaurants", "icon": {"prefix": "https://ss3.4sqi.net/img/categories_v2/food/fastfood_", "suffix": ".png"}}], "chains": [], "closed_bucket": "LikelyOpen", "distance": 10, "geocodes": {"main": {"latitude": 55.82711, "longitude": -4.259349}, "roof": {"latitude": 55.82711, "longitude": -4.259349}}, "link": "/v3/places/4e7223521495e4ca142bfff6", "location": {"address": "10 Clincart Rd", "admin_region": "Scotland", "country": "GB", "formatted_address": "10 Clincart Rd, Glasgow, G42 9DJ", "locality": "Glasgow", "post_town": "Glasgow", "postcode": "G42 9DJ"}, "name": "Loafers", "related_places": {}, "timezone": "Europe/London"}, {"fsq_id": "47ebfd3e88a54e79d7a48e40", "categories": [{"id": 13051, "name": "Fish and Chips Shop", "short_name": "Fish and Chips Shop", "plural_name": "Fish and Chips Shops", "icon": {"prefix": "https://ss3.4sqi.net/img/categories_v2/food/fishandchips_", "suffix": ".png"}}], "chains": [], "closed_bucket": "Unsure", "distance": 16, "geocodes": {"main": {"latitude": 55.827389, "longitude": -4.259077}, "roof": {"latitude": 55.827389, "longitude": -4.259077}}, "link": "/v3/places/47ebfd3e88a54e79d7a48e40", "location": {"address": "1027 Cathcart Rd", "admin_region": "Scotland", "country": "GB", "formatted_address": "1027 Cathcart Rd, Glasgow, G42 9XJ", "locality": "Glasgow", "post_town": "Glasgow", "postcode": "G42 9XJ"}, "name": "Papa G", "related_places": {}, "timezone": "Europe/London"}, {"fsq_id": "6209551803de4c178085244b", "categories": [{"id": 13003, "name": "Bar", "short_name": "Bar", "plural_name": "Bars", "icon": {"prefix": "https://ss3.4sqi.net/img/categories_v2/nightlife/pub_", "suffix": ".png"}}, {"id": 13068, "name": "American Restaurant", "short_name": "American", "plural_name": "American Restaurants", "icon": {"prefix": "https://ss3.4sqi.net/img/categories_v2/food/default_", "suffix": ".png"}}], "chains": [], "closed_bucket": "Unsure", "distance": 17, "geocodes": {"drop_off": {"latitude": 55.827326, "longitude": -4.25921}, "main": {"latitude": 55.827438, "longitude": -4.259149}, "roof": {"latitude": 55.827438, "longitude": -4.259149}}, "link": "/v3/places/6209551803de4c178085244b", "location": {"address": "1021 Cathcart Rd", "admin_region": "Scotland", "country": "GB", "cross_street": "", "formatted_address": "1021 Cathcart Rd, Glasgow, Glasgow City, G42 9XJ", "locality": "Glasgow", "post_town": "Glasgow", "postcode": "G42 9XJ", "region": "Glasgow City"}, "name": "Buck\u2019s Bar", "related_places": {}, "timezone": "Europe/London"}, {"fsq_id": "4e554e5318a8e7aa2cd8614f", "categories": [{"id": 13145, "name": "Fast Food Restaurant", "short_name": "Fast Food", "plural_name": "Fast Food Restaurants", "icon": {"prefix": "https://ss3.4sqi.net/img/categories_v2/food/fastfood_", "suffix": ".png"}}], "chains": [], "closed_bucket": "VeryLikelyOpen", "distance": 24, "geocodes": {"main": {"latitude": 55.826976, "longitude": -4.258925}, "roof": {"latitude": 55.826976, "longitude": -4.258925}}, "link": "/v3/places/4e554e5318a8e7aa2cd8614f", "location": {"country": "GB", "cross_street": "", "formatted_address": ""}, "name": "Papa-G's Fish and Chips", "related_places": {}, "timezone": "Europe/London"}, {"fsq_id": "5cdff7ad6fd626002c3f880b", "categories": [{"id": 13034, "name": "Caf\u00e9", "short_name": "Caf\u00e9", "plural_name": "Caf\u00e9s", "icon": {"prefix": "https://ss3.4sqi.net/img/categories_v2/food/cafe_", "suffix": ".png"}}, {"id": 13035, "name": "Coffee Shop", "short_name": "Coffee Shop", "plural_name": "Coffee Shops", "icon": {"prefix": "https://ss3.4sqi.net/img/categories_v2/food/coffeeshop_", "suffix": ".png"}}, {"id": 13065, "name": "Restaurant", "short_name": "Restaurant", "plural_name": "Restaurants", "icon": {"prefix": "https://ss3.4sqi.net/img/categories_v2/food/default_", "suffix": ".png"}}], "chains": [], "closed_bucket": "LikelyOpen", "distance": 33, "geocodes": {"drop_off": {"latitude": 55.827754, "longitude": -4.259384}, "main": {"latitude": 55.827753, "longitude": -4.259159}, "roof": {"latitude": 55.827753, "longitude": -4.259159}}, "link": "/v3/places/5cdff7ad6fd626002c3f880b", "location": {"address": "1007 Cathcart Rd", "admin_region": "Scotland", "country": "GB", "cross_street": "", "formatted_address": "1007 Cathcart Rd, Glasgow, Glasgow City, G42 9XJ", "locality": "Glasgow", "post_town": "Glasgow", "postcode": "G42 9XJ", "region": "Glasgow City"}, "name": "Cafe Salmagundi", "related_places": {}, "timezone": "Europe/London"}, {"fsq_id": "d761d7e36d4242c93845adc4", "categories": [{"id": 13236, "name": "Italian Restaurant", "short_name": "Italian", "plural_name": "Italian Restaurants", "icon": {"prefix": "https://ss3.4sqi.net/img/categories_v2/food/italian_", "suffix": ".png"}}], "chains": [], "closed_bucket": "LikelyOpen", "distance": 37, "geocodes": {"drop_off": {"latitude": 55.827297, "longitude": -4.259157}, "main": {"latitude": 55.826952, "longitude": -4.259344}, "roof": {"latitude": 55.826952, "longitude": -4.259344}}, "link": "/v3/places/d761d7e36d4242c93845adc4", "location": {"address": "1021 Cathcart Rd", "admin_region": "Scotland", "country": "GB", "formatted_address": "1021 Cathcart Rd, Glasgow, Glasgow City, G42 9XJ", "locality": "Glasgow", "post_town": "Glasgow", "postcode": "G42 9XJ", "region": "Glasgow City"}, "name": "Meatballs Master", "related_places": {}, "timezone": "Europe/London"}, {"fsq_id": "4e9adaf28231878c159ca551", "categories": [{"id": 13145, "name": "Fast Food Restaurant", "short_name": "Fast Food", "plural_name": "Fast Food Restaurants", "icon": {"prefix": "https://ss3.4sqi.net/img/categories_v2/food/fastfood_", "suffix": ".png"}}, {"id": 13334, "name": "Sandwich Spot", "short_name": "Sandwich Spot", "plural_name": "Sandwich Spots", "icon": {"prefix": "https://ss3.4sqi.net/img/categories_v2/food/deli_", "suffix": ".png"}}], "chains": [], "closed_bucket": "VeryLikelyOpen", "distance": 46, "geocodes": {"main": {"latitude": 55.827596, "longitude": -4.259154}, "roof": {"latitude": 55.827596, "longitude": -4.259154}}, "link": "/v3/places/4e9adaf28231878c159ca551", "location": {"address": "1009 Cathcart Rd", "admin_region": "Scotland", "country": "GB", "cross_street": "", "formatted_address": "1009 Cathcart Rd, Glasgow, Glasgow City, G42 9XJ", "locality": "Glasgow", "post_town": "Glasgow", "postcode": "G42 9XJ", "region": "Glasgow City"}, "name": "New York Jacks", "related_places": {}, "timezone": "Europe/London"}, {"fsq_id": "4c866fa374d7b60c0809a4d8", "categories": [{"id": 13199, "name": "Indian Restaurant", "short_name": "Indian", "plural_name": "Indian Restaurants", "icon": {"prefix": "https://ss3.4sqi.net/img/categories_v2/food/indian_", "suffix": ".png"}}], "chains": [], "closed_bucket": "VeryLikelyOpen", "distance": 161, "geocodes": {"main": {"latitude": 55.826144, "longitude": -4.257814}, "roof": {"latitude": 55.826144, "longitude": -4.257814}}, "link": "/v3/places/4c866fa374d7b60c0809a4d8", "location": {"address": "1096 Cathcart Rd", "admin_region": "Scotland", "country": "GB", "cross_street": "at Bolton Dr.", "formatted_address": "1096 Cathcart Rd (at Bolton Dr.), Glasgow, G42 9XW", "locality": "Glasgow", "post_town": "Glasgow", "postcode": "G42 9XW"}, "name": "Shezan Tandoori", "related_places": {}, "timezone": "Europe/London"}, {"fsq_id": "5aa2d6046c08d133ac75c700", "categories": [{"id": 13025, "name": "Wine Bar", "short_name": "Wine Bar", "plural_name": "Wine Bars", "icon": {"prefix": "https://ss3.4sqi.net/img/categories_v2/food/winery_", "suffix": ".png"}}, {"id": 13031, "name": "Burger Joint", "short_name": "Burgers", "plural_name": "Burger Joints", "icon": {"prefix": "https://ss3.4sqi.net/img/categories_v2/food/burger_", "suffix": ".png"}}, {"id": 13068, "name": "American Restaurant", "short_name": "American", "plural_name": "American Restaurants", "icon": {"prefix": "https://ss3.4sqi.net/img/categories_v2/food/default_", "suffix": ".png"}}], "chains": [], "closed_bucket": "VeryLikelyOpen", "distance": 188, "geocodes": {"drop_off": {"latitude": 55.826111, "longitude": -4.257507}, "main": {"latitude": 55.825883, "longitude": -4.257771}, "roof": {"latitude": 55.825883, "longitude": -4.257771}}, "link": "/v3/places/5aa2d6046c08d133ac75c700", "location": {"address": "1102 Cathcart Rd", "admin_region": "Scotland", "country": "GB", "cross_street": "", "formatted_address": "1102 Cathcart Rd, Glasgow, Glasgow City, G42 9EG", "locality": "Glasgow", "post_town": "Glasgow", "postcode": "G42 9EG", "region": "Glasgow City"}, "name": "Hoagies", "related_places": {}, "timezone": "Europe/London"}, {"fsq_id": "4decae94b0fb8293f80c752a", "categories": [{"id": 13049, "name": "Diner", "short_name": "Diner", "plural_name": "Diners", "icon": {"prefix": "https://ss3.4sqi.net/img/categories_v2/food/diner_", "suffix": ".png"}}], "chains": [], "closed_bucket": "LikelyOpen", "distance": 293, "geocodes": {"drop_off": {"latitude": 55.825061, "longitude": -4.257016}, "main": {"latitude": 55.825093, "longitude": -4.256837}, "roof": {"latitude": 55.825093, "longitude": -4.256837}}, "link": "/v3/places/4decae94b0fb8293f80c752a", "location": {"address": "19 Carmunnock Rd", "admin_region": "Scotland", "country": "GB", "cross_street": "", "formatted_address": "19 Carmunnock Rd, Glasgow, Glasgow City", "locality": "Glasgow", "post_town": "Glasgow", "region": "Glasgow City"}, "name": "Cafe Amalfi", "related_places": {}, "timezone": "Europe/London"}, {"fsq_id": "4c76b8d3f247370434d363eb", "categories": [{"id": 13003, "name": "Bar", "short_name": "Bar", "plural_name": "Bars", "icon": {"prefix": "https://ss3.4sqi.net/img/categories_v2/nightlife/pub_", "suffix": ".png"}}], "chains": [], "closed_bucket": "LikelyOpen", "distance": 324, "geocodes": {"main": {"latitude": 55.824343, "longitude": -4.259825}, "roof": {"latitude": 55.824343, "longitude": -4.259825}}, "link": "/v3/places/4c76b8d3f247370434d363eb", "location": {"address": "318 Battlefield Rd", "admin_region": "Scotland", "country": "GB", "cross_street": "", "formatted_address": "318 Battlefield Rd, Glasgow, G42 9JD", "locality": "Glasgow", "post_town": "Glasgow", "postcode": "G42 9JD"}, "name": "The Florida Park", "related_places": {}, "timezone": "Europe/London"}, {"fsq_id": "61222929076ec67cbd687f38", "categories": [{"id": 13035, "name": "Coffee Shop", "short_name": "Coffee Shop", "plural_name": "Coffee Shops", "icon": {"prefix": "https://ss3.4sqi.net/img/categories_v2/food/coffeeshop_", "suffix": ".png"}}, {"id": 13065, "name": "Restaurant", "short_name": "Restaurant", "plural_name": "Restaurants", "icon": {"prefix": "https://ss3.4sqi.net/img/categories_v2/food/default_", "suffix": ".png"}}], "chains": [], "closed_bucket": "Unsure", "distance": 370, "geocodes": {"main": {"latitude": 55.82576, "longitude": -4.264526}, "roof": {"latitude": 55.82576, "longitude": -4.264526}}, "link": "/v3/places/61222929076ec67cbd687f38", "location": {"address": "186 Battlefield Rd", "admin_region": "Scotland", "country": "GB", "cross_street": "", "formatted_address": "186 Battlefield Rd, Glasgow, Glasgow City, G42 9JT", "locality": "Glasgow", "post_town": "Glasgow", "postcode": "G42 9JT", "region": "Glasgow City"}, "name": "Common Ground", "related_places": {}, "timezone": "Europe/London"}, {"fsq_id": "8f12beccb76340b1604a9d3c", "categories": [{"id": 13236, "name": "Italian Restaurant", "short_name": "Italian", "plural_name": "Italian Restaurants", "icon": {"prefix": "https://ss3.4sqi.net/img/categories_v2/food/italian_", "suffix": ".png"}}], "chains": [], "closed_bucket": "VeryLikelyOpen", "distance": 380, "geocodes": {"main": {"latitude": 55.825451, "longitude": -4.264411}, "roof": {"latitude": 55.825451, "longitude": -4.264411}}, "link": "/v3/places/8f12beccb76340b1604a9d3c", "location": {"address": "9 Lochleven Rd", "admin_region": "Scotland", "country": "GB", "formatted_address": "9 Lochleven Rd, Glasgow, G42 9JU", "locality": "Glasgow", "post_town": "Glasgow", "postcode": "G42 9JU"}, "name": "Trevi", "related_places": {}, "timezone": "Europe/London"}, {"fsq_id": "8f041b9cdcc646e6b0864769", "categories": [{"id": 13051, "name": "Fish and Chips Shop", "short_name": "Fish and Chips Shop", "plural_name": "Fish and Chips Shops", "icon": {"prefix": "https://ss3.4sqi.net/img/categories_v2/food/fishandchips_", "suffix": ".png"}}, {"id": 13145, "name": "Fast Food Restaurant", "short_name": "Fast Food", "plural_name": "Fast Food Restaurants", "icon": {"prefix": "https://ss3.4sqi.net/img/categories_v2/food/fastfood_", "suffix": ".png"}}], "chains": [], "closed_bucket": "Unsure", "distance": 385, "geocodes": {"main": {"latitude": 55.826149, "longitude": -4.265098}, "roof": {"latitude": 55.826149, "longitude": -4.265098}}, "link": "/v3/places/8f041b9cdcc646e6b0864769", "location": {"address": "118 Battlefield Rd", "admin_region": "Scotland", "country": "GB", "formatted_address": "118 Battlefield Rd, Glasgow, G42 9JT", "locality": "Glasgow", "post_town": "Glasgow", "postcode": "G42 9JT"}, "name": "Mr V's Fast Food", "related_places": {}, "timezone": "Europe/London"}, {"fsq_id": "50030121e4b06d50188b0040", "categories": [{"id": 13051, "name": "Fish and Chips Shop", "short_name": "Fish and Chips Shop", "plural_name": "Fish and Chips Shops", "icon": {"prefix": "https://ss3.4sqi.net/img/categories_v2/food/fishandchips_", "suffix": ".png"}}, {"id": 13145, "name": "Fast Food Restaurant", "short_name": "Fast Food", "plural_name": "Fast Food Restaurants", "icon": {"prefix": "https://ss3.4sqi.net/img/categories_v2/food/fastfood_", "suffix": ".png"}}], "chains": [], "closed_bucket": "LikelyOpen", "distance": 413, "geocodes": {"drop_off": {"latitude": 55.826905, "longitude": -4.265825}, "main": {"latitude": 55.826732, "longitude": -4.265956}, "roof": {"latitude": 55.826732, "longitude": -4.265956}}, "link": "/v3/places/50030121e4b06d50188b0040", "location": {"address": "Battlefield Rd", "admin_region": "Scotland", "country": "GB", "cross_street": "", "formatted_address": "Battlefield Rd, Glasgow, Glasgow City", "locality": "Glasgow", "post_town": "Glasgow", "region": "Glasgow City"}, "name": "Mr V's", "related_places": {}, "timezone": "Europe/London"}, {"fsq_id": "4ca7763ea6e08cfad9fa8494", "categories": [{"id": 13177, "name": "Greek Restaurant", "short_name": "Greek", "plural_name": "Greek Restaurants", "icon": {"prefix": "https://ss3.4sqi.net/img/categories_v2/food/greek_", "suffix": ".png"}}], "chains": [], "closed_bucket": "VeryLikelyOpen", "distance": 545, "geocodes": {"main": {"latitude": 55.826381, "longitude": -4.267486}, "roof": {"latitude": 55.826381, "longitude": -4.267486}}, "link": "/v3/places/4ca7763ea6e08cfad9fa8494", "location": {"address": "34 Sinclair Dr", "admin_region": "Scotland", "country": "GB", "cross_street": "", "formatted_address": "34 Sinclair Dr, Glasgow, G42 9QE", "locality": "Glasgow", "post_town": "Glasgow", "postcode": "G42 9QE"}, "name": "Greek Golden Kebab", "related_places": {}, "timezone": "Europe/London"}, {"fsq_id": "5018f77de4b06fb71b57fa90", "categories": [{"id": 13034, "name": "Caf\u00e9", "short_name": "Caf\u00e9", "plural_name": "Caf\u00e9s", "icon": {"prefix": "https://ss3.4sqi.net/img/categories_v2/food/cafe_", "suffix": ".png"}}, {"id": 13065, "name": "Restaurant", "short_name": "Restaurant", "plural_name": "Restaurants", "icon": {"prefix": "https://ss3.4sqi.net/img/categories_v2/food/default_", "suffix": ".png"}}], "chains": [], "closed_bucket": "VeryLikelyOpen", "distance": 592, "geocodes": {"main": {"latitude": 55.822256, "longitude": -4.261302}, "roof": {"latitude": 55.822256, "longitude": -4.261302}}, "link": "/v3/places/5018f77de4b06fb71b57fa90", "location": {"address": "172 Holmlea Rd", "admin_region": "Scotland", "country": "GB", "cross_street": "", "formatted_address": "172 Holmlea Rd, Glasgow, G44 4BA", "locality": "Glasgow", "post_town": "Glasgow", "postcode": "G44 4BA"}, "name": "Cafe Royale", "related_places": {}, "timezone": "Europe/London"}, {"fsq_id": "51939472498e6951c3cb9485", "categories": [{"id": 10045, "name": "Pool Hall", "short_name": "Billiards", "plural_name": "Pool Halls", "icon": {"prefix": "https://ss3.4sqi.net/img/categories_v2/arts_entertainment/billiards_", "suffix": ".png"}}, {"id": 13022, "name": "Sports Bar", "short_name": "Sports Bar", "plural_name": "Sports Bars", "icon": {"prefix": "https://ss3.4sqi.net/img/categories_v2/nightlife/sportsbar_", "suffix": ".png"}}], "chains": [], "closed_bucket": "Unsure", "distance": 610, "geocodes": {"main": {"latitude": 55.824621, "longitude": -4.267853}, "roof": {"latitude": 55.824621, "longitude": -4.267853}}, "link": "/v3/places/51939472498e6951c3cb9485", "location": {"address": "130 Ledard Rd", "admin_region": "Scotland", "country": "GB", "cross_street": "", "formatted_address": "130 Ledard Rd, Glasgow, G42 9RA", "locality": "Glasgow", "post_town": "Glasgow", "postcode": "G42 9RA"}, "name": "The Ball Room", "related_places": {}, "timezone": "Europe/London"}, {"fsq_id": "52a3840c11d251e43167cb77", "categories": [{"id": 13099, "name": "Chinese Restaurant", "short_name": "Chinese", "plural_name": "Chinese Restaurants", "icon": {"prefix": "https://ss3.4sqi.net/img/categories_v2/food/asian_", "suffix": ".png"}}], "chains": [], "closed_bucket": "VeryLikelyOpen", "distance": 666, "geocodes": {"main": {"latitude": 55.82348, "longitude": -4.25094}, "roof": {"latitude": 55.82348, "longitude": -4.25094}}, "link": "/v3/places/52a3840c11d251e43167cb77", "location": {"country": "GB", "cross_street": "", "formatted_address": ""}, "name": "Lucky Garden", "related_places": {}, "timezone": "Europe/London"}, {"fsq_id": "9f251312360c47ca2c0beb44", "categories": [{"id": 13003, "name": "Bar", "short_name": "Bar", "plural_name": "Bars", "icon": {"prefix": "https://ss3.4sqi.net/img/categories_v2/nightlife/pub_", "suffix": ".png"}}], "chains": [], "closed_bucket": "Unsure", "distance": 750, "geocodes": {"main": {"latitude": 55.833626, "longitude": -4.263365}, "roof": {"latitude": 55.833626, "longitude": -4.263365}}, "link": "/v3/places/9f251312360c47ca2c0beb44", "location": {"address": "331 Langside Rd", "admin_region": "Scotland", "country": "GB", "formatted_address": "331 Langside Rd, Glasgow, G42 8XT", "locality": "Glasgow", "post_town": "Glasgow", "postcode": "G42 8XT"}, "name": "Albert Bar", "related_places": {}, "timezone": "Europe/London"}, {"fsq_id": "87a9784465bf44ddfeff8cbd", "categories": [{"id": 13035, "name": "Coffee Shop", "short_name": "Coffee Shop", "plural_name": "Coffee Shops", "icon": {"prefix": "https://ss3.4sqi.net/img/categories_v2/food/coffeeshop_", "suffix": ".png"}}, {"id": 13145, "name": "Fast Food Restaurant", "short_name": "Fast Food", "plural_name": "Fast Food Restaurants", "icon": {"prefix": "https://ss3.4sqi.net/img/categories_v2/food/fastfood_", "suffix": ".png"}}], "chains": [], "closed_bucket": "Unsure", "distance": 753, "geocodes": {"drop_off": {"latitude": 55.823855, "longitude": -4.249191}, "main": {"latitude": 55.823751, "longitude": -4.248953}, "roof": {"latitude": 55.823751, "longitude": -4.248953}}, "link": "/v3/places/87a9784465bf44ddfeff8cbd", "location": {"address": "1005 Aikenhead Rd", "admin_region": "Scotland", "country": "GB", "formatted_address": "1005 Aikenhead Rd, Glasgow, Glasgow City, G44 4SF", "locality": "Glasgow", "post_town": "Glasgow", "postcode": "G44 4SF", "region": "Glasgow City"}, "name": "The Coffee Shack", "related_places": {}, "timezone": "Europe/London"}, {"fsq_id": "54d60b69fda54f46668af376", "categories": [{"id": 13145, "name": "Fast Food Restaurant", "short_name": "Fast Food", "plural_name": "Fast Food Restaurants", "icon": {"prefix": "https://ss3.4sqi.net/img/categories_v2/food/fastfood_", "suffix": ".png"}}], "chains": [], "closed_bucket": "VeryLikelyOpen", "distance": 780, "geocodes": {"main": {"latitude": 55.834051, "longitude": -4.255918}, "roof": {"latitude": 55.834051, "longitude": -4.255918}}, "link": "/v3/places/54d60b69fda54f46668af376", "location": {"address": "661 Cathcart Rd", "admin_region": "Scotland", "country": "GB", "formatted_address": "661 Cathcart Rd, Glasgow, G42 8AP", "locality": "Glasgow", "post_town": "Glasgow", "postcode": "G42 8AP"}, "name": "Chicken Express", "related_places": {}, "timezone": "Europe/London"}, {"fsq_id": "4c2223e59a67a5934ef6db87", "categories": [{"id": 13018, "name": "Pub", "short_name": "Pub", "plural_name": "Pubs", "icon": {"prefix": "https://ss3.4sqi.net/img/categories_v2/nightlife/pub_", "suffix": ".png"}}, {"id": 13065, "name": "Restaurant", "short_name": "Restaurant", "plural_name": "Restaurants", "icon": {"prefix": "https://ss3.4sqi.net/img/categories_v2/food/default_", "suffix": ".png"}}], "chains": [], "closed_bucket": "VeryLikelyOpen", "distance": 782, "geocodes": {"main": {"latitude": 55.823502, "longitude": -4.2487}, "roof": {"latitude": 55.823502, "longitude": -4.2487}}, "link": "/v3/places/4c2223e59a67a5934ef6db87", "location": {"address": "156-164 Ardmay Crescent", "admin_region": "Scotland", "country": "GB", "cross_street": "", "formatted_address": "156-164 Ardmay Crescent, Glasgow, Glasgow City, G44 4PP", "locality": "Glasgow", "post_town": "Glasgow", "postcode": "G44 4PP", "region": "Glasgow City"}, "name": "Beechwood Tavern", "related_places": {}, "timezone": "Europe/London"}, {"fsq_id": "63af5901c5841f5099bcec4f", "categories": [{"id": 13018, "name": "Pub", "short_name": "Pub", "plural_name": "Pubs", "icon": {"prefix": "https://ss3.4sqi.net/img/categories_v2/nightlife/pub_", "suffix": ".png"}}], "chains": [], "closed_bucket": "LikelyOpen", "distance": 812, "geocodes": {"drop_off": {"latitude": 55.834277, "longitude": -4.263634}, "main": {"latitude": 55.834136, "longitude": -4.26366}, "roof": {"latitude": 55.834136, "longitude": -4.26366}}, "link": "/v3/places/63af5901c5841f5099bcec4f", "location": {"address": "58 Albert Rd", "admin_region": "Scotland", "country": "GB", "cross_street": "", "formatted_address": "58 Albert Rd, Glasgow, Glasgow City, G42 8DN", "locality": "Glasgow", "post_town": "Glasgow", "postcode": "G42 8DN", "region": "Glasgow City"}, "name": "The Rose Reilly", "related_places": {}, "timezone": "Europe/London"}, {"fsq_id": "4ba3c3b1f964a520c75c38e3", "categories": [{"id": 13003, "name": "Bar", "short_name": "Bar", "plural_name": "Bars", "icon": {"prefix": "https://ss3.4sqi.net/img/categories_v2/nightlife/pub_", "suffix": ".png"}}], "chains": [], "closed_bucket": "VeryLikelyOpen", "distance": 817, "geocodes": {"main": {"latitude": 55.82665, "longitude": -4.246169}, "roof": {"latitude": 55.82665, "longitude": -4.246169}}, "link": "/v3/places/4ba3c3b1f964a520c75c38e3", "location": {"country": "GB", "cross_street": "", "formatted_address": ""}, "name": "The Montford House", "related_places": {}, "timezone": "Europe/London"}, {"fsq_id": "9ad7da3940c94f76b3372009", "categories": [{"id": 13003, "name": "Bar", "short_name": "Bar", "plural_name": "Bars", "icon": {"prefix": "https://ss3.4sqi.net/img/categories_v2/nightlife/pub_", "suffix": ".png"}}], "chains": [], "closed_bucket": "Unsure", "distance": 817, "geocodes": {"drop_off": {"latitude": 55.823242, "longitude": -4.248395}, "main": {"latitude": 55.82315, "longitude": -4.24841}, "roof": {"latitude": 55.82315, "longitude": -4.24841}}, "link": "/v3/places/9ad7da3940c94f76b3372009", "location": {"address": "156-164 Ardmay Crescent", "admin_region": "Scotland", "country": "GB", "formatted_address": "156-164 Ardmay Crescent, Glasgow, G44 4PP", "locality": "Glasgow", "post_town": "Glasgow", "postcode": "G44 4PP"}, "name": "Maguire, Mary", "related_places": {}, "timezone": "Europe/London"}, {"fsq_id": "61840fb322589805172dc95c", "categories": [{"id": 13034, "name": "Caf\u00e9", "short_name": "Caf\u00e9", "plural_name": "Caf\u00e9s", "icon": {"prefix": "https://ss3.4sqi.net/img/categories_v2/food/cafe_", "suffix": ".png"}}, {"id": 13065, "name": "Restaurant", "short_name": "Restaurant", "plural_name": "Restaurants", "icon": {"prefix": "https://ss3.4sqi.net/img/categories_v2/food/default_", "suffix": ".png"}}], "chains": [], "closed_bucket": "Unsure", "distance": 899, "geocodes": {"drop_off": {"latitude": 55.834757, "longitude": -4.265453}, "main": {"latitude": 55.834677, "longitude": -4.265253}, "roof": {"latitude": 55.834677, "longitude": -4.265253}}, "link": "/v3/places/61840fb322589805172dc95c", "location": {"address": "505 Victoria Rd", "admin_region": "Scotland", "country": "GB", "cross_street": "Albert Road", "formatted_address": "505 Victoria Rd (Albert Road), Glasgow, Glasgow City, G42 8RL", "locality": "Glasgow", "post_town": "Glasgow", "postcode": "G42 8RL", "region": "Glasgow City"}, "name": "Mi Chaii", "related_places": {}, "timezone": "Europe/London"}, {"fsq_id": "5b2f6a934a7aae003984d41f", "categories": [{"id": 13035, "name": "Coffee Shop", "short_name": "Coffee Shop", "plural_name": "Coffee Shops", "icon": {"prefix": "https://ss3.4sqi.net/img/categories_v2/food/coffeeshop_", "suffix": ".png"}}, {"id": 13065, "name": "Restaurant", "short_name": "Restaurant", "plural_name": "Restaurants", "icon": {"prefix": "https://ss3.4sqi.net/img/categories_v2/food/default_", "suffix": ".png"}}], "chains": [], "closed_bucket": "LikelyOpen", "distance": 899, "geocodes": {"main": {"latitude": 55.834647, "longitude": -4.265777}, "roof": {"latitude": 55.834647, "longitude": -4.265777}}, "link": "/v3/places/5b2f6a934a7aae003984d41f", "location": {"address": "510 Victoria Rd", "admin_region": "Scotland", "country": "GB", "cross_street": "", "formatted_address": "510 Victoria Rd, Glasgow, Glasgow City, G42 8PQ", "locality": "Glasgow", "post_town": "Glasgow", "postcode": "G42 8PQ", "region": "Glasgow City"}, "name": "Crema Coffee", "related_places": {}, "timezone": "Europe/London"}, {"fsq_id": "5a033d44805e3f472304e501", "categories": [{"id": 13040, "name": "Dessert Shop", "short_name": "Desserts", "plural_name": "Dessert Shops", "icon": {"prefix": "https://ss3.4sqi.net/img/categories_v2/food/dessert_", "suffix": ".png"}}, {"id": 13065, "name": "Restaurant", "short_name": "Restaurant", "plural_name": "Restaurants", "icon": {"prefix": "https://ss3.4sqi.net/img/categories_v2/food/default_", "suffix": ".png"}}], "chains": [], "closed_bucket": "LikelyOpen", "distance": 905, "geocodes": {"main": {"latitude": 55.834647, "longitude": -4.265777}, "roof": {"latitude": 55.834647, "longitude": -4.265777}}, "link": "/v3/places/5a033d44805e3f472304e501", "location": {"address": "504 Victoria Rd", "admin_region": "Scotland", "country": "GB", "cross_street": "", "formatted_address": "504 Victoria Rd, Glasgow, Glasgow City, G42 8PQ", "locality": "Glasgow", "post_town": "Glasgow", "postcode": "G42 8PQ", "region": "Glasgow City"}, "name": "What the Fudge", "related_places": {}, "timezone": "Europe/London"}, {"fsq_id": "5b5c6fae56c89f002c8290db", "categories": [{"id": 13034, "name": "Caf\u00e9", "short_name": "Caf\u00e9", "plural_name": "Caf\u00e9s", "icon": {"prefix": "https://ss3.4sqi.net/img/categories_v2/food/cafe_", "suffix": ".png"}}, {"id": 13065, "name": "Restaurant", "short_name": "Restaurant", "plural_name": "Restaurants", "icon": {"prefix": "https://ss3.4sqi.net/img/categories_v2/food/default_", "suffix": ".png"}}], "chains": [], "closed_bucket": "LikelyOpen", "distance": 912, "geocodes": {"drop_off": {"latitude": 55.834874, "longitude": -4.265406}, "main": {"latitude": 55.834786, "longitude": -4.265186}, "roof": {"latitude": 55.834786, "longitude": -4.265186}}, "link": "/v3/places/5b5c6fae56c89f002c8290db", "location": {"address": "501 Victoria Rd", "admin_region": "Scotland", "country": "GB", "cross_street": "", "formatted_address": "501 Victoria Rd, Glasgow, Glasgow City, G42 8RL", "locality": "Glasgow", "post_town": "Glasgow", "postcode": "G42 8RL", "region": "Glasgow City"}, "name": "Short Long Black", "related_places": {}, "timezone": "Europe/London"}, {"fsq_id": "5cd00a085d891b002c3c46bf", "categories": [{"id": 13003, "name": "Bar", "short_name": "Bar", "plural_name": "Bars", "icon": {"prefix": "https://ss3.4sqi.net/img/categories_v2/nightlife/pub_", "suffix": ".png"}}, {"id": 13057, "name": "Gastropub", "short_name": "Gastropub", "plural_name": "Gastropubs", "icon": {"prefix": "https://ss3.4sqi.net/img/categories_v2/food/gastropub_", "suffix": ".png"}}], "chains": [], "closed_bucket": "LikelyOpen", "distance": 947, "geocodes": {"drop_off": {"latitude": 55.835258, "longitude": -4.264139}, "main": {"latitude": 55.835374, "longitude": -4.264118}, "roof": {"latitude": 55.835374, "longitude": -4.264118}}, "link": "/v3/places/5cd00a085d891b002c3c46bf", "location": {"address": "21 Dixon Ave", "admin_region": "Scotland", "country": "GB", "cross_street": "", "formatted_address": "21 Dixon Ave, Glasgow, Glasgow City, G42 8EB", "locality": "Glasgow", "post_town": "Glasgow", "postcode": "G42 8EB", "region": "Glasgow City"}, "name": "The Bell Jar", "related_places": {}, "timezone": "Europe/London"}, {"fsq_id": "524ef879498ed20ea59c4c57", "categories": [{"id": 10039, "name": "Music Venue", "short_name": "Music Venue", "plural_name": "Music Venues", "icon": {"prefix": "https://ss3.4sqi.net/img/categories_v2/arts_entertainment/musicvenue_", "suffix": ".png"}}, {"id": 13022, "name": "Sports Bar", "short_name": "Sports Bar", "plural_name": "Sports Bars", "icon": {"prefix": "https://ss3.4sqi.net/img/categories_v2/nightlife/sportsbar_", "suffix": ".png"}}, {"id": 13065, "name": "Restaurant", "short_name": "Restaurant", "plural_name": "Restaurants", "icon": {"prefix": "https://ss3.4sqi.net/img/categories_v2/food/default_", "suffix": ".png"}}], "chains": [], "closed_bucket": "VeryLikelyOpen", "distance": 965, "geocodes": {"main": {"latitude": 55.834933, "longitude": -4.266312}, "roof": {"latitude": 55.834933, "longitude": -4.266312}}, "link": "/v3/places/524ef879498ed20ea59c4c57", "location": {"address": "106 Torrisdale St", "admin_region": "Scotland", "country": "GB", "cross_street": "", "formatted_address": "106 Torrisdale St, Glasgow, G42 8PH", "locality": "Glasgow", "post_town": "Glasgow", "postcode": "G42 8PH"}, "name": "McNeill's Bar", "related_places": {"children": [{"fsq_id": "611e42200ad112448285ade8", "categories": [{"id": 13263, "name": "Japanese Restaurant", "short_name": "Japanese", "plural_name": "Japanese Restaurants", "icon": {"prefix": "https://ss3.4sqi.net/img/categories_v2/food/japanese_", "suffix": ".png"}}], "name": "Betsumono"}]}, "timezone": "Europe/London"}, {"fsq_id": "4bb8c4d03db7b7130d95219a", "categories": [{"id": 13199, "name": "Indian Restaurant", "short_name": "Indian", "plural_name": "Indian Restaurants", "icon": {"prefix": "https://ss3.4sqi.net/img/categories_v2/food/indian_", "suffix": ".png"}}], "chains": [], "closed_bucket": "VeryLikelyOpen", "distance": 984, "geocodes": {"main": {"latitude": 55.836118, "longitude": -4.261234}, "roof": {"latitude": 55.836118, "longitude": -4.261234}}, "link": "/v3/places/4bb8c4d03db7b7130d95219a", "location": {"country": "GB", "cross_street": "", "formatted_address": ""}, "name": "The Chicken Hut", "related_places": {}, "timezone": "Europe/London"}, {"fsq_id": "616b13a580df073e2c1b4f2c", "categories": [{"id": 13316, "name": "Pakistani Restaurant", "short_name": "Pakistani", "plural_name": "Pakistani Restaurants", "icon": {"prefix": "https://ss3.4sqi.net/img/categories_v2/food/default_", "suffix": ".png"}}], "chains": [], "closed_bucket": "VeryLikelyOpen", "distance": 985, "geocodes": {"main": {"latitude": 55.83606, "longitude": -4.256714}, "roof": {"latitude": 55.83606, "longitude": -4.256714}}, "link": "/v3/places/616b13a580df073e2c1b4f2c", "location": {"admin_region": "Scotland", "country": "GB", "cross_street": "", "formatted_address": "Glasgow, Glasgow City, G42 8YG", "locality": "Glasgow", "post_town": "Glasgow", "postcode": "G42 8YG", "region": "Glasgow City"}, "name": "Lahori Chaska", "related_places": {}, "timezone": "Europe/London"}, {"fsq_id": "558da263498ef2908209bdb7", "categories": [{"id": 13199, "name": "Indian Restaurant", "short_name": "Indian", "plural_name": "Indian Restaurants", "icon": {"prefix": "https://ss3.4sqi.net/img/categories_v2/food/indian_", "suffix": ".png"}}], "chains": [], "closed_bucket": "VeryLikelyOpen", "distance": 988, "geocodes": {"drop_off": {"latitude": 55.835675, "longitude": -4.265123}, "main": {"latitude": 55.835593, "longitude": -4.264896}, "roof": {"latitude": 55.835593, "longitude": -4.264896}}, "link": "/v3/places/558da263498ef2908209bdb7", "location": {"address": "441 Victoria Rd", "admin_region": "Scotland", "country": "GB", "cross_street": "", "formatted_address": "441 Victoria Rd, Glasgow, Glasgow City, G42 8RW", "locality": "Glasgow", "post_town": "Glasgow", "postcode": "G42 8RW", "region": "Glasgow City"}, "name": "Gandhi Indian Restaurant", "related_places": {}, "timezone": "Europe/London"}, {"fsq_id": "8a29e23aea964ebabe1ca8c6", "categories": [{"id": 13003, "name": "Bar", "short_name": "Bar", "plural_name": "Bars", "icon": {"prefix": "https://ss3.4sqi.net/img/categories_v2/nightlife/pub_", "suffix": ".png"}}], "chains": [], "closed_bucket": "LikelyOpen", "distance": 1017, "geocodes": {"main": {"latitude": 55.835078, "longitude": -4.265615}, "roof": {"latitude": 55.835078, "longitude": -4.265615}}, "link": "/v3/places/8a29e23aea964ebabe1ca8c6", "location": {"address": "173 Allison St", "admin_region": "Scotland", "country": "GB", "formatted_address": "173 Allison St, Glasgow, South Ayrshire, G42 8RX", "locality": "Glasgow", "post_town": "Glasgow", "postcode": "G42 8RX", "region": "South Ayrshire"}, "name": "Queenspark Pawn Brokers", "related_places": {}, "timezone": "Europe/London"}, {"fsq_id": "3ff57014610e48239ffbfbdc", "categories": [{"id": 13236, "name": "Italian Restaurant", "short_name": "Italian", "plural_name": "Italian Restaurants", "icon": {"prefix": "https://ss3.4sqi.net/img/categories_v2/food/italian_", "suffix": ".png"}}], "chains": [], "closed_bucket": "VeryLikelyOpen", "distance": 16, "geocodes": {"main": {"latitude": 55.827389, "longitude": -4.259077}, "roof": {"latitude": 55.827389, "longitude": -4.259077}}, "link": "/v3/places/3ff57014610e48239ffbfbdc", "location": {"address": "1021 Cathcart Rd", "admin_region": "Scotland", "country": "GB", "formatted_address": "1021 Cathcart Rd, Glasgow, G42 9XJ", "locality": "Glasgow", "post_town": "Glasgow", "postcode": "G42 9XJ"}, "name": "Sapori D'italia Meatballs Master", "related_places": {}}, {"fsq_id": "279b1f2dca2e47057d608394", "categories": [{"id": 13065, "name": "Restaurant", "short_name": "Restaurant", "plural_name": "Restaurants", "icon": {"prefix": "https://ss3.4sqi.net/img/categories_v2/food/default_", "suffix": ".png"}}], "chains": [], "closed_bucket": "LikelyOpen", "distance": 750, "geocodes": {"drop_off": {"latitude": 55.833766, "longitude": -4.26363}, "main": {"latitude": 55.833626, "longitude": -4.263365}, "roof": {"latitude": 55.833626, "longitude": -4.263365}}, "link": "/v3/places/279b1f2dca2e47057d608394", "location": {"address": "331 Langside Rd", "admin_region": "Scotland", "country": "GB", "formatted_address": "331 Langside Rd, Glasgow, G42 8XT", "locality": "Glasgow", "post_town": "Glasgow", "postcode": "G42 8XT"}, "name": "Sufi's Takeaway & Restaurant", "related_places": {}}, {"fsq_id": "413eacb87f6942f9dc835c12", "categories": [{"id": 13309, "name": "Middle Eastern Restaurant", "short_name": "Middle Eastern", "plural_name": "Middle Eastern Restaurants", "icon": {"prefix": "https://ss3.4sqi.net/img/categories_v2/food/middleeastern_", "suffix": ".png"}}], "chains": [], "closed_bucket": "LikelyOpen", "distance": 787, "geocodes": {"main": {"latitude": 55.834002, "longitude": -4.263236}, "roof": {"latitude": 55.834002, "longitude": -4.263236}}, "link": "/v3/places/413eacb87f6942f9dc835c12", "location": {"address": "331 Langside Rd", "admin_region": "Scotland", "country": "GB", "formatted_address": "331 Langside Rd, Glasgow, G42 8XT", "locality": "Glasgow", "post_town": "Glasgow", "postcode": "G42 8XT"}, "name": "Shinwari Restaurant", "related_places": {}}, {"fsq_id": "8faee05d3cb4471460674a65", "categories": [{"id": 13035, "name": "Coffee Shop", "short_name": "Coffee Shop", "plural_name": "Coffee Shops", "icon": {"prefix": "https://ss3.4sqi.net/img/categories_v2/food/coffeeshop_", "suffix": ".png"}}, {"id": 13065, "name": "Restaurant", "short_name": "Restaurant", "plural_name": "Restaurants", "icon": {"prefix": "https://ss3.4sqi.net/img/categories_v2/food/default_", "suffix": ".png"}}], "chains": [], "closed_bucket": "Unsure", "distance": 875, "geocodes": {"main": {"latitude": 55.834416, "longitude": -4.26521}, "roof": {"latitude": 55.834416, "longitude": -4.26521}}, "link": "/v3/places/8faee05d3cb4471460674a65", "location": {"address": "Victoria Rd", "admin_region": "Scotland", "country": "GB", "formatted_address": "Victoria Rd, Glasgow, G42 8BH", "locality": "Glasgow", "post_town": "Glasgow", "postcode": "G42 8BH"}, "name": "Ginesi's Ice Cream", "related_places": {}}], "context": {"geo_bounds": {"circle": {"center": {"latitude": 55.827282, "longitude": -4.259255}, "radius": 1000}}}}