{"results": [{"fsq_id": "4bb7a8451261d13a09a7e798", "categories": [{"id": 13024, "name": "Whisky Bar", "short_name": "Whisky Bar", "plural_name": "Whisky Bars", "icon": {"prefix": "https://ss3.4sqi.net/img/categories_v2/nightlife/whiskey_", "suffix": ".png"}}, {"id": 13025, "name": "Wine Bar", "short_name": "Wine Bar", "plural_name": "Wine Bars", "icon": {"prefix": "https://ss3.4sqi.net/img/categories_v2/food/winery_", "suffix": ".png"}}, {"id": 13065, "name": "Restaurant", "short_name": "Restaurant", "plural_name": "Restaurants", "icon": {"prefix": "https://ss3.4sqi.net/img/categories_v2/food/default_", "suffix": ".png"}}], "chains": [], "closed_bucket": "Unsure", "distance": 834, "geocodes": {"main": {"latitude": 55.862979, "longitude": -4.257673}, "roof": {"latitude": 55.862979, "longitude": -4.257673}}, "link": "/v3/places/4bb7a8451261d13a09a7e798", "location": {"address": "154 Hope St", "admin_region": "Scotland", "country": "GB", "cross_street": "W Regent St", "formatted_address": "154 Hope St (W Regent St), Glasgow, Glasgow City, G2 2TH", "locality": "Glasgow", "post_town": "Glasgow", "postcode": "G2 2TH", "region": "Glasgow City"}, "name": "The Pot Still", "related_places": {}, "timezone": "Europe/London"}, {"fsq_id": "4b1fe8d7f964a520a32a24e3", "categories": [{"id": 13003, "name": "Bar", "short_name": "Bar", "plural_name": "Bars", "icon": {"prefix": "https://ss3.4sqi.net/img/categories_v2/nightlife/pub_", "suffix": ".png"}}, {"id": 13057, "name": "Gastropub", "short_name": "Gastropub", "plural_name": "Gastropubs", "icon": {"prefix": "https://ss3.4sqi.net/img/categories_v2/food/gastropub_", "suffix": ".png"}}], "chains": [], "closed_bucket": "Unsure", "distance": 747, "geocodes": {"main": {"latitude": 55.864262, "longitude": -4.261041}, "roof": {"latitude": 55.864262, "longitude": -4.261041}}, "link": "/v3/places/4b1fe8d7f964a520a32a24e3", "location": {"address": "153 Bath St", "admin_region": "Scotland", "country": "GB", "formatted_address": "153 Bath St, Glasgow, Glasgow City, G2 4SQ", "locality": "Glasgow", "post_town": "Glasgow", "postcode": "G2 4SQ", "region": "Glasgow City"}, "name": "The Butterfly & the Pig", "related_places": {}, "timezone": "Europe/London"}, {"fsq_id": "4b852d7bf964a5207d4f31e3", "categories": [{"id": 13024, "name": "Whisky Bar", "short_name": "Whisky Bar", "plural_name": "Whisky Bars", "icon": {"prefix": "https://ss3.4sqi.net/img/categories_v2/nightlife/whiskey_", "suffix": ".png"}}], "chains": [], "closed_bucket": "Unsure", "distance": 462, "geocodes": {"main": {"latitude": 55.864143, "longitude": -4.271445}, "roof": {"latitude": 55.864143, "longitude": -4.271445}}, "link": "/v3/places/4b852d7bf964a5207d4f31e3", "location": {"address": "153 North St", "admin_region": "Scotland", "country": "GB", "formatted_address": "153 North St, Glasgow, Glasgow City, G3 7DA", "locality": "Glasgow", "post_town": "Glasgow", "postcode": "G3 7DA", "region": "Glasgow City"}, "name": "Bon Accord", "related_places": {}, "timezone": "Europe/London"}, {"fsq_id": "4c54b19ea724e21e442cc8f6", "categories": [{"id": 10032, "name": "Night Club", "short_name": "Night Club", "plural_name": "Night Clubs", "icon": {"prefix": "https://ss3.4sqi.net/img/categories_v2/nightlife/nightclub_", "suffix": ".png"}}, {"id": 13003, "name": "Bar", "short_name": "Bar", "plural_name": "Bars", "icon": {"prefix": "https://ss3.4sqi.net/img/categories_v2/nightlife/pub_", "suffix": ".png"}}], "chains": [], "closed_bucket": "Unsure", "distance": 864, "geocodes": {"main": {"latitude": 55.858106, "longitude": -4.257209}, "roof": {"latitude": 55.858106, "longitude": -4.257209}}, "link": "/v3/places/4c54b19ea724e21e442cc8f6", "location": {"address": "22 Jamaica St", "admin_region": "Scotland", "country": "GB", "formatted_address": "22 Jamaica St, Glasgow, Glasgow City, G1 4QD", "locality": "Glasgow", "post_town": "Glasgow", "postcode": "G1 4QD", "region": "Glasgow City"}, "name": "Sub Club", "related_places": {}, "timezone": "Europe/London"}, {"fsq_id": "53c583cf498e63ea4da3718c", "categories": [{"id": 13303, "name": "Mexican Restaurant", "short_name": "Mexican", "plural_name": "Mexican Restaurants", "icon": {"prefix": "https://ss3.4sqi.net/img/categories_v2/food/mexican_", "suffix": ".png"}}, {"id": 13347, "name": "Tapas Restaurant", "short_name": "Tapas", "plural_name": "Tapas Restaurants", "icon": {"prefix": "https://ss3.4sqi.net/img/categories_v2/food/tapas_", "suffix": ".png"}}], "chains": [], "closed_bucket": "Unsure", "distance": 879, "geocodes": {"main": {"latitude": 55.861321, "longitude": -4.256256}, "roof": {"latitude": 55.861321, "longitude": -4.256256}}, "link": "/v3/places/53c583cf498e63ea4da3718c", "location": {"address": "89 St Vincent St", "admin_region": "Scotland", "country": "GB", "cross_street": "", "formatted_address": "89 St Vincent St, Glasgow, G2 5TF", "locality": "Glasgow", "post_town": "Glasgow", "postcode": "G2 5TF"}, "name": "Topolabamba", "related_places": {}, "timezone": "Europe/London"}, {"fsq_id": "5aa9491069e77b5f8b64713a", "categories": [{"id": 13145, "name": "Fast Food Restaurant", "short_name": "Fast Food", "plural_name": "Fast Food Restaurants", "icon": {"prefix": "https://ss3.4sqi.net/img/categories_v2/food/fastfood_", "suffix": ".png"}}], "chains": [], "closed_bucket": "Unsure", "distance": 899, "geocodes": {"main": {"latitude": 55.860611, "longitude": -4.255778}, "roof": {"latitude": 55.860611, "longitude": -4.255778}}, "link": "/v3/places/5aa9491069e77b5f8b64713a", "location": {"address": "28 Gordon St", "admin_region": "Scotland", "country": "GB", "cross_street": "", "formatted_address": "28 Gordon St, Glasgow, Glasgow City, G1 3PW", "locality": "Glasgow", "post_town": "Glasgow", "postcode": "G1 3PW", "region": "Glasgow City"}, "name": "Tantrum Doughnuts", "related_places": {"children": []}, "timezone": "Europe/London"}, {"fsq_id": "4b8d5addf964a5209df632e3", "categories": [{"id": 13199, "name": "Indian Restaurant", "short_name": "Indian", "plural_name": "Indian Restaurants", "icon": {"prefix": "https://ss3.4sqi.net/img/categories_v2/food/indian_", "suffix": ".png"}}], "chains": [], "closed_bucket": "VeryLikelyOpen", "distance": 744, "geocodes": {"main": {"latitude": 55.857888, "longitude": -4.281346}, "roof": {"latitude": 55.857888, "longitude": -4.281346}}, "link": "/v3/places/4b8d5addf964a5209df632e3", "location": {"address": "181 Finnieston St", "admin_region": "Scotland", "country": "GB", "cross_street": "", "formatted_address": "181 Finnieston St, Glasgow, Glasgow City, G3 8HE", "locality": "Glasgow", "post_town": "Glasgow", "postcode": "G3 8HE", "region": "Glasgow City"}, "name": "India Quay", "related_places": {}, "timezone": "Europe/London"}, {"fsq_id": "57b3526b498ef25faac11255", "categories": [{"id": 13177, "name": "Greek Restaurant", "short_name": "Greek", "plural_name": "Greek Restaurants", "icon": {"prefix": "https://ss3.4sqi.net/img/categories_v2/food/greek_", "suffix": ".png"}}], "chains": [], "closed_bucket": "LikelyOpen", "distance": 792, "geocodes": {"main": {"latitude": 55.862257, "longitude": -4.258316}, "roof": {"latitude": 55.862257, "longitude": -4.258316}}, "link": "/v3/places/57b3526b498ef25faac11255", "location": {"address": "161 Hope St", "admin_region": "Scotland", "country": "GB", "cross_street": "", "formatted_address": "161 Hope St, Glasgow, Glasgow City, G2 2UQ", "locality": "Glasgow", "post_town": "Glasgow", "postcode": "G2 2UQ", "region": "Glasgow City"}, "name": "Halloumi", "related_places": {}, "timezone": "Europe/London"}, {"fsq_id": "4c263d74b012b7135fd90893", "categories": [{"id": 13002, "name": "Bakery", "short_name": "Bakery", "plural_name": "Bakeries", "icon": {"prefix": "https://ss3.4sqi.net/img/categories_v2/food/bakery_", "suffix": ".png"}}, {"id": 13036, "name": "Tea Room", "short_name": "Tea Room", "plural_name": "Tea Rooms", "icon": {"prefix": "https://ss3.4sqi.net/img/categories_v2/food/tearoom_", "suffix": ".png"}}, {"id": 13065, "name": "Restaurant", "short_name": "Restaurant", "plural_name": "Restaurants", "icon": {"prefix": "https://ss3.4sqi.net/img/categories_v2/food/default_", "suffix": ".png"}}], "chains": [], "closed_bucket": "LikelyOpen", "distance": 951, "geocodes": {"main": {"latitude": 55.864291, "longitude": -4.283611}, "roof": {"latitude": 55.864291, "longitude": -4.283611}}, "link": "/v3/places/4c263d74b012b7135fd90893", "location": {"address": "1103 Argyle St", "address_extended": "Unit 8", "admin_region": "Scotland", "country": "GB", "cross_street": "Argyle Court", "formatted_address": "1103 Argyle St (Argyle Court), Glasgow, G3 8ND", "locality": "Glasgow", "post_town": "Glasgow", "postcode": "G3 8ND"}, "name": "The Hidden Lane Tearoom", "related_places": {"children": [{"fsq_id": "6177c84b1b7e0864e20470d8", "categories": [{"id": 11124, "name": "Office", "short_name": "Office", "plural_name": "Offices", "icon": {"prefix": "https://ss3.4sqi.net/img/categories_v2/building/default_", "suffix": ".png"}}], "name": "Rakata Technology Limited"}]}, "timezone": "Europe/London"}, {"fsq_id": "58037931d67cf45e38f69da8", "categories": [{"id": 13199, "name": "Indian Restaurant", "short_name": "Indian", "plural_name": "Indian Restaurants", "icon": {"prefix": "https://ss3.4sqi.net/img/categories_v2/food/indian_", "suffix": ".png"}}], "chains": [], "closed_bucket": "VeryLikelyOpen", "distance": 903, "geocodes": {"drop_off": {"latitude": 55.861395, "longitude": -4.255884}, "main": {"latitude": 55.861236, "longitude": -4.255903}, "roof": {"latitude": 55.861236, "longitude": -4.255903}}, "link": "/v3/places/58037931d67cf45e38f69da8", "location": {"address": "79 St Vincent St", "admin_region": "Scotland", "country": "GB", "cross_street": "", "formatted_address": "79 St Vincent St, Glasgow, Glasgow City, G2 5TF", "locality": "Glasgow", "post_town": "Glasgow", "postcode": "G2 5TF", "region": "Glasgow City"}, "name": "Chaakoo Bombay Cafe", "related_places": {}, "timezone": "Europe/London"}, {"fsq_id": "5180eb5a498e2b4ff6c7ab2f", "categories": [{"id": 13013, "name": "Hotel Bar", "short_name": "Hotel Bar", "plural_name": "Hotel Bars", "icon": {"prefix": "https://ss3.4sqi.net/img/categories_v2/travel/hotel_bar_", "suffix": ".png"}}], "chains": [], "closed_bucket": "VeryLikelyOpen", "distance": 615, "geocodes": {"main": {"latitude": 55.858813, "longitude": -4.260524}, "roof": {"latitude": 55.858813, "longitude": -4.260524}}, "link": "/v3/places/5180eb5a498e2b4ff6c7ab2f", "location": {"country": "GB", "cross_street": "", "formatted_address": ""}, "name": "The Atrium, Radisson Blu", "related_places": {"parent": {"fsq_id": "4b6385b5f964a5208f802ae3", "categories": [{"id": 19014, "name": "Hotel", "short_name": "Hotel", "plural_name": "Hotels", "icon": {"prefix": "https://ss3.4sqi.net/img/categories_v2/travel/hotel_", "suffix": ".png"}}], "name": "Radisson Blu Hotel, Glasgow"}}, "timezone": "Europe/London"}, {"fsq_id": "536e50f2498e80034a00e575", "categories": [{"id": 10000, "name": "Arts and Entertainment", "short_name": "Arts & Entertainment", "plural_name": "Arts and Entertainment", "icon": {"prefix": "https://ss3.4sqi.net/img/categories_v2/arts_entertainment/default_", "suffix": ".png"}}, {"id": 13018, "name": "Pub", "short_name": "Pub", "plural_name": "Pubs", "icon": {"prefix": "https://ss3.4sqi.net/img/categories_v2/nightlife/pub_", "suffix": ".png"}}, {"id": 13065, "name": "Restaurant", "short_name": "Restaurant", "plural_name": "Restaurants", "icon": {"prefix": "https://ss3.4sqi.net/img/categories_v2/food/default_", "suffix": ".png"}}], "chains": [], "closed_bucket": "VeryLikelyOpen", "distance": 897, "geocodes": {"main": {"latitude": 55.864532, "longitude": -4.25814}, "roof": {"latitude": 55.864532, "longitude": -4.25814}}, "link": "/v3/places/536e50f2498e80034a00e575", "location": {"address": "57-59 Sauchiehall Lane", "admin_region": "Scotland", "country": "GB", "cross_street": "", "formatted_address": "57-59 Sauchiehall Lane, Glasgow, G2 4AB", "locality": "Glasgow", "post_town": "Glasgow", "postcode": "G2 4AB"}, "name": "Malones Irish Bar", "related_places": {}, "timezone": "Europe/London"}, {"fsq_id": "5de800781a9c7d0008fa7469", "categories": [{"id": 13236, "name": "Italian Restaurant", "short_name": "Italian", "plural_name": "Italian Restaurants", "icon": {"prefix": "https://ss3.4sqi.net/img/categories_v2/food/italian_", "suffix": ".png"}}], "chains": [], "closed_bucket": "Unsure", "distance": 901, "geocodes": {"drop_off": {"latitude": 55.859744, "longitude": -4.255787}, "main": {"latitude": 55.859725, "longitude": -4.255611}, "roof": {"latitude": 55.859725, "longitude": -4.255611}}, "link": "/v3/places/5de800781a9c7d0008fa7469", "location": {"address": "60-70 Mitchell St", "admin_region": "Scotland", "country": "GB", "cross_street": "Mitchell Lane", "formatted_address": "60-70 Mitchell St (Mitchell Lane), Glasgow, Glasgow City", "locality": "Glasgow", "post_town": "Glasgow", "region": "Glasgow City"}, "name": "Sugo", "related_places": {}, "timezone": "Europe/London"}, {"fsq_id": "5b3ce578bed48300393b04e7", "categories": [{"id": 13065, "name": "Restaurant", "short_name": "Restaurant", "plural_name": "Restaurants", "icon": {"prefix": "https://ss3.4sqi.net/img/categories_v2/food/default_", "suffix": ".png"}}], "chains": [], "closed_bucket": "VeryLikelyOpen", "distance": 810, "geocodes": {"drop_off": {"latitude": 55.865139, "longitude": -4.26108}, "main": {"latitude": 55.864996, "longitude": -4.261098}, "roof": {"latitude": 55.864996, "longitude": -4.261098}}, "link": "/v3/places/5b3ce578bed48300393b04e7", "location": {"address": "217 Sauchiehall St", "admin_region": "Scotland", "country": "GB", "cross_street": "", "formatted_address": "217 Sauchiehall St, Glasgow, Glasgow City, G2 3EX", "locality": "Glasgow", "post_town": "Glasgow", "postcode": "G2 3EX", "region": "Glasgow City"}, "name": "Mackintosh at the Willow", "related_places": {}, "timezone": "Europe/London"}, {"fsq_id": "4d1e398e6e8c3704d4cee49f", "categories": [{"id": 13009, "name": "Cocktail Bar", "short_name": "Cocktail", "plural_name": "Cocktail Bars", "icon": {"prefix": "https://ss3.4sqi.net/img/categories_v2/nightlife/cocktails_", "suffix": ".png"}}, {"id": 13352, "name": "Thai Restaurant", "short_name": "Thai", "plural_name": "Thai Restaurants", "icon": {"prefix": "https://ss3.4sqi.net/img/categories_v2/food/thai_", "suffix": ".png"}}], "chains": [], "closed_bucket": "LikelyOpen", "distance": 638, "geocodes": {"main": {"latitude": 55.864914, "longitude": -4.26439}, "roof": {"latitude": 55.864914, "longitude": -4.26439}}, "link": "/v3/places/4d1e398e6e8c3704d4cee49f", "location": {"address": "214 Bath St", "admin_region": "Scotland", "country": "GB", "formatted_address": "214 Bath St, Glasgow, Glasgow City, G2 4HW", "locality": "Glasgow", "post_town": "Glasgow", "postcode": "G2 4HW", "region": "Glasgow City"}, "name": "Tiki Bar & Kitsch Inn", "related_places": {}, "timezone": "Europe/London"}, {"fsq_id": "5371be2f498e5399f8fc2010", "categories": [{"id": 13034, "name": "Caf\u00e9", "short_name": "Caf\u00e9", "plural_name": "Caf\u00e9s", "icon": {"prefix": "https://ss3.4sqi.net/img/categories_v2/food/cafe_", "suffix": ".png"}}, {"id": 13035, "name": "Coffee Shop", "short_name": "Coffee Shop", "plural_name": "Coffee Shops", "icon": {"prefix": "https://ss3.4sqi.net/img/categories_v2/food/coffeeshop_", "suffix": ".png"}}, {"id": 13065, "name": "Restaurant", "short_name": "Restaurant", "plural_name": "Restaurants", "icon": {"prefix": "https://ss3.4sqi.net/img/categories_v2/food/default_", "suffix": ".png"}}], "chains": [], "closed_bucket": "Unsure", "distance": 782, "geocodes": {"main": {"latitude": 55.8604, "longitude": -4.257629}, "roof": {"latitude": 55.8604, "longitude": -4.257629}}, "link": "/v3/places/5371be2f498e5399f8fc2010", "location": {"address": "79 Gordon St", "admin_region": "Scotland", "country": "GB", "cross_street": "", "formatted_address": "79 Gordon St, Glasgow, Glasgow City, G1 3SQ", "locality": "Glasgow", "post_town": "Glasgow", "postcode": "G1 3SQ", "region": "Glasgow City"}, "name": "Gordon Street Coffee", "related_places": {}, "timezone": "Europe/London"}, {"fsq_id": "5758817d498eee35ef6c2d0d", "categories": [{"id": 13003, "name": "Bar", "short_name": "Bar", "plural_name": "Bars", "icon": {"prefix": "https://ss3.4sqi.net/img/categories_v2/nightlife/pub_", "suffix": ".png"}}, {"id": 13029, "name": "Brewery", "short_name": "Brewery", "plural_name": "Breweries", "icon": {"prefix": "https://ss3.4sqi.net/img/categories_v2/food/brewery_", "suffix": ".png"}}, {"id": 13065, "name": "Restaurant", "short_name": "Restaurant", "plural_name": "Restaurants", "icon": {"prefix": "https://ss3.4sqi.net/img/categories_v2/food/default_", "suffix": ".png"}}], "chains": [], "closed_bucket": "Unsure", "distance": 971, "geocodes": {"drop_off": {"latitude": 55.86217, "longitude": -4.25515}, "main": {"latitude": 55.862333, "longitude": -4.25513}, "roof": {"latitude": 55.862333, "longitude": -4.25513}}, "link": "/v3/places/5758817d498eee35ef6c2d0d", "location": {"address": "92 West George St", "admin_region": "Scotland", "country": "GB", "cross_street": "", "formatted_address": "92 West George St, Glasgow, G2 1PJ", "locality": "Glasgow", "post_town": "Glasgow", "postcode": "G2 1PJ"}, "name": "Shilling Brewing Co", "related_places": {}, "timezone": "Europe/London"}, {"fsq_id": "4b4df610f964a52050dc26e3", "categories": [{"id": 13007, "name": "Beer Garden", "short_name": "Beer Garden", "plural_name": "Beer Gardens", "icon": {"prefix": "https://ss3.4sqi.net/img/categories_v2/nightlife/beergarden_", "suffix": ".png"}}, {"id": 13018, "name": "Pub", "short_name": "Pub", "plural_name": "Pubs", "icon": {"prefix": "https://ss3.4sqi.net/img/categories_v2/nightlife/pub_", "suffix": ".png"}}, {"id": 13064, "name": "Pizzeria", "short_name": "Pizza", "plural_name": "Pizzerias", "icon": {"prefix": "https://ss3.4sqi.net/img/categories_v2/food/pizza_", "suffix": ".png"}}], "chains": [], "closed_bucket": "Unsure", "distance": 967, "geocodes": {"main": {"latitude": 55.860258, "longitude": -4.254576}, "roof": {"latitude": 55.860258, "longitude": -4.254576}}, "link": "/v3/places/4b4df610f964a52050dc26e3", "location": {"address": "9 Gordon St", "admin_region": "Scotland", "country": "GB", "cross_street": "", "formatted_address": "9 Gordon St, Glasgow, Glasgow City, G1 3PL", "locality": "Glasgow", "post_town": "Glasgow", "postcode": "G1 3PL", "region": "Glasgow City"}, "name": "Republic Bier Halle", "related_places": {}, "timezone": "Europe/London"}, {"fsq_id": "53220210498e48f21ce03d27", "categories": [{"id": 13018, "name": "Pub", "short_name": "Pub", "plural_name": "Pubs", "icon": {"prefix": "https://ss3.4sqi.net/img/categories_v2/nightlife/pub_", "suffix": ".png"}}, {"id": 10041, "name": "Rock Club", "short_name": "Rock Club", "plural_name": "Rock Clubs", "icon": {"prefix": "https://ss3.4sqi.net/img/categories_v2/arts_entertainment/musicvenue_rockclub_", "suffix": ".png"}}], "chains": [], "closed_bucket": "LikelyOpen", "distance": 873, "geocodes": {"drop_off": {"latitude": 55.864044, "longitude": -4.258178}, "main": {"latitude": 55.864162, "longitude": -4.258164}, "roof": {"latitude": 55.864162, "longitude": -4.258164}}, "link": "/v3/places/53220210498e48f21ce03d27", "location": {"address": "100 Bath St", "admin_region": "Scotland", "country": "GB", "cross_street": "", "formatted_address": "100 Bath St, Glasgow, Glasgow City, G2 2EN", "locality": "Glasgow", "post_town": "Glasgow", "postcode": "G2 2EN", "region": "Glasgow City"}, "name": "The Howlin' Wolf", "related_places": {}, "timezone": "Europe/London"}, {"fsq_id": "4b2bc508f964a52095ba24e3", "categories": [{"id": 10032, "name": "Night Club", "short_name": "Night Club", "plural_name": "Night Clubs", "icon": {"prefix": "https://ss3.4sqi.net/img/categories_v2/nightlife/nightclub_", "suffix": ".png"}}, {"id": 13003, "name": "Bar", "short_name": "Bar", "plural_name": "Bars", "icon": {"prefix": "https://ss3.4sqi.net/img/categories_v2/nightlife/pub_", "suffix": ".png"}}, {"id": 13065, "name": "Restaurant", "short_name": "Restaurant", "plural_name": "Restaurants", "icon": {"prefix": "https://ss3.4sqi.net/img/categories_v2/food/default_", "suffix": ".png"}}], "chains": [], "closed_bucket": "Unsure", "distance": 677, "geocodes": {"main": {"latitude": 55.865913, "longitude": -4.269046}, "roof": {"latitude": 55.865913, "longitude": -4.269046}}, "link": "/v3/places/4b2bc508f964a52095ba24e3", "location": {"address": "421 Sauchiehall St", "admin_region": "Scotland", "country": "GB", "formatted_address": "421 Sauchiehall St, Glasgow, G2 3LG", "locality": "Glasgow", "post_town": "Glasgow", "postcode": "G2 3LG"}, "name": "Nice N Sleazy", "related_places": {"children": []}, "timezone": "Europe/London"}, {"fsq_id": "5644eccf498e44610759212b", "categories": [{"id": 13006, "name": "Beer Bar", "short_name": "Beer Bar", "plural_name": "Beer Bars", "icon": {"prefix": "https://ss3.4sqi.net/img/categories_v2/nightlife/pub_", "suffix": ".png"}}, {"id": 13065, "name": "Restaurant", "short_name": "Restaurant", "plural_name": "Restaurants", "icon": {"prefix": "https://ss3.4sqi.net/img/categories_v2/food/default_", "suffix": ".png"}}], "chains": [], "closed_bucket": "VeryLikelyOpen", "distance": 638, "geocodes": {"main": {"latitude": 55.861276, "longitude": -4.259828}, "roof": {"latitude": 55.861276, "longitude": -4.259828}}, "link": "/v3/places/5644eccf498e44610759212b", "location": {"address": "30 Bothwell St", "admin_region": "Scotland", "country": "GB", "cross_street": "", "formatted_address": "30 Bothwell St, Glasgow, Glasgow City, G2 6NU", "locality": "Glasgow", "post_town": "Glasgow", "postcode": "G2 6NU", "region": "Glasgow City"}, "name": "Bavaria Brauhaus", "related_places": {}, "timezone": "Europe/London"}, {"fsq_id": "57e32fed498e1b7a265a1ad2", "categories": [{"id": 13064, "name": "Pizzeria", "short_name": "Pizza", "plural_name": "Pizzerias", "icon": {"prefix": "https://ss3.4sqi.net/img/categories_v2/food/pizza_", "suffix": ".png"}}], "chains": [], "closed_bucket": "LikelyOpen", "distance": 893, "geocodes": {"main": {"latitude": 55.861503, "longitude": -4.255841}, "roof": {"latitude": 55.861503, "longitude": -4.255841}}, "link": "/v3/places/57e32fed498e1b7a265a1ad2", "location": {"address": "90 St Vincent St", "admin_region": "Scotland", "country": "GB", "cross_street": "", "formatted_address": "90 St Vincent St, Glasgow, G2 5UB", "locality": "Glasgow", "post_town": "Glasgow", "postcode": "G2 5UB"}, "name": "Pizza Punks", "related_places": {}, "timezone": "Europe/London"}, {"fsq_id": "4b65dd17f964a520ac042be3", "categories": [{"id": 13009, "name": "Cocktail Bar", "short_name": "Cocktail", "plural_name": "Cocktail Bars", "icon": {"prefix": "https://ss3.4sqi.net/img/categories_v2/nightlife/cocktails_", "suffix": ".png"}}, {"id": 13057, "name": "Gastropub", "short_name": "Gastropub", "plural_name": "Gastropubs", "icon": {"prefix": "https://ss3.4sqi.net/img/categories_v2/food/gastropub_", "suffix": ".png"}}], "chains": [], "closed_bucket": "Unsure", "distance": 830, "geocodes": {"main": {"latitude": 55.864078, "longitude": -4.281817}, "roof": {"latitude": 55.864078, "longitude": -4.281817}}, "link": "/v3/places/4b65dd17f964a520ac042be3", "location": {"address": "1008 Argyle St", "admin_region": "Scotland", "country": "GB", "cross_street": "", "formatted_address": "1008 Argyle St, Glasgow, Glasgow City, G3 8LX", "locality": "Glasgow", "post_town": "Glasgow", "postcode": "G3 8LX", "region": "Glasgow City"}, "name": "Lebowskis", "related_places": {}, "timezone": "Europe/London"}, {"fsq_id": "4b684fb0f964a52011712be3", "categories": [{"id": 13263, "name": "Japanese Restaurant", "short_name": "Japanese", "plural_name": "Japanese Restaurants", "icon": {"prefix": "https://ss3.4sqi.net/img/categories_v2/food/japanese_", "suffix": ".png"}}], "chains": [], "closed_bucket": "VeryLikelyOpen", "distance": 944, "geocodes": {"main": {"latitude": 55.862103, "longitude": -4.255473}, "roof": {"latitude": 55.862103, "longitude": -4.255473}}, "link": "/v3/places/4b684fb0f964a52011712be3", "location": {"address": "97 West George St", "admin_region": "Scotland", "country": "GB", "formatted_address": "97 West George St, Glasgow, Glasgow City, G2 1PB", "locality": "Glasgow", "post_town": "Glasgow", "postcode": "G2 1PB", "region": "Glasgow City"}, "name": "Wagamama Glasgow City Centre", "related_places": {}, "timezone": "Europe/London"}, {"fsq_id": "594969cbd8fe7a1ba460161c", "categories": [{"id": 13288, "name": "Kebab Restaurant", "short_name": "Kebab", "plural_name": "Kebab Restaurants", "icon": {"prefix": "https://ss3.4sqi.net/img/categories_v2/food/middleeastern_", "suffix": ".png"}}, {"id": 13302, "name": "Mediterranean Restaurant", "short_name": "Mediterranean", "plural_name": "Mediterranean Restaurants", "icon": {"prefix": "https://ss3.4sqi.net/img/categories_v2/food/mediterranean_", "suffix": ".png"}}], "chains": [], "closed_bucket": "VeryLikelyOpen", "distance": 961, "geocodes": {"drop_off": {"latitude": 55.861804, "longitude": -4.255079}, "main": {"latitude": 55.861854, "longitude": -4.255221}, "roof": {"latitude": 55.861854, "longitude": -4.255221}}, "link": "/v3/places/594969cbd8fe7a1ba460161c", "location": {"address": "49 West Nile St", "admin_region": "Scotland", "country": "GB", "cross_street": "", "formatted_address": "49 West Nile St, Glasgow, Glasgow City, G1 2PT", "locality": "Glasgow", "post_town": "Glasgow", "postcode": "G1 2PT", "region": "Glasgow City"}, "name": "\u2019Babs", "related_places": {}, "timezone": "Europe/London"}, {"fsq_id": "5308d0cf498ed47c6be2359f", "categories": [{"id": 13065, "name": "Restaurant", "short_name": "Restaurant", "plural_name": "Restaurants", "icon": {"prefix": "https://ss3.4sqi.net/img/categories_v2/food/default_", "suffix": ".png"}}], "chains": [{"id": "2fceefe0-9c63-0132-6632-3c15c2dde6c8", "name": "Nando's"}], "closed_bucket": "VeryLikelyOpen", "distance": 731, "geocodes": {"main": {"latitude": 55.865258, "longitude": -4.262963}, "roof": {"latitude": 55.865258, "longitude": -4.262963}}, "link": "/v3/places/5308d0cf498ed47c6be2359f", "location": {"address": "263 Sauchiehall St", "admin_region": "Scotland", "country": "GB", "cross_street": "", "formatted_address": "263 Sauchiehall St, Glasgow, Glasgow City, G2 3EZ", "locality": "Glasgow", "post_town": "Glasgow", "postcode": "G2 3EZ", "region": "Glasgow City"}, "name": "Nando's", "related_places": {}, "timezone": "Europe/London"}, {"fsq_id": "4db2d7b65da3a76f441ad601", "categories": [{"id": 13034, "name": "Caf\u00e9", "short_name": "Caf\u00e9", "plural_name": "Caf\u00e9s", "icon": {"prefix": "https://ss3.4sqi.net/img/categories_v2/food/cafe_", "suffix": ".png"}}, {"id": 13036, "name": "Tea Room", "short_name": "Tea Room", "plural_name": "Tea Rooms", "icon": {"prefix": "https://ss3.4sqi.net/img/categories_v2/food/tearoom_", "suffix": ".png"}}, {"id": 13065, "name": "Restaurant", "short_name": "Restaurant", "plural_name": "Restaurants", "icon": {"prefix": "https://ss3.4sqi.net/img/categories_v2/food/default_", "suffix": ".png"}}], "chains": [], "closed_bucket": "Unsure", "distance": 990, "geocodes": {"main": {"latitude": 55.860052, "longitude": -4.2545}, "roof": {"latitude": 55.860052, "longitude": -4.2545}}, "link": "/v3/places/4db2d7b65da3a76f441ad601", "location": {"address": "97 Buchanan St", "admin_region": "Scotland", "country": "GB", "formatted_address": "97 Buchanan St, Glasgow, Glasgow City, G1 3HF", "locality": "Glasgow", "post_town": "Glasgow", "postcode": "G1 3HF", "region": "Glasgow City"}, "name": "Willow Tea Rooms", "related_places": {"children": []}, "timezone": "Europe/London"}, {"fsq_id": "4bc0841cf8219c7407a4b110", "categories": [{"id": 13025, "name": "Wine Bar", "short_name": "Wine Bar", "plural_name": "Wine Bars", "icon": {"prefix": "https://ss3.4sqi.net/img/categories_v2/food/winery_", "suffix": ".png"}}, {"id": 13065, "name": "Restaurant", "short_name": "Restaurant", "plural_name": "Restaurants", "icon": {"prefix": "https://ss3.4sqi.net/img/categories_v2/food/default_", "suffix": ".png"}}], "chains": [], "closed_bucket": "Unsure", "distance": 821, "geocodes": {"drop_off": {"latitude": 55.86418, "longitude": -4.259336}, "main": {"latitude": 55.864042, "longitude": -4.259352}, "roof": {"latitude": 55.864042, "longitude": -4.259352}}, "link": "/v3/places/4bc0841cf8219c7407a4b110", "location": {"address": "117 Bath St", "admin_region": "Scotland", "country": "GB", "formatted_address": "117 Bath St, Glasgow, Glasgow City, G2 2SZ", "locality": "Glasgow", "post_town": "Glasgow", "postcode": "G2 2SZ", "region": "Glasgow City"}, "name": "Bloc", "related_places": {}, "timezone": "Europe/London"}, {"fsq_id": "4ca0e56546978cfabaa2b77f", "categories": [{"id": 13199, "name": "Indian Restaurant", "short_name": "Indian", "plural_name": "Indian Restaurants", "icon": {"prefix": "https://ss3.4sqi.net/img/categories_v2/food/indian_", "suffix": ".png"}}], "chains": [], "closed_bucket": "VeryLikelyOpen", "distance": 633, "geocodes": {"main": {"latitude": 55.865158, "longitude": -4.273965}, "roof": {"latitude": 55.865158, "longitude": -4.273965}}, "link": "/v3/places/4ca0e56546978cfabaa2b77f", "location": {"address": "17 Granville St", "admin_region": "Scotland", "country": "GB", "cross_street": "", "formatted_address": "17 Granville St, Glasgow, Glasgow City, G3 7EE", "locality": "Glasgow", "post_town": "Glasgow", "postcode": "G3 7EE", "region": "Glasgow City"}, "name": "Shenaz", "related_places": {}, "timezone": "Europe/London"}, {"fsq_id": "5c02e01ad552c7002c2c58fc", "categories": [{"id": 13236, "name": "Italian Restaurant", "short_name": "Italian", "plural_name": "Italian Restaurants", "icon": {"prefix": "https://ss3.4sqi.net/img/categories_v2/food/italian_", "suffix": ".png"}}], "chains": [], "closed_bucket": "LikelyOpen", "distance": 896, "geocodes": {"drop_off": {"latitude": 55.86051, "longitude": -4.256066}, "main": {"latitude": 55.860648, "longitude": -4.25606}, "roof": {"latitude": 55.860648, "longitude": -4.25606}}, "link": "/v3/places/5c02e01ad552c7002c2c58fc", "location": {"address": "40 Gordon St", "admin_region": "Scotland", "country": "GB", "cross_street": "", "formatted_address": "40 Gordon St, Glasgow, Glasgow City, G1 3PU", "locality": "Glasgow", "post_town": "Glasgow", "postcode": "G1 3PU", "region": "Glasgow City"}, "name": "La Vita Spuntini", "related_places": {}, "timezone": "Europe/London"}, {"fsq_id": "59ef5c4a464d6574847a3e51", "categories": [{"id": 13068, "name": "American Restaurant", "short_name": "American", "plural_name": "American Restaurants", "icon": {"prefix": "https://ss3.4sqi.net/img/categories_v2/food/default_", "suffix": ".png"}}, {"id": 13145, "name": "Fast Food Restaurant", "short_name": "Fast Food", "plural_name": "Fast Food Restaurants", "icon": {"prefix": "https://ss3.4sqi.net/img/categories_v2/food/fastfood_", "suffix": ".png"}}, {"id": 13306, "name": "Taco Restaurant", "short_name": "Tacos", "plural_name": "Taco Restaurants", "icon": {"prefix": "https://ss3.4sqi.net/img/categories_v2/food/taco_", "suffix": ".png"}}], "chains": [], "closed_bucket": "LikelyOpen", "distance": 749, "geocodes": {"drop_off": {"latitude": 55.865116, "longitude": -4.262344}, "main": {"latitude": 55.865137, "longitude": -4.262329}, "roof": {"latitude": 55.865137, "longitude": -4.262329}}, "link": "/v3/places/59ef5c4a464d6574847a3e51", "location": {"address": "245 Sauchiehall St", "admin_region": "Scotland", "country": "GB", "cross_street": "", "formatted_address": "245 Sauchiehall St, Glasgow, Glasgow City, G2 3EZ", "locality": "Glasgow", "post_town": "Glasgow", "postcode": "G2 3EZ", "region": "Glasgow City"}, "name": "Taco Bell", "related_places": {}, "timezone": "Europe/London"}, {"fsq_id": "4d41b2e94acd236a9f7cfca9", "categories": [{"id": 13051, "name": "Fish and Chips Shop", "short_name": "Fish and Chips Shop", "plural_name": "Fish and Chips Shops", "icon": {"prefix": "https://ss3.4sqi.net/img/categories_v2/food/fishandchips_", "suffix": ".png"}}, {"id": 13145, "name": "Fast Food Restaurant", "short_name": "Fast Food", "plural_name": "Fast Food Restaurants", "icon": {"prefix": "https://ss3.4sqi.net/img/categories_v2/food/fastfood_", "suffix": ".png"}}, {"id": 13352, "name": "Thai Restaurant", "short_name": "Thai", "plural_name": "Thai Restaurants", "icon": {"prefix": "https://ss3.4sqi.net/img/categories_v2/food/thai_", "suffix": ".png"}}], "chains": [], "closed_bucket": "Unsure", "distance": 763, "geocodes": {"main": {"latitude": 55.858587, "longitude": -4.25803}, "roof": {"latitude": 55.858587, "longitude": -4.25803}}, "link": "/v3/places/4d41b2e94acd236a9f7cfca9", "location": {"address": "208 Argyle St", "admin_region": "Scotland", "country": "GB", "formatted_address": "208 Argyle St, Glasgow, Glasgow City, G2 8HA", "locality": "Glasgow", "post_town": "Glasgow", "postcode": "G2 8HA", "region": "Glasgow City"}, "name": "Blue Lagoon", "related_places": {}, "timezone": "Europe/London"}, {"fsq_id": "5bc0ebedb3d8e20039b42bc5", "categories": [{"id": 13065, "name": "Restaurant", "short_name": "Restaurant", "plural_name": "Restaurants", "icon": {"prefix": "https://ss3.4sqi.net/img/categories_v2/food/default_", "suffix": ".png"}}], "chains": [], "closed_bucket": "Unsure", "distance": 941, "geocodes": {"drop_off": {"latitude": 55.862229, "longitude": -4.255637}, "main": {"latitude": 55.862358, "longitude": -4.255621}, "roof": {"latitude": 55.862358, "longitude": -4.255621}}, "link": "/v3/places/5bc0ebedb3d8e20039b42bc5", "location": {"address": "100 West George St", "admin_region": "Scotland", "country": "GB", "cross_street": "", "formatted_address": "100 West George St, Glasgow, Glasgow City, G2 1PJ", "locality": "Glasgow", "post_town": "Glasgow", "postcode": "G2 1PJ", "region": "Glasgow City"}, "name": "Stack & Still", "related_places": {}, "timezone": "Europe/London"}, {"fsq_id": "513b8a7ee4b06b29ffe1c862", "categories": [{"id": 13199, "name": "Indian Restaurant", "short_name": "Indian", "plural_name": "Indian Restaurants", "icon": {"prefix": "https://ss3.4sqi.net/img/categories_v2/food/indian_", "suffix": ".png"}}], "chains": [], "closed_bucket": "VeryLikelyOpen", "distance": 938, "geocodes": {"drop_off": {"latitude": 55.863891, "longitude": -4.256875}, "main": {"latitude": 55.863761, "longitude": -4.25689}, "roof": {"latitude": 55.863761, "longitude": -4.25689}}, "link": "/v3/places/513b8a7ee4b06b29ffe1c862", "location": {"address": "61 Bath St", "admin_region": "Scotland", "country": "GB", "cross_street": "", "formatted_address": "61 Bath St, Glasgow, Glasgow City, G2 2DG", "locality": "Glasgow", "post_town": "Glasgow", "postcode": "G2 2DG", "region": "Glasgow City"}, "name": "Rishi's Indian Aroma", "related_places": {}, "timezone": "Europe/London"}, {"fsq_id": "596e6d68d48ec155ebe2eba6", "categories": [{"id": 13065, "name": "Restaurant", "short_name": "Restaurant", "plural_name": "Restaurants", "icon": {"prefix": "https://ss3.4sqi.net/img/categories_v2/food/default_", "suffix": ".png"}}], "chains": [], "closed_bucket": "VeryLikelyOpen", "distance": 97, "geocodes": {"main": {"latitude": 55.860033, "longitude": -4.268691}, "roof": {"latitude": 55.860033, "longitude": -4.268691}}, "link": "/v3/places/596e6d68d48ec155ebe2eba6", "location": {"address": "500 Argyle St", "admin_region": "Scotland", "country": "GB", "cross_street": "", "formatted_address": "500 Argyle St, Glasgow, Glasgow City, G3 8RR", "locality": "Glasgow", "post_town": "Glasgow", "postcode": "G3 8RR", "region": "Glasgow City"}, "name": "Cast Iron Grill", "related_places": {"parent": {"fsq_id": "4b76346af964a5201a432ee3", "categories": [{"id": 19014, "name": "Hotel", "short_name": "Hotel", "plural_name": "Hotels", "icon": {"prefix": "https://ss3.4sqi.net/img/categories_v2/travel/hotel_", "suffix": ".png"}}], "name": "Marriott Hotels & Resorts"}}, "timezone": "Europe/London"}, {"fsq_id": "4c2f3cf866e40f47117fc18b", "categories": [{"id": 13003, "name": "Bar", "short_name": "Bar", "plural_name": "Bars", "icon": {"prefix": "https://ss3.4sqi.net/img/categories_v2/nightlife/pub_", "suffix": ".png"}}, {"id": 13065, "name": "Restaurant", "short_name": "Restaurant", "plural_name": "Restaurants", "icon": {"prefix": "https://ss3.4sqi.net/img/categories_v2/food/default_", "suffix": ".png"}}], "chains": [], "closed_bucket": "VeryLikelyOpen", "distance": 954, "geocodes": {"main": {"latitude": 55.868415, "longitude": -4.273189}, "roof": {"latitude": 55.868415, "longitude": -4.273189}}, "link": "/v3/places/4c2f3cf866e40f47117fc18b", "location": {"address": "1 Lynedoch St", "admin_region": "Scotland", "country": "GB", "formatted_address": "1 Lynedoch St, Glasgow, Glasgow City, G3 6EF", "locality": "Glasgow", "post_town": "Glasgow", "postcode": "G3 6EF", "region": "Glasgow City"}, "name": "The Drake", "related_places": {}, "timezone": "Europe/London"}, {"fsq_id": "4b8e5f7df964a520851f33e3", "categories": [{"id": 13276, "name": "Sushi Restaurant", "short_name": "Sushi", "plural_name": "Sushi Restaurants", "icon": {"prefix": "https://ss3.4sqi.net/img/categories_v2/food/sushi_", "suffix": ".png"}}], "chains": [], "closed_bucket": "VeryLikelyOpen", "distance": 659, "geocodes": {"main": {"latitude": 55.865949, "longitude": -4.269328}, "roof": {"latitude": 55.865949, "longitude": -4.269328}}, "link": "/v3/places/4b8e5f7df964a520851f33e3", "location": {"address": "441 Sauchiehall St", "admin_region": "Scotland", "country": "GB", "formatted_address": "441 Sauchiehall St, Glasgow, Glasgow City, G2 3LG", "locality": "Glasgow", "post_town": "Glasgow", "postcode": "G2 3LG", "region": "Glasgow City"}, "name": "Nanakusa", "related_places": {}, "timezone": "Europe/London"}, {"fsq_id": "5515b46c498edbb34c84b689", "categories": [{"id": 13030, "name": "Buffet", "short_name": "Buffet", "plural_name": "Buffets", "icon": {"prefix": "https://ss3.4sqi.net/img/categories_v2/food/default_", "suffix": ".png"}}], "chains": [], "closed_bucket": "VeryLikelyOpen", "distance": 720, "geocodes": {"main": {"latitude": 55.853525, "longitude": -4.27196}, "roof": {"latitude": 55.853525, "longitude": -4.27196}}, "link": "/v3/places/5515b46c498edbb34c84b689", "location": {"address": "251 Paisley Rd", "admin_region": "Scotland", "country": "GB", "cross_street": "", "formatted_address": "251 Paisley Rd, Glasgow, G5 8RA", "locality": "Glasgow", "post_town": "Glasgow", "postcode": "G5 8RA"}, "name": "Cook & Indi's World Buffet", "related_places": {}, "timezone": "Europe/London"}, {"fsq_id": "59298d15780eee6f1f6d4af3", "categories": [{"id": 13032, "name": "Cafe, Coffee, and Tea House", "short_name": "Cafe, Coffee, and Tea House", "plural_name": "Cafes, Coffee, and Tea Houses", "icon": {"prefix": "https://ss3.4sqi.net/img/categories_v2/food/coffeeshop_", "suffix": ".png"}}, {"id": 13043, "name": "Donut Shop", "short_name": "Donuts", "plural_name": "Donut Shops", "icon": {"prefix": "https://ss3.4sqi.net/img/categories_v2/food/donuts_", "suffix": ".png"}}, {"id": 13065, "name": "Restaurant", "short_name": "Restaurant", "plural_name": "Restaurants", "icon": {"prefix": "https://ss3.4sqi.net/img/categories_v2/food/default_", "suffix": ".png"}}], "chains": [{"id": "d5719cc0-d890-0132-61d3-7a163eb2a6fc", "name": "Tim Hortons"}], "closed_bucket": "VeryLikelyOpen", "distance": 851, "geocodes": {"drop_off": {"latitude": 55.858351, "longitude": -4.256985}, "main": {"latitude": 55.858489, "longitude": -4.256975}, "roof": {"latitude": 55.858489, "longitude": -4.256975}}, "link": "/v3/places/59298d15780eee6f1f6d4af3", "location": {"address": "184 Argyle St", "admin_region": "Scotland", "country": "GB", "cross_street": "", "formatted_address": "184 Argyle St, Glasgow, Glasgow City, G2 8HA", "locality": "Glasgow", "post_town": "Glasgow", "postcode": "G2 8HA", "region": "Glasgow City"}, "name": "Tim Hortons", "related_places": {}, "timezone": "Europe/London"}, {"fsq_id": "4b4c7488f964a52065b326e3", "categories": [{"id": 13034, "name": "Caf\u00e9", "short_name": "Caf\u00e9", "plural_name": "Caf\u00e9s", "icon": {"prefix": "https://ss3.4sqi.net/img/categories_v2/food/cafe_", "suffix": ".png"}}, {"id": 13035, "name": "Coffee Shop", "short_name": "Coffee Shop", "plural_name": "Coffee Shops", "icon": {"prefix": "https://ss3.4sqi.net/img/categories_v2/food/coffeeshop_", "suffix": ".png"}}, {"id": 13334, "name": "Sandwich Spot", "short_name": "Sandwich Spot", "plural_name": "Sandwich Spots", "icon": {"prefix": "https://ss3.4sqi.net/img/categories_v2/food/deli_", "suffix": ".png"}}], "chains": [], "closed_bucket": "Unsure", "distance": 927, "geocodes": {"main": {"latitude": 55.862346, "longitude": -4.255831}, "roof": {"latitude": 55.862346, "longitude": -4.255831}}, "link": "/v3/places/4b4c7488f964a52065b326e3", "location": {"address": "110A West George St", "admin_region": "Scotland", "country": "GB", "formatted_address": "110A West George St, Glasgow, Glasgow City, G2 1QJ", "locality": "Glasgow", "post_town": "Glasgow", "postcode": "G2 1QJ", "region": "Glasgow City"}, "name": "Cafe Wander", "related_places": {}, "timezone": "Europe/London"}, {"fsq_id": "5660ab33498eb6bd97dbc68a", "categories": [{"id": 13003, "name": "Bar", "short_name": "Bar", "plural_name": "Bars", "icon": {"prefix": "https://ss3.4sqi.net/img/categories_v2/nightlife/pub_", "suffix": ".png"}}, {"id": 13337, "name": "Scottish Restaurant", "short_name": "Scottish", "plural_name": "Scottish Restaurants", "icon": {"prefix": "https://ss3.4sqi.net/img/categories_v2/food/default_", "suffix": ".png"}}, {"id": 13383, "name": "Steakhouse", "short_name": "Steakhouse", "plural_name": "Steakhouses", "icon": {"prefix": "https://ss3.4sqi.net/img/categories_v2/food/steakhouse_", "suffix": ".png"}}], "chains": [], "closed_bucket": "VeryLikelyOpen", "distance": 612, "geocodes": {"main": {"latitude": 55.865054, "longitude": -4.265621}, "roof": {"latitude": 55.865054, "longitude": -4.265621}}, "link": "/v3/places/5660ab33498eb6bd97dbc68a", "location": {"address": "244A Bath St", "admin_region": "Scotland", "country": "GB", "cross_street": "", "formatted_address": "244A Bath St, Glasgow, G2 4JW", "locality": "Glasgow", "post_town": "Glasgow", "postcode": "G2 4JW"}, "name": "Mini Grill", "related_places": {}, "timezone": "Europe/London"}, {"fsq_id": "4b856efdf964a5209b5d31e3", "categories": [{"id": 13018, "name": "Pub", "short_name": "Pub", "plural_name": "Pubs", "icon": {"prefix": "https://ss3.4sqi.net/img/categories_v2/nightlife/pub_", "suffix": ".png"}}, {"id": 13065, "name": "Restaurant", "short_name": "Restaurant", "plural_name": "Restaurants", "icon": {"prefix": "https://ss3.4sqi.net/img/categories_v2/food/default_", "suffix": ".png"}}], "chains": [], "closed_bucket": "Unsure", "distance": 863, "geocodes": {"main": {"latitude": 55.861358, "longitude": -4.256537}, "roof": {"latitude": 55.861358, "longitude": -4.256537}}, "link": "/v3/places/4b856efdf964a5209b5d31e3", "location": {"address": "91 St. Vincent St", "admin_region": "Scotland", "country": "GB", "formatted_address": "91 St. Vincent St, Glasgow, Glasgow City, G2 5TF", "locality": "Glasgow", "post_town": "Glasgow", "postcode": "G2 5TF", "region": "Glasgow City"}, "name": "Drum & Monkey", "related_places": {}, "timezone": "Europe/London"}, {"fsq_id": "5851b284d21e030e684bcabc", "categories": [{"id": 13135, "name": "Cuban Restaurant", "short_name": "Cuban", "plural_name": "Cuban Restaurants", "icon": {"prefix": "https://ss3.4sqi.net/img/categories_v2/food/cuban_", "suffix": ".png"}}, {"id": 13009, "name": "Cocktail Bar", "short_name": "Cocktail", "plural_name": "Cocktail Bars", "icon": {"prefix": "https://ss3.4sqi.net/img/categories_v2/nightlife/cocktails_", "suffix": ".png"}}], "chains": [], "closed_bucket": "VeryLikelyOpen", "distance": 880, "geocodes": {"main": {"latitude": 55.861843, "longitude": -4.256342}, "roof": {"latitude": 55.861843, "longitude": -4.256342}}, "link": "/v3/places/5851b284d21e030e684bcabc", "location": {"address": "36 Renfield St", "admin_region": "Scotland", "country": "GB", "cross_street": "", "formatted_address": "36 Renfield St, Glasgow, Glasgow City, G2 1LU", "locality": "Glasgow", "post_town": "Glasgow", "postcode": "G2 1LU", "region": "Glasgow City"}, "name": "Revoluci\u00f3n de Cuba Glasgow", "related_places": {}, "timezone": "Europe/London"}, {"fsq_id": "62bb356216142710197291d0", "categories": [{"id": 13035, "name": "Coffee Shop", "short_name": "Coffee Shop", "plural_name": "Coffee Shops", "icon": {"prefix": "https://ss3.4sqi.net/img/categories_v2/food/coffeeshop_", "suffix": ".png"}}, {"id": 13065, "name": "Restaurant", "short_name": "Restaurant", "plural_name": "Restaurants", "icon": {"prefix": "https://ss3.4sqi.net/img/categories_v2/food/default_", "suffix": ".png"}}], "chains": [], "closed_bucket": "LikelyOpen", "distance": 788, "geocodes": {"drop_off": {"latitude": 55.86525, "longitude": -4.261972}, "main": {"latitude": 55.865421, "longitude": -4.261952}, "roof": {"latitude": 55.865421, "longitude": -4.261952}}, "link": "/v3/places/62bb356216142710197291d0", "location": {"address": "254 Sauchiehall St", "admin_region": "Scotland", "country": "GB", "cross_street": "", "formatted_address": "254 Sauchiehall St, Glasgow, Glasgow City, G2 3EH", "locality": "Glasgow", "post_town": "Glasgow", "postcode": "G2 3EH", "region": "Glasgow City"}, "name": "Black Sheep Coffee - Sauchiehall Street", "related_places": {}, "timezone": "Europe/London"}, {"fsq_id": "4b0e7c03f964a520e65723e3", "categories": [{"id": 13314, "name": "New American Restaurant", "short_name": "New American", "plural_name": "New American Restaurants", "icon": {"prefix": "https://ss3.4sqi.net/img/categories_v2/food/newamerican_", "suffix": ".png"}}], "chains": [], "closed_bucket": "Unsure", "distance": 988, "geocodes": {"drop_off": {"latitude": 55.861124, "longitude": -4.253798}, "main": {"latitude": 55.860476, "longitude": -4.254443}, "roof": {"latitude": 55.860476, "longitude": -4.254443}}, "link": "/v3/places/4b0e7c03f964a520e65723e3", "location": {"address": "113 Buchanan St", "admin_region": "Scotland", "country": "GB", "cross_street": "Gordon St", "formatted_address": "113 Buchanan St (Gordon St), Glasgow, Glasgow City, G1 3HF", "locality": "Glasgow", "post_town": "Glasgow", "postcode": "G1 3HF", "region": "Glasgow City"}, "name": "TGI Fridays", "related_places": {}, "timezone": "Europe/London"}, {"fsq_id": "4c1f634c920076b0f4a3c4e9", "categories": [{"id": 13018, "name": "Pub", "short_name": "Pub", "plural_name": "Pubs", "icon": {"prefix": "https://ss3.4sqi.net/img/categories_v2/nightlife/pub_", "suffix": ".png"}}], "chains": [], "closed_bucket": "LikelyOpen", "distance": 989, "geocodes": {"main": {"latitude": 55.856685, "longitude": -4.255344}, "roof": {"latitude": 55.856685, "longitude": -4.255344}}, "link": "/v3/places/4c1f634c920076b0f4a3c4e9", "location": {"address": "40 Howard St", "admin_region": "Scotland", "country": "GB", "formatted_address": "40 Howard St, Glasgow, G1 4EE", "locality": "Glasgow", "post_town": "Glasgow", "postcode": "G1 4EE"}, "name": "Hootenanny", "related_places": {}, "timezone": "Europe/London"}, {"fsq_id": "4b894198f964a520602632e3", "categories": [{"id": 13018, "name": "Pub", "short_name": "Pub", "plural_name": "Pubs", "icon": {"prefix": "https://ss3.4sqi.net/img/categories_v2/nightlife/pub_", "suffix": ".png"}}, {"id": 13057, "name": "Gastropub", "short_name": "Gastropub", "plural_name": "Gastropubs", "icon": {"prefix": "https://ss3.4sqi.net/img/categories_v2/food/gastropub_", "suffix": ".png"}}], "chains": [{"id": "07841cd9-3716-4bd6-8ebd-ad13070b3125", "name": "J D Wetherspoon"}], "closed_bucket": "VeryLikelyOpen", "distance": 648, "geocodes": {"main": {"latitude": 55.858831, "longitude": -4.260209}, "roof": {"latitude": 55.858831, "longitude": -4.260209}}, "link": "/v3/places/4b894198f964a520602632e3", "location": {"address": "260-292 Argyle St", "admin_region": "Scotland", "country": "GB", "formatted_address": "260-292 Argyle St, Glasgow, Glasgow City, G2 8QW", "locality": "Glasgow", "post_town": "Glasgow", "postcode": "G2 8QW", "region": "Glasgow City"}, "name": "The Sir John Moore", "related_places": {}, "timezone": "Europe/London"}, {"fsq_id": "57c9a370498e646cd0826aa1", "categories": [{"id": 13003, "name": "Bar", "short_name": "Bar", "plural_name": "Bars", "icon": {"prefix": "https://ss3.4sqi.net/img/categories_v2/nightlife/pub_", "suffix": ".png"}}, {"id": 13055, "name": "Fried Chicken Joint", "short_name": "Fried Chicken", "plural_name": "Fried Chicken Joints", "icon": {"prefix": "https://ss3.4sqi.net/img/categories_v2/food/friedchicken_", "suffix": ".png"}}], "chains": [], "closed_bucket": "LikelyOpen", "distance": 752, "geocodes": {"main": {"latitude": 55.863345, "longitude": -4.259576}, "roof": {"latitude": 55.863345, "longitude": -4.259576}}, "link": "/v3/places/57c9a370498e646cd0826aa1", "location": {"address": "111 West Regent St", "admin_region": "Scotland", "country": "GB", "cross_street": "", "formatted_address": "111 West Regent St, Glasgow, Glasgow City, G2 2RU", "locality": "Glasgow", "post_town": "Glasgow", "postcode": "G2 2RU", "region": "Glasgow City"}, "name": "Buck's Bar", "related_places": {}, "timezone": "Europe/London"}, {"fsq_id": "512e5e4ee4b02c71f957e6e6", "categories": [{"id": 13003, "name": "Bar", "short_name": "Bar", "plural_name": "Bars", "icon": {"prefix": "https://ss3.4sqi.net/img/categories_v2/nightlife/pub_", "suffix": ".png"}}, {"id": 13065, "name": "Restaurant", "short_name": "Restaurant", "plural_name": "Restaurants", "icon": {"prefix": "https://ss3.4sqi.net/img/categories_v2/food/default_", "suffix": ".png"}}], "chains": [], "closed_bucket": "LikelyOpen", "distance": 892, "geocodes": {"main": {"latitude": 55.862462, "longitude": -4.256571}, "roof": {"latitude": 55.862462, "longitude": -4.256571}}, "link": "/v3/places/512e5e4ee4b02c71f957e6e6", "location": {"address": "134-136 West George St", "admin_region": "Scotland", "country": "GB", "cross_street": "", "formatted_address": "134-136 West George St, Glasgow, Glasgow City, G2 2HG", "locality": "Glasgow", "post_town": "Glasgow", "postcode": "G2 2HG", "region": "Glasgow City"}, "name": "The Merchant", "related_places": {}, "timezone": "Europe/London"}, {"fsq_id": "53776f4d498e2945af514bd4", "categories": [{"id": 13314, "name": "New American Restaurant", "short_name": "New American", "plural_name": "New American Restaurants", "icon": {"prefix": "https://ss3.4sqi.net/img/categories_v2/food/newamerican_", "suffix": ".png"}}, {"id": 13317, "name": "Persian Restaurant", "short_name": "Persian", "plural_name": "Persian Restaurants", "icon": {"prefix": "https://ss3.4sqi.net/img/categories_v2/food/middleeastern_", "suffix": ".png"}}], "chains": [], "closed_bucket": "VeryLikelyOpen", "distance": 801, "geocodes": {"main": {"latitude": 55.853483, "longitude": -4.264391}, "roof": {"latitude": 55.853483, "longitude": -4.264391}}, "link": "/v3/places/53776f4d498e2945af514bd4", "location": {"address": "146-148 Nelson St", "admin_region": "Scotland", "country": "GB", "cross_street": "", "formatted_address": "146-148 Nelson St, Glasgow", "locality": "Glasgow", "post_town": "Glasgow"}, "name": "Sholeh Persian Restaurant", "related_places": {}, "timezone": "Europe/London"}], "context": {"geo_bounds": {"circle": {"center": {"latitude": 55.859996, "longitude": -4.270163}, "radius": 1000}}}}