{"results": [{"fsq_id": "4cea7de2948f224b84bffb5d", "categories": [{"id": 13145, "name": "Fast Food Restaurant", "short_name": "Fast Food", "plural_name": "Fast Food Restaurants", "icon": {"prefix": "https://ss3.4sqi.net/img/categories_v2/food/fastfood_", "suffix": ".png"}}, {"id": 13334, "name": "Sandwich Spot", "short_name": "Sandwich Spot", "plural_name": "Sandwich Spots", "icon": {"prefix": "https://ss3.4sqi.net/img/categories_v2/food/deli_", "suffix": ".png"}}], "chains": [], "closed_bucket": "LikelyOpen", "distance": 842, "geocodes": {"main": {"latitude": 55.851731, "longitude": -4.294121}, "roof": {"latitude": 55.851731, "longitude": -4.294121}}, "link": "/v3/places/4cea7de2948f224b84bffb5d", "location": {"address": "383 Paisley Rd West", "admin_region": "Scotland", "country": "GB", "cross_street": "", "formatted_address": "383 Paisley Rd West, Glasgow, Glasgow City, G51 1LR", "locality": "Glasgow", "post_town": "Glasgow", "postcode": "G51 1LR", "region": "Glasgow City"}, "name": "Bite Me Sandwich Bar", "related_places": {}, "timezone": "Europe/London"}, {"fsq_id": "4cc6bd4201fb236af8b7b8ba", "categories": [{"id": 13039, "name": "Deli", "short_name": "Deli", "plural_name": "Delis", "icon": {"prefix": "https://ss3.4sqi.net/img/categories_v2/food/deli_", "suffix": ".png"}}, {"id": 13145, "name": "Fast Food Restaurant", "short_name": "Fast Food", "plural_name": "Fast Food Restaurants", "icon": {"prefix": "https://ss3.4sqi.net/img/categories_v2/food/fastfood_", "suffix": ".png"}}, {"id": 13334, "name": "Sandwich Spot", "short_name": "Sandwich Spot", "plural_name": "Sandwich Spots", "icon": {"prefix": "https://ss3.4sqi.net/img/categories_v2/food/deli_", "suffix": ".png"}}], "chains": [{"id": "ab4bee40-d68a-012e-5619-003048cad9da", "name": "Subway"}], "closed_bucket": "VeryLikelyOpen", "distance": 778, "geocodes": {"main": {"latitude": 55.842422, "longitude": -4.275403}, "roof": {"latitude": 55.842422, "longitude": -4.275403}}, "link": "/v3/places/4cc6bd4201fb236af8b7b8ba", "location": {"address": "38 Herriet St", "admin_region": "Scotland", "country": "GB", "cross_street": "at Albert Dr.", "formatted_address": "38 Herriet St (at Albert Dr.), Glasgow, G41 2JY", "locality": "Glasgow", "post_town": "Glasgow", "postcode": "G41 2JY"}, "name": "Subway", "related_places": {}, "timezone": "Europe/London"}, {"fsq_id": "4cb44e701168a093a1764723", "categories": [{"id": 13072, "name": "Asian Restaurant", "short_name": "Asian", "plural_name": "Asian Restaurants", "icon": {"prefix": "https://ss3.4sqi.net/img/categories_v2/food/asian_", "suffix": ".png"}}], "chains": [], "closed_bucket": "VeryLikelyOpen", "distance": 521, "geocodes": {"drop_off": {"latitude": 55.849754, "longitude": -4.29029}, "main": {"latitude": 55.84958, "longitude": -4.290269}, "roof": {"latitude": 55.84958, "longitude": -4.290269}}, "link": "/v3/places/4cb44e701168a093a1764723", "location": {"address": "MacLellan St", "admin_region": "Scotland", "country": "GB", "cross_street": "maclellan st", "formatted_address": "MacLellan St (maclellan st), Kinning Park, Glasgow City, G41 1RR", "locality": "Kinning Park", "post_town": "Glasgow", "postcode": "G41 1RR", "region": "Glasgow City"}, "name": "Pakora Junction Snack Bar", "related_places": {}, "timezone": "Europe/London"}, {"fsq_id": "531f79b9498ef8bf7eb56496", "categories": [{"id": 13072, "name": "Asian Restaurant", "short_name": "Asian", "plural_name": "Asian Restaurants", "icon": {"prefix": "https://ss3.4sqi.net/img/categories_v2/food/asian_", "suffix": ".png"}}], "chains": [], "closed_bucket": "VeryLikelyOpen", "distance": 575, "geocodes": {"main": {"latitude": 55.849454, "longitude": -4.292473}, "roof": {"latitude": 55.849454, "longitude": -4.292473}}, "link": "/v3/places/531f79b9498ef8bf7eb56496", "location": {"address": "562 Dumbarton Rd", "country": "GB", "cross_street": "", "formatted_address": "562 Dumbarton Rd, Glasgow, Glasgow City", "locality": "Glasgow", "post_town": "Glasgow", "region": "Glasgow City"}, "name": "The Pacific Bar & Kitsch Inn", "related_places": {}, "timezone": "Europe/London"}, {"fsq_id": "4f228a3b7bebea45094bede7", "categories": [{"id": 11130, "name": "Office Building", "short_name": "Office Building", "plural_name": "Office Buildings", "icon": {"prefix": "https://ss3.4sqi.net/img/categories_v2/building/default_", "suffix": ".png"}}, {"id": 13065, "name": "Restaurant", "short_name": "Restaurant", "plural_name": "Restaurants", "icon": {"prefix": "https://ss3.4sqi.net/img/categories_v2/food/default_", "suffix": ".png"}}], "chains": [], "closed_bucket": "VeryLikelyOpen", "distance": 657, "geocodes": {"main": {"latitude": 55.851991, "longitude": -4.282215}, "roof": {"latitude": 55.851991, "longitude": -4.282215}}, "link": "/v3/places/4f228a3b7bebea45094bede7", "location": {"address": "43 Middlesex St", "admin_region": "Scotland", "country": "GB", "cross_street": "at Milnpark Street", "formatted_address": "43 Middlesex St (at Milnpark Street), Glasgow, Glasgow City, G41 1EE", "locality": "Glasgow", "post_town": "Glasgow", "postcode": "G41 1EE", "region": "Glasgow City"}, "name": "TouchBase Business Centre", "related_places": {"children": [{"fsq_id": "5ef9d3ccf272db0008e1ff49", "categories": [{"id": 12055, "name": "Nursery School", "short_name": "Nursery School", "plural_name": "Nursery Schools", "icon": {"prefix": "https://ss3.4sqi.net/img/categories_v2/building/school_", "suffix": ".png"}}], "name": "Hide and Seek"}]}, "timezone": "Europe/London"}, {"fsq_id": "d518245c96e64cda1ce524ad", "categories": [{"id": 13035, "name": "Coffee Shop", "short_name": "Coffee Shop", "plural_name": "Coffee Shops", "icon": {"prefix": "https://ss3.4sqi.net/img/categories_v2/food/coffeeshop_", "suffix": ".png"}}, {"id": 13065, "name": "Restaurant", "short_name": "Restaurant", "plural_name": "Restaurants", "icon": {"prefix": "https://ss3.4sqi.net/img/categories_v2/food/default_", "suffix": ".png"}}], "chains": [], "closed_bucket": "LikelyOpen", "distance": 698, "geocodes": {"drop_off": {"latitude": 55.851234, "longitude": -4.281636}, "main": {"latitude": 55.851268, "longitude": -4.281947}, "roof": {"latitude": 55.851268, "longitude": -4.281947}}, "link": "/v3/places/d518245c96e64cda1ce524ad", "location": {"address": "120 Portman St", "admin_region": "Scotland", "country": "GB", "formatted_address": "120 Portman St, Glasgow, Glasgow City, G41 1EJ", "locality": "Glasgow", "post_town": "Glasgow", "postcode": "G41 1EJ", "region": "Glasgow City"}, "name": "Cafe Unique", "related_places": {}, "timezone": "Europe/London"}, {"fsq_id": "6eaa13dcc4144b81503d6190", "categories": [{"id": 13065, "name": "Restaurant", "short_name": "Restaurant", "plural_name": "Restaurants", "icon": {"prefix": "https://ss3.4sqi.net/img/categories_v2/food/default_", "suffix": ".png"}}], "chains": [], "closed_bucket": "LikelyOpen", "distance": 724, "geocodes": {"drop_off": {"latitude": 55.8457, "longitude": -4.275152}, "main": {"latitude": 55.845614, "longitude": -4.274871}, "roof": {"latitude": 55.845614, "longitude": -4.274871}}, "link": "/v3/places/6eaa13dcc4144b81503d6190", "location": {"address": "407 Shields Rd", "admin_region": "Scotland", "country": "GB", "formatted_address": "407 Shields Rd, Glasgow, Glasgow City, G41 1NY", "locality": "Glasgow", "post_town": "Glasgow", "postcode": "G41 1NY", "region": "Glasgow City"}, "name": "Jay's Gelato", "related_places": {}, "timezone": "Europe/London"}, {"fsq_id": "4bc070def8219c74008bb110", "categories": [{"id": 13003, "name": "Bar", "short_name": "Bar", "plural_name": "Bars", "icon": {"prefix": "https://ss3.4sqi.net/img/categories_v2/nightlife/pub_", "suffix": ".png"}}], "chains": [], "closed_bucket": "VeryLikelyOpen", "distance": 754, "geocodes": {"main": {"latitude": 55.852279, "longitude": -4.287304}, "roof": {"latitude": 55.852279, "longitude": -4.287304}}, "link": "/v3/places/4bc070def8219c74008bb110", "location": {"country": "GB", "cross_street": "", "formatted_address": ""}, "name": "Bellrock", "related_places": {}, "timezone": "Europe/London"}, {"fsq_id": "4f846259e4b0422a017948aa", "categories": [{"id": 13145, "name": "Fast Food Restaurant", "short_name": "Fast Food", "plural_name": "Fast Food Restaurants", "icon": {"prefix": "https://ss3.4sqi.net/img/categories_v2/food/fastfood_", "suffix": ".png"}}], "chains": [], "closed_bucket": "LikelyOpen", "distance": 775, "geocodes": {"main": {"latitude": 55.852486, "longitude": -4.288292}, "roof": {"latitude": 55.852486, "longitude": -4.288292}}, "link": "/v3/places/4f846259e4b0422a017948aa", "location": {"address": "240-242 Paisley Rd West", "admin_region": "Scotland", "country": "GB", "cross_street": "", "formatted_address": "240-242 Paisley Rd West, Glasgow, G51 1BU", "locality": "Glasgow", "post_town": "Glasgow", "postcode": "G51 1BU"}, "name": "Chicken Choice", "related_places": {}, "timezone": "Europe/London"}, {"fsq_id": "4cc33346c844721e649ce101", "categories": [{"id": 13018, "name": "Pub", "short_name": "Pub", "plural_name": "Pubs", "icon": {"prefix": "https://ss3.4sqi.net/img/categories_v2/nightlife/pub_", "suffix": ".png"}}], "chains": [], "closed_bucket": "LikelyOpen", "distance": 776, "geocodes": {"main": {"latitude": 55.852528, "longitude": -4.287558}, "roof": {"latitude": 55.852528, "longitude": -4.287558}}, "link": "/v3/places/4cc33346c844721e649ce101", "location": {"address": "218 Paisley Rd West", "admin_region": "Scotland", "country": "GB", "cross_street": "", "formatted_address": "218 Paisley Rd West, Glasgow, G51 1BU", "locality": "Glasgow", "post_town": "Glasgow", "postcode": "G51 1BU"}, "name": "The Grapes Bar", "related_places": {}, "timezone": "Europe/London"}, {"fsq_id": "376e88c8c554702816cfd2e5", "categories": [{"id": 13324, "name": "Polish Restaurant", "short_name": "Polish", "plural_name": "Polish Restaurants", "icon": {"prefix": "https://ss3.4sqi.net/img/categories_v2/food/default_", "suffix": ".png"}}], "chains": [], "closed_bucket": "VeryLikelyOpen", "distance": 788, "geocodes": {"drop_off": {"latitude": 55.852573, "longitude": -4.288494}, "main": {"latitude": 55.852547, "longitude": -4.288154}, "roof": {"latitude": 55.852547, "longitude": -4.288154}}, "link": "/v3/places/376e88c8c554702816cfd2e5", "location": {"address": "8 Lorne St", "country": "GB", "formatted_address": "8 Lorne St, Glasgow, Glasgow City", "locality": "Glasgow", "post_town": "Glasgow", "region": "Glasgow City"}, "name": "U Piecyka Calisia Food", "related_places": {}, "timezone": "Europe/London"}, {"fsq_id": "4be1ccf04283c9b6808954f8", "categories": [{"id": 13010, "name": "Dive Bar", "short_name": "Dive Bar", "plural_name": "Dive Bars", "icon": {"prefix": "https://ss3.4sqi.net/img/categories_v2/nightlife/divebar_", "suffix": ".png"}}], "chains": [], "closed_bucket": "LikelyOpen", "distance": 789, "geocodes": {"main": {"latitude": 55.85242, "longitude": -4.289446}, "roof": {"latitude": 55.85242, "longitude": -4.289446}}, "link": "/v3/places/4be1ccf04283c9b6808954f8", "location": {"address": "252 Paisley Rd West", "admin_region": "Scotland", "country": "GB", "cross_street": "", "formatted_address": "252 Paisley Rd West, Glasgow, Glasgow City, G51 1BS", "locality": "Glasgow", "post_town": "Glasgow", "postcode": "G51 1BS", "region": "Glasgow City"}, "name": "District Bar", "related_places": {}, "timezone": "Europe/London"}, {"fsq_id": "5cf432ea3ba767002c80dc9e", "categories": [{"id": 13064, "name": "Pizzeria", "short_name": "Pizza", "plural_name": "Pizzerias", "icon": {"prefix": "https://ss3.4sqi.net/img/categories_v2/food/pizza_", "suffix": ".png"}}, {"id": 13145, "name": "Fast Food Restaurant", "short_name": "Fast Food", "plural_name": "Fast Food Restaurants", "icon": {"prefix": "https://ss3.4sqi.net/img/categories_v2/food/fastfood_", "suffix": ".png"}}], "chains": [], "closed_bucket": "LikelyOpen", "distance": 800, "geocodes": {"drop_off": {"latitude": 55.85202, "longitude": -4.292314}, "main": {"latitude": 55.851887, "longitude": -4.292303}, "roof": {"latitude": 55.851887, "longitude": -4.292303}}, "link": "/v3/places/5cf432ea3ba767002c80dc9e", "location": {"address": "337 Paisley Rd West", "admin_region": "Scotland", "country": "GB", "cross_street": "", "formatted_address": "337 Paisley Rd West, Glasgow, Glasgow City, G51 1LU", "locality": "Glasgow", "post_town": "Glasgow", "postcode": "G51 1LU", "region": "Glasgow City"}, "name": "Boston Burgers & Pizzeria", "related_places": {}, "timezone": "Europe/London"}, {"fsq_id": "5c1ce80c1c9e2e00250606e4", "categories": [{"id": 13309, "name": "Middle Eastern Restaurant", "short_name": "Middle Eastern", "plural_name": "Middle Eastern Restaurants", "icon": {"prefix": "https://ss3.4sqi.net/img/categories_v2/food/middleeastern_", "suffix": ".png"}}], "chains": [], "closed_bucket": "VeryLikelyOpen", "distance": 810, "geocodes": {"drop_off": {"latitude": 55.851991, "longitude": -4.292666}, "main": {"latitude": 55.851815, "longitude": -4.292651}, "roof": {"latitude": 55.851815, "longitude": -4.292651}}, "link": "/v3/places/5c1ce80c1c9e2e00250606e4", "location": {"admin_region": "Scotland", "country": "GB", "cross_street": "", "formatted_address": "Glasgow, Glasgow City, G51 1LX", "locality": "Glasgow", "post_town": "Glasgow", "postcode": "G51 1LX", "region": "Glasgow City"}, "name": "Shawarma Grill", "related_places": {}, "timezone": "Europe/London"}, {"fsq_id": "4fbfdf85e4b099ce168b3f65", "categories": [{"id": 13145, "name": "Fast Food Restaurant", "short_name": "Fast Food", "plural_name": "Fast Food Restaurants", "icon": {"prefix": "https://ss3.4sqi.net/img/categories_v2/food/fastfood_", "suffix": ".png"}}], "chains": [], "closed_bucket": "VeryLikelyOpen", "distance": 820, "geocodes": {"drop_off": {"latitude": 55.851986, "longitude": -4.292733}, "main": {"latitude": 55.851863, "longitude": -4.292723}, "roof": {"latitude": 55.851863, "longitude": -4.292723}}, "link": "/v3/places/4fbfdf85e4b099ce168b3f65", "location": {"address": "351 Paisley Rd West", "admin_region": "Scotland", "country": "GB", "cross_street": "", "formatted_address": "351 Paisley Rd West, Glasgow, Glasgow City, G51 1LX", "locality": "Glasgow", "post_town": "Glasgow", "postcode": "G51 1LX", "region": "Glasgow City"}, "name": "Lisbon, the Home of Peri Peri Chicken", "related_places": {}, "timezone": "Europe/London"}, {"fsq_id": "4e46da29d22d12b08bc78d80", "categories": [{"id": 13064, "name": "Pizzeria", "short_name": "Pizza", "plural_name": "Pizzerias", "icon": {"prefix": "https://ss3.4sqi.net/img/categories_v2/food/pizza_", "suffix": ".png"}}, {"id": 13145, "name": "Fast Food Restaurant", "short_name": "Fast Food", "plural_name": "Fast Food Restaurants", "icon": {"prefix": "https://ss3.4sqi.net/img/categories_v2/food/fastfood_", "suffix": ".png"}}, {"id": 13199, "name": "Indian Restaurant", "short_name": "Indian", "plural_name": "Indian Restaurants", "icon": {"prefix": "https://ss3.4sqi.net/img/categories_v2/food/indian_", "suffix": ".png"}}], "chains": [], "closed_bucket": "VeryLikelyOpen", "distance": 831, "geocodes": {"main": {"latitude": 55.842585, "longitude": -4.274392}, "roof": {"latitude": 55.842585, "longitude": -4.274392}}, "link": "/v3/places/4e46da29d22d12b08bc78d80", "location": {"address": "246 Albert Dr", "admin_region": "Scotland", "country": "GB", "cross_street": "", "formatted_address": "246 Albert Dr, Glasgow, Glasgow City, G41 2NL", "locality": "Glasgow", "post_town": "Glasgow", "postcode": "G41 2NL", "region": "Glasgow City"}, "name": "Rajas", "related_places": {}, "timezone": "Europe/London"}, {"fsq_id": "4eff394ac2ee2cc870ce8727", "categories": [{"id": 13099, "name": "Chinese Restaurant", "short_name": "Chinese", "plural_name": "Chinese Restaurants", "icon": {"prefix": "https://ss3.4sqi.net/img/categories_v2/food/asian_", "suffix": ".png"}}, {"id": 13145, "name": "Fast Food Restaurant", "short_name": "Fast Food", "plural_name": "Fast Food Restaurants", "icon": {"prefix": "https://ss3.4sqi.net/img/categories_v2/food/fastfood_", "suffix": ".png"}}], "chains": [], "closed_bucket": "Unsure", "distance": 832, "geocodes": {"main": {"latitude": 55.852801, "longitude": -4.288302}, "roof": {"latitude": 55.852801, "longitude": -4.288302}}, "link": "/v3/places/4eff394ac2ee2cc870ce8727", "location": {"address": "12 Lorne St", "admin_region": "Scotland", "country": "GB", "formatted_address": "12 Lorne St, Glasgow, Glasgow City, G51 1DP", "locality": "Glasgow", "post_town": "Glasgow", "postcode": "G51 1DP", "region": "Glasgow City"}, "name": "Golden City", "related_places": {}, "timezone": "Europe/London"}, {"fsq_id": "5bbcfcef811045002c628760", "categories": [{"id": 13099, "name": "Chinese Restaurant", "short_name": "Chinese", "plural_name": "Chinese Restaurants", "icon": {"prefix": "https://ss3.4sqi.net/img/categories_v2/food/asian_", "suffix": ".png"}}], "chains": [], "closed_bucket": "VeryLikelyOpen", "distance": 842, "geocodes": {"main": {"latitude": 55.851731, "longitude": -4.294121}, "roof": {"latitude": 55.851731, "longitude": -4.294121}}, "link": "/v3/places/5bbcfcef811045002c628760", "location": {"address": "387 Paisley Rd West", "admin_region": "Scotland", "country": "GB", "cross_street": "", "formatted_address": "387 Paisley Rd West, Glasgow, Glasgow City, G51 1LB", "locality": "Glasgow", "post_town": "Glasgow", "postcode": "G51 1LB", "region": "Glasgow City"}, "name": "New Star", "related_places": {}, "timezone": "Europe/London"}, {"fsq_id": "4dc3d3c218387d1bd512867f", "categories": [{"id": 13034, "name": "Caf\u00e9", "short_name": "Caf\u00e9", "plural_name": "Caf\u00e9s", "icon": {"prefix": "https://ss3.4sqi.net/img/categories_v2/food/cafe_", "suffix": ".png"}}, {"id": 13035, "name": "Coffee Shop", "short_name": "Coffee Shop", "plural_name": "Coffee Shops", "icon": {"prefix": "https://ss3.4sqi.net/img/categories_v2/food/coffeeshop_", "suffix": ".png"}}, {"id": 13065, "name": "Restaurant", "short_name": "Restaurant", "plural_name": "Restaurants", "icon": {"prefix": "https://ss3.4sqi.net/img/categories_v2/food/default_", "suffix": ".png"}}], "chains": [], "closed_bucket": "VeryLikelyOpen", "distance": 847, "geocodes": {"main": {"latitude": 55.85242, "longitude": -4.289446}, "roof": {"latitude": 55.85242, "longitude": -4.289446}}, "link": "/v3/places/4dc3d3c218387d1bd512867f", "location": {"address": "4-8 Harvie St", "admin_region": "Scotland", "country": "GB", "formatted_address": "4-8 Harvie St, Glasgow, Glasgow City, G51 1BW", "locality": "Glasgow", "post_town": "Glasgow", "postcode": "G51 1BW", "region": "Glasgow City"}, "name": "Kinning Perk", "related_places": {}, "timezone": "Europe/London"}, {"fsq_id": "51b2316a498e35b9867a8d77", "categories": [{"id": 13199, "name": "Indian Restaurant", "short_name": "Indian", "plural_name": "Indian Restaurants", "icon": {"prefix": "https://ss3.4sqi.net/img/categories_v2/food/indian_", "suffix": ".png"}}], "chains": [], "closed_bucket": "VeryLikelyOpen", "distance": 870, "geocodes": {"drop_off": {"latitude": 55.85181, "longitude": -4.294819}, "main": {"latitude": 55.851901, "longitude": -4.294827}, "roof": {"latitude": 55.851901, "longitude": -4.294827}}, "link": "/v3/places/51b2316a498e35b9867a8d77", "location": {"admin_region": "Scotland", "country": "GB", "cross_street": "", "formatted_address": "", "post_town": "Glasgow"}, "name": "Pakora Junction", "related_places": {}, "timezone": "Europe/London"}, {"fsq_id": "4b7ecbf0f964a5202e0030e3", "categories": [{"id": 13065, "name": "Restaurant", "short_name": "Restaurant", "plural_name": "Restaurants", "icon": {"prefix": "https://ss3.4sqi.net/img/categories_v2/food/default_", "suffix": ".png"}}], "chains": [], "closed_bucket": "VeryLikelyOpen", "distance": 880, "geocodes": {"main": {"latitude": 55.852083, "longitude": -4.294412}, "roof": {"latitude": 55.852083, "longitude": -4.294412}}, "link": "/v3/places/4b7ecbf0f964a5202e0030e3", "location": {"address": "1 Cessnock St", "admin_region": "Scotland", "country": "GB", "formatted_address": "1 Cessnock St, Glasgow, Glasgow City, G51 1AS", "locality": "Glasgow", "post_town": "Glasgow", "postcode": "G51 1AS", "region": "Glasgow City"}, "name": "Cessnock Subway", "related_places": {}, "timezone": "Europe/London"}, {"fsq_id": "4cddcfa1db12548120a72cce", "categories": [{"id": 13199, "name": "Indian Restaurant", "short_name": "Indian", "plural_name": "Indian Restaurants", "icon": {"prefix": "https://ss3.4sqi.net/img/categories_v2/food/indian_", "suffix": ".png"}}], "chains": [], "closed_bucket": "VeryLikelyOpen", "distance": 881, "geocodes": {"drop_off": {"latitude": 55.851801, "longitude": -4.294924}, "main": {"latitude": 55.851895, "longitude": -4.294932}, "roof": {"latitude": 55.851895, "longitude": -4.294932}}, "link": "/v3/places/4cddcfa1db12548120a72cce", "location": {"address": "354 Paisley Rd West", "country": "GB", "cross_street": "", "formatted_address": "354 Paisley Rd West, Glasgow, Glasgow City", "locality": "Glasgow", "post_town": "Glasgow", "region": "Glasgow City"}, "name": "Chapati5", "related_places": {}, "timezone": "Europe/London"}, {"fsq_id": "c23b591bc7ca4f43c1f0c9be", "categories": [{"id": 13051, "name": "Fish and Chips Shop", "short_name": "Fish and Chips Shop", "plural_name": "Fish and Chips Shops", "icon": {"prefix": "https://ss3.4sqi.net/img/categories_v2/food/fishandchips_", "suffix": ".png"}}], "chains": [], "closed_bucket": "Unsure", "distance": 886, "geocodes": {"drop_off": {"latitude": 55.851792, "longitude": -4.295029}, "main": {"latitude": 55.851889, "longitude": -4.295037}, "roof": {"latitude": 55.851889, "longitude": -4.295037}}, "link": "/v3/places/c23b591bc7ca4f43c1f0c9be", "location": {"address": "352 Paisley Rd West", "admin_region": "Scotland", "country": "GB", "formatted_address": "352 Paisley Rd West, Glasgow, G51 1BG", "locality": "Glasgow", "post_town": "Glasgow", "postcode": "G51 1BG"}, "name": "Zezo Ramsay", "related_places": {}, "timezone": "Europe/London"}, {"fsq_id": "4bc0799f2a89ef3b8689f088", "categories": [{"id": 10000, "name": "Arts and Entertainment", "short_name": "Arts & Entertainment", "plural_name": "Arts and Entertainment", "icon": {"prefix": "https://ss3.4sqi.net/img/categories_v2/arts_entertainment/default_", "suffix": ".png"}}, {"id": 13010, "name": "Dive Bar", "short_name": "Dive Bar", "plural_name": "Dive Bars", "icon": {"prefix": "https://ss3.4sqi.net/img/categories_v2/nightlife/divebar_", "suffix": ".png"}}, {"id": 13022, "name": "Sports Bar", "short_name": "Sports Bar", "plural_name": "Sports Bars", "icon": {"prefix": "https://ss3.4sqi.net/img/categories_v2/nightlife/sportsbar_", "suffix": ".png"}}], "chains": [], "closed_bucket": "LikelyOpen", "distance": 889, "geocodes": {"main": {"latitude": 55.853106, "longitude": -4.289433}, "roof": {"latitude": 55.853106, "longitude": -4.289433}}, "link": "/v3/places/4bc0799f2a89ef3b8689f088", "location": {"address": "22 Harvie St", "admin_region": "Scotland", "country": "GB", "formatted_address": "22 Harvie St, Govan, Glasgow City, G51 1BW", "locality": "Govan", "post_town": "Glasgow", "postcode": "G51 1BW", "region": "Glasgow City"}, "name": "Louden Tavern", "related_places": {}, "timezone": "Europe/London"}, {"fsq_id": "4eff47430aaffcf6f3e9a876", "categories": [{"id": 13099, "name": "Chinese Restaurant", "short_name": "Chinese", "plural_name": "Chinese Restaurants", "icon": {"prefix": "https://ss3.4sqi.net/img/categories_v2/food/asian_", "suffix": ".png"}}], "chains": [], "closed_bucket": "LikelyOpen", "distance": 894, "geocodes": {"main": {"latitude": 55.851913, "longitude": -4.295528}, "roof": {"latitude": 55.851913, "longitude": -4.295528}}, "link": "/v3/places/4eff47430aaffcf6f3e9a876", "location": {"address": "376 Paisley Rd", "admin_region": "Scotland", "country": "GB", "cross_street": "", "formatted_address": "376 Paisley Rd, Glasgow, Glasgow City, G51 1BG", "locality": "Glasgow", "post_town": "Glasgow", "postcode": "G51 1BG", "region": "Glasgow City"}, "name": "One 2 Wan", "related_places": {}, "timezone": "Europe/London"}, {"fsq_id": "4d03dacf7d9ba35d22666223", "categories": [{"id": 13064, "name": "Pizzeria", "short_name": "Pizza", "plural_name": "Pizzerias", "icon": {"prefix": "https://ss3.4sqi.net/img/categories_v2/food/pizza_", "suffix": ".png"}}, {"id": 13145, "name": "Fast Food Restaurant", "short_name": "Fast Food", "plural_name": "Fast Food Restaurants", "icon": {"prefix": "https://ss3.4sqi.net/img/categories_v2/food/fastfood_", "suffix": ".png"}}], "chains": [], "closed_bucket": "VeryLikelyOpen", "distance": 920, "geocodes": {"main": {"latitude": 55.842378, "longitude": -4.272494}, "roof": {"latitude": 55.842378, "longitude": -4.272494}}, "link": "/v3/places/4d03dacf7d9ba35d22666223", "location": {"address": "145 Kenmure St", "admin_region": "Scotland", "country": "GB", "formatted_address": "145 Kenmure St, Glasgow, G41 2NU", "locality": "Glasgow", "post_town": "Glasgow", "postcode": "G41 2NU"}, "name": "Pizza Hub", "related_places": {}, "timezone": "Europe/London"}, {"fsq_id": "4b55ab5bf964a52025eb27e3", "categories": [{"id": 13034, "name": "Caf\u00e9", "short_name": "Caf\u00e9", "plural_name": "Caf\u00e9s", "icon": {"prefix": "https://ss3.4sqi.net/img/categories_v2/food/cafe_", "suffix": ".png"}}, {"id": 13039, "name": "Deli", "short_name": "Deli", "plural_name": "Delis", "icon": {"prefix": "https://ss3.4sqi.net/img/categories_v2/food/deli_", "suffix": ".png"}}, {"id": 13145, "name": "Fast Food Restaurant", "short_name": "Fast Food", "plural_name": "Fast Food Restaurants", "icon": {"prefix": "https://ss3.4sqi.net/img/categories_v2/food/fastfood_", "suffix": ".png"}}], "chains": [], "closed_bucket": "LikelyOpen", "distance": 921, "geocodes": {"main": {"latitude": 55.851277, "longitude": -4.297436}, "roof": {"latitude": 55.851277, "longitude": -4.297436}}, "link": "/v3/places/4b55ab5bf964a52025eb27e3", "location": {"address": "7 North Gower St", "admin_region": "Scotland", "country": "GB", "formatted_address": "7 North Gower St, Glasgow, Glasgow City, G51 1PW", "locality": "Glasgow", "post_town": "Glasgow", "postcode": "G51 1PW", "region": "Glasgow City"}, "name": "Cherry & Heather Fine Foods", "related_places": {}, "timezone": "Europe/London"}, {"fsq_id": "83c0debf618942c65af68eb3", "categories": [{"id": 10000, "name": "Arts and Entertainment", "short_name": "Arts & Entertainment", "plural_name": "Arts and Entertainment", "icon": {"prefix": "https://ss3.4sqi.net/img/categories_v2/arts_entertainment/default_", "suffix": ".png"}}, {"id": 13003, "name": "Bar", "short_name": "Bar", "plural_name": "Bars", "icon": {"prefix": "https://ss3.4sqi.net/img/categories_v2/nightlife/pub_", "suffix": ".png"}}, {"id": 13065, "name": "Restaurant", "short_name": "Restaurant", "plural_name": "Restaurants", "icon": {"prefix": "https://ss3.4sqi.net/img/categories_v2/food/default_", "suffix": ".png"}}], "chains": [], "closed_bucket": "Unsure", "distance": 927, "geocodes": {"drop_off": {"latitude": 55.83866, "longitude": -4.277608}, "main": {"latitude": 55.838818, "longitude": -4.277604}, "roof": {"latitude": 55.838818, "longitude": -4.277604}}, "link": "/v3/places/83c0debf618942c65af68eb3", "location": {"address": "20 Glencairn Dr", "admin_region": "Scotland", "country": "GB", "formatted_address": "20 Glencairn Dr, Glasgow, G41 4QN", "locality": "Glasgow", "post_town": "Glasgow", "postcode": "G41 4QN"}, "name": "Rukhsana Foods", "related_places": {}, "timezone": "Europe/London"}, {"fsq_id": "592ddbb86a595012a6f0421e", "categories": [{"id": 13309, "name": "Middle Eastern Restaurant", "short_name": "Middle Eastern", "plural_name": "Middle Eastern Restaurants", "icon": {"prefix": "https://ss3.4sqi.net/img/categories_v2/food/middleeastern_", "suffix": ".png"}}], "chains": [], "closed_bucket": "LikelyOpen", "distance": 940, "geocodes": {"drop_off": {"latitude": 55.852234, "longitude": -4.27741}, "main": {"latitude": 55.852255, "longitude": -4.277598}, "roof": {"latitude": 55.852255, "longitude": -4.277598}}, "link": "/v3/places/592ddbb86a595012a6f0421e", "location": {"address": "64 Seaward St", "admin_region": "Scotland", "country": "GB", "cross_street": "", "formatted_address": "64 Seaward St, Glasgow, Glasgow City, G41 1HJ", "locality": "Glasgow", "post_town": "Glasgow", "postcode": "G41 1HJ", "region": "Glasgow City"}, "name": "Marhaba", "related_places": {}, "timezone": "Europe/London"}, {"fsq_id": "4c1be0bab306c928abf062b7", "categories": [{"id": 13025, "name": "Wine Bar", "short_name": "Wine Bar", "plural_name": "Wine Bars", "icon": {"prefix": "https://ss3.4sqi.net/img/categories_v2/food/winery_", "suffix": ".png"}}], "chains": [], "closed_bucket": "LikelyOpen", "distance": 944, "geocodes": {"main": {"latitude": 55.851769, "longitude": -4.297136}, "roof": {"latitude": 55.851769, "longitude": -4.297136}}, "link": "/v3/places/4c1be0bab306c928abf062b7", "location": {"address": "408 Paisley Rd West", "admin_region": "Scotland", "country": "GB", "cross_street": "", "formatted_address": "408 Paisley Rd West, Glasgow, Glasgow City, G51 1BE", "locality": "Glasgow", "post_town": "Glasgow", "postcode": "G51 1BE", "region": "Glasgow City"}, "name": "Kensington Bar", "related_places": {}, "timezone": "Europe/London"}, {"fsq_id": "4c6ec1684d24b60c86a1d9d8", "categories": [{"id": 13051, "name": "Fish and Chips Shop", "short_name": "Fish and Chips Shop", "plural_name": "Fish and Chips Shops", "icon": {"prefix": "https://ss3.4sqi.net/img/categories_v2/food/fishandchips_", "suffix": ".png"}}, {"id": 13145, "name": "Fast Food Restaurant", "short_name": "Fast Food", "plural_name": "Fast Food Restaurants", "icon": {"prefix": "https://ss3.4sqi.net/img/categories_v2/food/fastfood_", "suffix": ".png"}}], "chains": [], "closed_bucket": "VeryLikelyOpen", "distance": 949, "geocodes": {"main": {"latitude": 55.853409, "longitude": -4.280436}, "roof": {"latitude": 55.853409, "longitude": -4.280436}}, "link": "/v3/places/4c6ec1684d24b60c86a1d9d8", "location": {"address": "39 Paisley Rd West", "admin_region": "Scotland", "country": "GB", "formatted_address": "39 Paisley Rd West, Glasgow, Glasgow City, G51 1LG", "locality": "Glasgow", "post_town": "Glasgow", "postcode": "G51 1LG", "region": "Glasgow City"}, "name": "The Yellow Bird", "related_places": {}, "timezone": "Europe/London"}, {"fsq_id": "4f0de049e4b01660dcf9bfa4", "categories": [{"id": 13199, "name": "Indian Restaurant", "short_name": "Indian", "plural_name": "Indian Restaurants", "icon": {"prefix": "https://ss3.4sqi.net/img/categories_v2/food/indian_", "suffix": ".png"}}], "chains": [], "closed_bucket": "LikelyOpen", "distance": 951, "geocodes": {"main": {"latitude": 55.852412, "longitude": -4.277602}, "roof": {"latitude": 55.852412, "longitude": -4.277602}}, "link": "/v3/places/4f0de049e4b01660dcf9bfa4", "location": {"address": "64 Seaward St", "admin_region": "Scotland", "country": "GB", "cross_street": "", "formatted_address": "64 Seaward St, Glasgow, G41 1HJ", "locality": "Glasgow", "post_town": "Glasgow", "postcode": "G41 1HJ"}, "name": "Kabana Restaurant", "related_places": {}, "timezone": "Europe/London"}, {"fsq_id": "4c822652d34ca1435b062980", "categories": [{"id": 13034, "name": "Caf\u00e9", "short_name": "Caf\u00e9", "plural_name": "Caf\u00e9s", "icon": {"prefix": "https://ss3.4sqi.net/img/categories_v2/food/cafe_", "suffix": ".png"}}, {"id": 13065, "name": "Restaurant", "short_name": "Restaurant", "plural_name": "Restaurants", "icon": {"prefix": "https://ss3.4sqi.net/img/categories_v2/food/default_", "suffix": ".png"}}], "chains": [], "closed_bucket": "VeryLikelyOpen", "distance": 955, "geocodes": {"main": {"latitude": 55.851696, "longitude": -4.297484}, "roof": {"latitude": 55.851696, "longitude": -4.297484}}, "link": "/v3/places/4c822652d34ca1435b062980", "location": {"address": "424 Paisley Rd West", "admin_region": "Scotland", "country": "GB", "cross_street": "", "formatted_address": "424 Paisley Rd West, Glasgow, G51 1BE", "locality": "Glasgow", "post_town": "Glasgow", "postcode": "G51 1BE"}, "name": "Copper Pot", "related_places": {}, "timezone": "Europe/London"}, {"fsq_id": "526c03ab11d2c398ec74106b", "categories": [{"id": 13064, "name": "Pizzeria", "short_name": "Pizza", "plural_name": "Pizzerias", "icon": {"prefix": "https://ss3.4sqi.net/img/categories_v2/food/pizza_", "suffix": ".png"}}, {"id": 13145, "name": "Fast Food Restaurant", "short_name": "Fast Food", "plural_name": "Fast Food Restaurants", "icon": {"prefix": "https://ss3.4sqi.net/img/categories_v2/food/fastfood_", "suffix": ".png"}}, {"id": 13199, "name": "Indian Restaurant", "short_name": "Indian", "plural_name": "Indian Restaurants", "icon": {"prefix": "https://ss3.4sqi.net/img/categories_v2/food/indian_", "suffix": ".png"}}], "chains": [], "closed_bucket": "LikelyOpen", "distance": 955, "geocodes": {"drop_off": {"latitude": 55.842082, "longitude": -4.272412}, "main": {"latitude": 55.842226, "longitude": -4.272384}, "roof": {"latitude": 55.842226, "longitude": -4.272384}}, "link": "/v3/places/526c03ab11d2c398ec74106b", "location": {"address": "196 Albert Dr", "admin_region": "Scotland", "country": "GB", "cross_street": "", "formatted_address": "196 Albert Dr, Glasgow, G41 2NH", "locality": "Glasgow", "post_town": "Glasgow", "postcode": "G41 2NH"}, "name": "Lahore Kebab House", "related_places": {}, "timezone": "Europe/London"}, {"fsq_id": "4c66b87f8e9120a1969ed864", "categories": [{"id": 13072, "name": "Asian Restaurant", "short_name": "Asian", "plural_name": "Asian Restaurants", "icon": {"prefix": "https://ss3.4sqi.net/img/categories_v2/food/asian_", "suffix": ".png"}}], "chains": [], "closed_bucket": "VeryLikelyOpen", "distance": 965, "geocodes": {"drop_off": {"latitude": 55.842044, "longitude": -4.272211}, "main": {"latitude": 55.842238, "longitude": -4.272175}, "roof": {"latitude": 55.842238, "longitude": -4.272175}}, "link": "/v3/places/4c66b87f8e9120a1969ed864", "location": {"address": "171 Albert Dr", "country": "GB", "cross_street": "", "formatted_address": "171 Albert Dr, Glasgow, Glasgow City", "locality": "Glasgow", "post_town": "Glasgow", "region": "Glasgow City"}, "name": "Shandar Sweets & Panhouse", "related_places": {}, "timezone": "Europe/London"}, {"fsq_id": "4b805f91f964a520826c30e3", "categories": [{"id": 13145, "name": "Fast Food Restaurant", "short_name": "Fast Food", "plural_name": "Fast Food Restaurants", "icon": {"prefix": "https://ss3.4sqi.net/img/categories_v2/food/fastfood_", "suffix": ".png"}}, {"id": 13199, "name": "Indian Restaurant", "short_name": "Indian", "plural_name": "Indian Restaurants", "icon": {"prefix": "https://ss3.4sqi.net/img/categories_v2/food/indian_", "suffix": ".png"}}], "chains": [], "closed_bucket": "LikelyOpen", "distance": 973, "geocodes": {"main": {"latitude": 55.851751, "longitude": -4.29745}, "roof": {"latitude": 55.851751, "longitude": -4.29745}}, "link": "/v3/places/4b805f91f964a520826c30e3", "location": {"address": "404-406 Paisley Rd West", "admin_region": "Scotland", "country": "GB", "formatted_address": "404-406 Paisley Rd West, Glasgow, Glasgow City, G51 1BE", "locality": "Glasgow", "post_town": "Glasgow", "postcode": "G51 1BE", "region": "Glasgow City"}, "name": "Chilli Cottage", "related_places": {}, "timezone": "Europe/London"}, {"fsq_id": "4bd80fbf0b779c744d4706a0", "categories": [{"id": 13009, "name": "Cocktail Bar", "short_name": "Cocktail", "plural_name": "Cocktail Bars", "icon": {"prefix": "https://ss3.4sqi.net/img/categories_v2/nightlife/cocktails_", "suffix": ".png"}}], "chains": [], "closed_bucket": "VeryLikelyOpen", "distance": 992, "geocodes": {"main": {"latitude": 55.852387, "longitude": -4.2762}, "roof": {"latitude": 55.852387, "longitude": -4.2762}}, "link": "/v3/places/4bd80fbf0b779c744d4706a0", "location": {"admin_region": "Scotland", "country": "GB", "cross_street": "", "formatted_address": "Glasgow, Glasgow City, G5 8RS", "locality": "Glasgow", "post_town": "Glasgow", "postcode": "G5 8RS", "region": "Glasgow City"}, "name": "LA Bartenders", "related_places": {}, "timezone": "Europe/London"}, {"fsq_id": "5f34147a81642e3ba68e8bb5", "categories": [{"id": 13145, "name": "Fast Food Restaurant", "short_name": "Fast Food", "plural_name": "Fast Food Restaurants", "icon": {"prefix": "https://ss3.4sqi.net/img/categories_v2/food/fastfood_", "suffix": ".png"}}], "chains": [], "closed_bucket": "Unsure", "distance": 993, "geocodes": {"drop_off": {"latitude": 55.853636, "longitude": -4.279469}, "main": {"latitude": 55.853518, "longitude": -4.279459}, "roof": {"latitude": 55.853518, "longitude": -4.279459}}, "link": "/v3/places/5f34147a81642e3ba68e8bb5", "location": {"address": "15 Paisley Rd West", "admin_region": "Scotland", "country": "GB", "cross_street": "", "formatted_address": "15 Paisley Rd West, Glasgow, Glasgow City, G51 1LF", "locality": "Glasgow", "post_town": "Glasgow", "postcode": "G51 1LF", "region": "Glasgow City"}, "name": "Munch Kings", "related_places": {}, "timezone": "Europe/London"}, {"fsq_id": "5dc6bd8aabd6c100082bb1b5", "categories": [{"id": 13337, "name": "Scottish Restaurant", "short_name": "Scottish", "plural_name": "Scottish Restaurants", "icon": {"prefix": "https://ss3.4sqi.net/img/categories_v2/food/default_", "suffix": ".png"}}], "chains": [], "closed_bucket": "LikelyOpen", "distance": 1004, "geocodes": {"drop_off": {"latitude": 55.838993, "longitude": -4.275359}, "main": {"latitude": 55.839108, "longitude": -4.275301}, "roof": {"latitude": 55.839108, "longitude": -4.275301}}, "link": "/v3/places/5dc6bd8aabd6c100082bb1b5", "location": {"address": "142 Nithsdale Rd", "admin_region": "Scotland", "country": "GB", "cross_street": "", "formatted_address": "142 Nithsdale Rd, Glasgow, Glasgow City, G41 5RB", "locality": "Glasgow", "post_town": "Glasgow", "postcode": "G41 5RB", "region": "Glasgow City"}, "name": "Six by Nico", "related_places": {}, "timezone": "Europe/London"}, {"fsq_id": "4e6a692cb61cc3728d9519d2", "categories": [{"id": 13025, "name": "Wine Bar", "short_name": "Wine Bar", "plural_name": "Wine Bars", "icon": {"prefix": "https://ss3.4sqi.net/img/categories_v2/food/winery_", "suffix": ".png"}}], "chains": [], "closed_bucket": "LikelyOpen", "distance": 1006, "geocodes": {"main": {"latitude": 55.853506, "longitude": -4.279668}, "roof": {"latitude": 55.853506, "longitude": -4.279668}}, "link": "/v3/places/4e6a692cb61cc3728d9519d2", "location": {"address": "1-3 Paisley Rd West", "admin_region": "Scotland", "country": "GB", "cross_street": "", "formatted_address": "1-3 Paisley Rd West, Glasgow, Glasgow City, G51 1LF", "locality": "Glasgow", "post_town": "Glasgow", "postcode": "G51 1LF", "region": "Glasgow City"}, "name": "The Old Toll Bar", "related_places": {}, "timezone": "Europe/London"}, {"fsq_id": "2370645ae08239fb91e4a62b", "categories": [{"id": 13031, "name": "Burger Joint", "short_name": "Burgers", "plural_name": "Burger Joints", "icon": {"prefix": "https://ss3.4sqi.net/img/categories_v2/food/burger_", "suffix": ".png"}}], "chains": [], "closed_bucket": "LikelyOpen", "distance": 719, "geocodes": {"drop_off": {"latitude": 55.851649, "longitude": -4.282893}, "main": {"latitude": 55.851602, "longitude": -4.282553}, "roof": {"latitude": 55.851602, "longitude": -4.282553}}, "link": "/v3/places/2370645ae08239fb91e4a62b", "location": {"address": "99 Middlesex St", "admin_region": "Scotland", "country": "GB", "formatted_address": "99 Middlesex St, Glasgow", "locality": "Glasgow", "post_town": "Glasgow"}, "name": "Meat Jam", "related_places": {}}, {"fsq_id": "224cef5a5953407b0c32b626", "categories": [{"id": 13309, "name": "Middle Eastern Restaurant", "short_name": "Middle Eastern", "plural_name": "Middle Eastern Restaurants", "icon": {"prefix": "https://ss3.4sqi.net/img/categories_v2/food/middleeastern_", "suffix": ".png"}}], "chains": [], "closed_bucket": "VeryLikelyOpen", "distance": 940, "geocodes": {"drop_off": {"latitude": 55.852372, "longitude": -4.277395}, "main": {"latitude": 55.852406, "longitude": -4.277707}, "roof": {"latitude": 55.852406, "longitude": -4.277707}}, "link": "/v3/places/224cef5a5953407b0c32b626", "location": {"address": "64 Seaward St", "admin_region": "Scotland", "country": "GB", "formatted_address": "64 Seaward St, Glasgow, G41 1HJ", "locality": "Glasgow", "post_town": "Glasgow", "postcode": "G41 1HJ"}, "name": "Marhaba", "related_places": {}}], "context": {"geo_bounds": {"circle": {"center": {"latitude": 55.845518, "longitude": -4.286476}, "radius": 1000}}}}