{"results": [{"fsq_id": "55ca18f2498e89eef195151d", "categories": [{"id": 13064, "name": "Pizzeria", "short_name": "Pizza", "plural_name": "Pizzerias", "icon": {"prefix": "https://ss3.4sqi.net/img/categories_v2/food/pizza_", "suffix": ".png"}}, {"id": 13236, "name": "Italian Restaurant", "short_name": "Italian", "plural_name": "Italian Restaurants", "icon": {"prefix": "https://ss3.4sqi.net/img/categories_v2/food/italian_", "suffix": ".png"}}], "chains": [], "closed_bucket": "LikelyOpen", "distance": 888, "geocodes": {"main": {"latitude": 55.859642, "longitude": -4.250598}, "roof": {"latitude": 55.859642, "longitude": -4.250598}}, "link": "/v3/places/55ca18f2498e89eef195151d", "location": {"address": "94 Miller St", "admin_region": "Scotland", "country": "GB", "cross_street": "Ingram St", "formatted_address": "94 Miller St (Ingram St), Glasgow, Glasgow City, G1 1DT", "locality": "Glasgow", "post_town": "Glasgow", "postcode": "G1 1DT", "region": "Glasgow City"}, "name": "Paesano Pizza", "related_places": {}, "timezone": "Europe/London"}, {"fsq_id": "4bc35be22a89ef3b08e7f488", "categories": [{"id": 13199, "name": "Indian Restaurant", "short_name": "Indian", "plural_name": "Indian Restaurants", "icon": {"prefix": "https://ss3.4sqi.net/img/categories_v2/food/indian_", "suffix": ".png"}}], "chains": [], "closed_bucket": "VeryLikelyOpen", "distance": 741, "geocodes": {"main": {"latitude": 55.858078, "longitude": -4.245681}, "roof": {"latitude": 55.858078, "longitude": -4.245681}}, "link": "/v3/places/4bc35be22a89ef3b08e7f488", "location": {"address": "44 Candleriggs", "admin_region": "Scotland", "country": "GB", "cross_street": "Bell St", "formatted_address": "44 Candleriggs (Bell St), Glasgow, Glasgow City, G1 1LE", "locality": "Glasgow", "post_town": "Glasgow", "postcode": "G1 1LE", "region": "Glasgow City"}, "name": "The Dhabba", "related_places": {}, "timezone": "Europe/London"}, {"fsq_id": "54c7cade498e300defb0985f", "categories": [{"id": 13034, "name": "Caf\u00e9", "short_name": "Caf\u00e9", "plural_name": "Caf\u00e9s", "icon": {"prefix": "https://ss3.4sqi.net/img/categories_v2/food/cafe_", "suffix": ".png"}}, {"id": 13065, "name": "Restaurant", "short_name": "Restaurant", "plural_name": "Restaurants", "icon": {"prefix": "https://ss3.4sqi.net/img/categories_v2/food/default_", "suffix": ".png"}}], "chains": [], "closed_bucket": "Unsure", "distance": 733, "geocodes": {"main": {"latitude": 55.858485, "longitude": -4.245939}, "roof": {"latitude": 55.858485, "longitude": -4.245939}}, "link": "/v3/places/54c7cade498e300defb0985f", "location": {"address": "6 Wilson St", "admin_region": "Scotland", "country": "GB", "cross_street": "", "formatted_address": "6 Wilson St, Glasgow, Glasgow City, G1 1SS", "locality": "Glasgow", "post_town": "Glasgow", "postcode": "G1 1SS", "region": "Glasgow City"}, "name": "Wilson Street Pantry", "related_places": {}, "timezone": "Europe/London"}, {"fsq_id": "53e52950498ee2c0974731b8", "categories": [{"id": 10000, "name": "Arts and Entertainment", "short_name": "Arts & Entertainment", "plural_name": "Arts and Entertainment", "icon": {"prefix": "https://ss3.4sqi.net/img/categories_v2/arts_entertainment/default_", "suffix": ".png"}}, {"id": 13006, "name": "Beer Bar", "short_name": "Beer Bar", "plural_name": "Beer Bars", "icon": {"prefix": "https://ss3.4sqi.net/img/categories_v2/nightlife/pub_", "suffix": ".png"}}, {"id": 13026, "name": "BBQ Joint", "short_name": "BBQ", "plural_name": "BBQ Joints", "icon": {"prefix": "https://ss3.4sqi.net/img/categories_v2/food/bbqalt_", "suffix": ".png"}}], "chains": [], "closed_bucket": "Unsure", "distance": 746, "geocodes": {"drop_off": {"latitude": 55.859269, "longitude": -4.247825}, "main": {"latitude": 55.859318, "longitude": -4.247961}, "roof": {"latitude": 55.859318, "longitude": -4.247961}}, "link": "/v3/places/53e52950498ee2c0974731b8", "location": {"address": "99 Hutcheson St", "admin_region": "Scotland", "country": "GB", "cross_street": "", "formatted_address": "99 Hutcheson St, Glasgow, Glasgow City, G1 1SN", "locality": "Glasgow", "post_town": "Glasgow", "postcode": "G1 1SN", "region": "Glasgow City"}, "name": "DogHouse Merchant City", "related_places": {}, "timezone": "Europe/London"}, {"fsq_id": "4b50d353f964a520df3327e3", "categories": [{"id": 13025, "name": "Wine Bar", "short_name": "Wine Bar", "plural_name": "Wine Bars", "icon": {"prefix": "https://ss3.4sqi.net/img/categories_v2/food/winery_", "suffix": ".png"}}, {"id": 13337, "name": "Scottish Restaurant", "short_name": "Scottish", "plural_name": "Scottish Restaurants", "icon": {"prefix": "https://ss3.4sqi.net/img/categories_v2/food/default_", "suffix": ".png"}}, {"id": 13338, "name": "Seafood Restaurant", "short_name": "Seafood", "plural_name": "Seafood Restaurants", "icon": {"prefix": "https://ss3.4sqi.net/img/categories_v2/food/seafood_", "suffix": ".png"}}], "chains": [], "closed_bucket": "LikelyOpen", "distance": 665, "geocodes": {"main": {"latitude": 55.858058, "longitude": -4.244174}, "roof": {"latitude": 55.858058, "longitude": -4.244174}}, "link": "/v3/places/4b50d353f964a520df3327e3", "location": {"address": "64 Albion St", "admin_region": "Scotland", "country": "GB", "formatted_address": "64 Albion St, Glasgow, G1 1NY", "locality": "Glasgow", "post_town": "Glasgow", "postcode": "G1 1NY"}, "name": "Cafe Gandolfi", "related_places": {"children": [{"fsq_id": "5af74197c824ae002c2bb00f", "categories": [{"id": 13003, "name": "Bar", "short_name": "Bar", "plural_name": "Bars", "icon": {"prefix": "https://ss3.4sqi.net/img/categories_v2/nightlife/pub_", "suffix": ".png"}}], "name": "Bar Gandolfi"}]}, "timezone": "Europe/London"}, {"fsq_id": "537dcf0d498e02df07785e2f", "categories": [{"id": 13003, "name": "Bar", "short_name": "Bar", "plural_name": "Bars", "icon": {"prefix": "https://ss3.4sqi.net/img/categories_v2/nightlife/pub_", "suffix": ".png"}}, {"id": 13029, "name": "Brewery", "short_name": "Brewery", "plural_name": "Breweries", "icon": {"prefix": "https://ss3.4sqi.net/img/categories_v2/food/brewery_", "suffix": ".png"}}], "chains": [], "closed_bucket": "Unsure", "distance": 403, "geocodes": {"main": {"latitude": 55.861185, "longitude": -4.234563}, "roof": {"latitude": 55.861185, "longitude": -4.234563}}, "link": "/v3/places/537dcf0d498e02df07785e2f", "location": {"address": "85 Drygate", "admin_region": "Scotland", "country": "GB", "cross_street": "", "formatted_address": "85 Drygate, Glasgow, G4 0UT", "locality": "Glasgow", "post_town": "Glasgow", "postcode": "G4 0UT"}, "name": "Drygate Brewing Co", "related_places": {"children": []}, "timezone": "Europe/London"}, {"fsq_id": "554cdd3c498ee17d5a870117", "categories": [{"id": 13035, "name": "Coffee Shop", "short_name": "Coffee Shop", "plural_name": "Coffee Shops", "icon": {"prefix": "https://ss3.4sqi.net/img/categories_v2/food/coffeeshop_", "suffix": ".png"}}, {"id": 13065, "name": "Restaurant", "short_name": "Restaurant", "plural_name": "Restaurants", "icon": {"prefix": "https://ss3.4sqi.net/img/categories_v2/food/default_", "suffix": ".png"}}], "chains": [], "closed_bucket": "Unsure", "distance": 604, "geocodes": {"main": {"latitude": 55.859412, "longitude": -4.245371}, "roof": {"latitude": 55.859412, "longitude": -4.245371}}, "link": "/v3/places/554cdd3c498ee17d5a870117", "location": {"address": "127 Candleriggs", "admin_region": "Scotland", "country": "GB", "cross_street": "", "formatted_address": "127 Candleriggs, Glasgow, G1 1NP", "locality": "Glasgow", "post_town": "Glasgow", "postcode": "G1 1NP"}, "name": "Spitfire Espresso", "related_places": {}, "timezone": "Europe/London"}, {"fsq_id": "4eee14c8b8f76a24a5ddef1c", "categories": [{"id": 13051, "name": "Fish and Chips Shop", "short_name": "Fish and Chips Shop", "plural_name": "Fish and Chips Shops", "icon": {"prefix": "https://ss3.4sqi.net/img/categories_v2/food/fishandchips_", "suffix": ".png"}}, {"id": 13338, "name": "Seafood Restaurant", "short_name": "Seafood", "plural_name": "Seafood Restaurants", "icon": {"prefix": "https://ss3.4sqi.net/img/categories_v2/food/seafood_", "suffix": ".png"}}], "chains": [], "closed_bucket": "LikelyOpen", "distance": 497, "geocodes": {"main": {"latitude": 55.858935, "longitude": -4.241713}, "roof": {"latitude": 55.858935, "longitude": -4.241713}}, "link": "/v3/places/4eee14c8b8f76a24a5ddef1c", "location": {"address": "155 High St", "admin_region": "Scotland", "country": "GB", "cross_street": "", "formatted_address": "155 High St, Glasgow, Glasgow City, G1 1PH", "locality": "Glasgow", "post_town": "Glasgow", "postcode": "G1 1PH", "region": "Glasgow City"}, "name": "Merchant Chippie", "related_places": {}, "timezone": "Europe/London"}, {"fsq_id": "543d3e26498e1b6b7dc59538", "categories": [{"id": 13009, "name": "Cocktail Bar", "short_name": "Cocktail", "plural_name": "Cocktail Bars", "icon": {"prefix": "https://ss3.4sqi.net/img/categories_v2/nightlife/cocktails_", "suffix": ".png"}}, {"id": 13025, "name": "Wine Bar", "short_name": "Wine Bar", "plural_name": "Wine Bars", "icon": {"prefix": "https://ss3.4sqi.net/img/categories_v2/food/winery_", "suffix": ".png"}}, {"id": 13049, "name": "Diner", "short_name": "Diner", "plural_name": "Diners", "icon": {"prefix": "https://ss3.4sqi.net/img/categories_v2/food/diner_", "suffix": ".png"}}], "chains": [], "closed_bucket": "Unsure", "distance": 931, "geocodes": {"main": {"latitude": 55.861172, "longitude": -4.252397}, "roof": {"latitude": 55.861172, "longitude": -4.252397}}, "link": "/v3/places/543d3e26498e1b6b7dc59538", "location": {"address": "12-16 St Vincent Pl", "admin_region": "Scotland", "country": "GB", "cross_street": "", "formatted_address": "12-16 St Vincent Pl, Glasgow, G1 2DH", "locality": "Glasgow", "post_town": "Glasgow", "postcode": "G1 2DH"}, "name": "Anchor Line", "related_places": {}, "timezone": "Europe/London"}, {"fsq_id": "4b96b832f964a52026e034e3", "categories": [{"id": 13236, "name": "Italian Restaurant", "short_name": "Italian", "plural_name": "Italian Restaurants", "icon": {"prefix": "https://ss3.4sqi.net/img/categories_v2/food/italian_", "suffix": ".png"}}], "chains": [], "closed_bucket": "VeryLikelyOpen", "distance": 550, "geocodes": {"main": {"latitude": 55.859459, "longitude": -4.243621}, "roof": {"latitude": 55.859459, "longitude": -4.243621}}, "link": "/v3/places/4b96b832f964a52026e034e3", "location": {"address": "64 Ingram St", "admin_region": "Scotland", "country": "GB", "formatted_address": "64 Ingram St, Glasgow, Glasgow City, G1 1EX", "locality": "Glasgow", "post_town": "Glasgow", "postcode": "G1 1EX", "region": "Glasgow City"}, "name": "Italian Kitchen", "related_places": {}, "timezone": "Europe/London"}, {"fsq_id": "4b4c7ebcf964a52074b426e3", "categories": [{"id": 13003, "name": "Bar", "short_name": "Bar", "plural_name": "Bars", "icon": {"prefix": "https://ss3.4sqi.net/img/categories_v2/nightlife/pub_", "suffix": ".png"}}, {"id": 13338, "name": "Seafood Restaurant", "short_name": "Seafood", "plural_name": "Seafood Restaurants", "icon": {"prefix": "https://ss3.4sqi.net/img/categories_v2/food/seafood_", "suffix": ".png"}}], "chains": [], "closed_bucket": "VeryLikelyOpen", "distance": 802, "geocodes": {"main": {"latitude": 55.86114, "longitude": -4.250188}, "roof": {"latitude": 55.86114, "longitude": -4.250188}}, "link": "/v3/places/4b4c7ebcf964a52074b426e3", "location": {"address": "40 George Square", "admin_region": "Scotland", "country": "GB", "formatted_address": "40 George Square, Glasgow, Glasgow City, G2 1DS", "locality": "Glasgow", "post_town": "Glasgow", "postcode": "G2 1DS", "region": "Glasgow City"}, "name": "George Square", "related_places": {"children": []}, "timezone": "Europe/London"}, {"fsq_id": "4b6c5d0cf964a520d7332ce3", "categories": [{"id": 13003, "name": "Bar", "short_name": "Bar", "plural_name": "Bars", "icon": {"prefix": "https://ss3.4sqi.net/img/categories_v2/nightlife/pub_", "suffix": ".png"}}, {"id": 13064, "name": "Pizzeria", "short_name": "Pizza", "plural_name": "Pizzerias", "icon": {"prefix": "https://ss3.4sqi.net/img/categories_v2/food/pizza_", "suffix": ".png"}}, {"id": 13377, "name": "Vegan and Vegetarian Restaurant", "short_name": "Vegan and Vegetarian Restaurant", "plural_name": "Vegan and Vegetarian Restaurants", "icon": {"prefix": "https://ss3.4sqi.net/img/categories_v2/food/vegetarian_", "suffix": ".png"}}], "chains": [], "closed_bucket": "VeryLikelyOpen", "distance": 978, "geocodes": {"main": {"latitude": 55.855682, "longitude": -4.246134}, "roof": {"latitude": 55.855682, "longitude": -4.246134}}, "link": "/v3/places/4b6c5d0cf964a520d7332ce3", "location": {"address": "12 Kings Ct", "admin_region": "Scotland", "country": "GB", "cross_street": "at King St", "formatted_address": "12 Kings Ct (at King St), Glasgow, Glasgow City, G1 5RB", "locality": "Glasgow", "post_town": "Glasgow", "postcode": "G1 5RB", "region": "Glasgow City"}, "name": "Mono", "related_places": {}, "timezone": "Europe/London"}, {"fsq_id": "55e8a27d498edabc99273e53", "categories": [{"id": 10039, "name": "Music Venue", "short_name": "Music Venue", "plural_name": "Music Venues", "icon": {"prefix": "https://ss3.4sqi.net/img/categories_v2/arts_entertainment/musicvenue_", "suffix": ".png"}}, {"id": 13003, "name": "Bar", "short_name": "Bar", "plural_name": "Bars", "icon": {"prefix": "https://ss3.4sqi.net/img/categories_v2/nightlife/pub_", "suffix": ".png"}}], "chains": [], "closed_bucket": "VeryLikelyOpen", "distance": 936, "geocodes": {"main": {"latitude": 55.854651, "longitude": -4.234613}, "roof": {"latitude": 55.854651, "longitude": -4.234613}}, "link": "/v3/places/55e8a27d498edabc99273e53", "location": {"address": "17 Bain Square", "admin_region": "Scotland", "country": "GB", "cross_street": "", "formatted_address": "17 Bain Square, Glasgow, Glasgow City, G40 2JZ", "locality": "Glasgow", "post_town": "Glasgow", "postcode": "G40 2JZ", "region": "Glasgow City"}, "name": "Saint Luke\u2019s", "related_places": {"children": []}, "timezone": "Europe/London"}, {"fsq_id": "59b2e2a647f8761788a16b5f", "categories": [{"id": 13009, "name": "Cocktail Bar", "short_name": "Cocktail", "plural_name": "Cocktail Bars", "icon": {"prefix": "https://ss3.4sqi.net/img/categories_v2/nightlife/cocktails_", "suffix": ".png"}}, {"id": 13065, "name": "Restaurant", "short_name": "Restaurant", "plural_name": "Restaurants", "icon": {"prefix": "https://ss3.4sqi.net/img/categories_v2/food/default_", "suffix": ".png"}}], "chains": [], "closed_bucket": "Unsure", "distance": 955, "geocodes": {"drop_off": {"latitude": 55.861034, "longitude": -4.252725}, "main": {"latitude": 55.861154, "longitude": -4.252712}, "roof": {"latitude": 55.861154, "longitude": -4.252712}}, "link": "/v3/places/59b2e2a647f8761788a16b5f", "location": {"address": "24 St Vincent Pl", "admin_region": "Scotland", "country": "GB", "cross_street": "", "formatted_address": "24 St Vincent Pl, Glasgow, Glasgow City, G1 2EU", "locality": "Glasgow", "post_town": "Glasgow", "postcode": "G1 2EU", "region": "Glasgow City"}, "name": "The Citizen Bar & Dining Rooms", "related_places": {}, "timezone": "Europe/London"}, {"fsq_id": "4b76f668f964a520036f2ee3", "categories": [{"id": 13009, "name": "Cocktail Bar", "short_name": "Cocktail", "plural_name": "Cocktail Bars", "icon": {"prefix": "https://ss3.4sqi.net/img/categories_v2/nightlife/cocktails_", "suffix": ".png"}}, {"id": 13025, "name": "Wine Bar", "short_name": "Wine Bar", "plural_name": "Wine Bars", "icon": {"prefix": "https://ss3.4sqi.net/img/categories_v2/food/winery_", "suffix": ".png"}}, {"id": 13145, "name": "Fast Food Restaurant", "short_name": "Fast Food", "plural_name": "Fast Food Restaurants", "icon": {"prefix": "https://ss3.4sqi.net/img/categories_v2/food/fastfood_", "suffix": ".png"}}], "chains": [], "closed_bucket": "VeryLikelyOpen", "distance": 970, "geocodes": {"main": {"latitude": 55.859437, "longitude": -4.252344}, "roof": {"latitude": 55.859437, "longitude": -4.252344}}, "link": "/v3/places/4b76f668f964a520036f2ee3", "location": {"address": "73 Queen St", "admin_region": "Scotland", "country": "GB", "formatted_address": "73 Queen St, Glasgow, Glasgow City, G1 3BZ", "locality": "Glasgow", "post_town": "Glasgow", "postcode": "G1 3BZ", "region": "Glasgow City"}, "name": "Max's Bar and Grill", "related_places": {}, "timezone": "Europe/London"}, {"fsq_id": "4b2cfd42f964a520e2cb24e3", "categories": [{"id": 13034, "name": "Caf\u00e9", "short_name": "Caf\u00e9", "plural_name": "Caf\u00e9s", "icon": {"prefix": "https://ss3.4sqi.net/img/categories_v2/food/cafe_", "suffix": ".png"}}, {"id": 13035, "name": "Coffee Shop", "short_name": "Coffee Shop", "plural_name": "Coffee Shops", "icon": {"prefix": "https://ss3.4sqi.net/img/categories_v2/food/coffeeshop_", "suffix": ".png"}}, {"id": 13065, "name": "Restaurant", "short_name": "Restaurant", "plural_name": "Restaurants", "icon": {"prefix": "https://ss3.4sqi.net/img/categories_v2/food/default_", "suffix": ".png"}}], "chains": [], "closed_bucket": "Unsure", "distance": 640, "geocodes": {"main": {"latitude": 55.859735, "longitude": -4.246187}, "roof": {"latitude": 55.859735, "longitude": -4.246187}}, "link": "/v3/places/4b2cfd42f964a520e2cb24e3", "location": {"address": "118 Ingram St", "address_extended": "Unit 4", "admin_region": "Scotland", "country": "GB", "formatted_address": "118 Ingram St, Glasgow, Glasgow City, G1 1EJ", "locality": "Glasgow", "post_town": "Glasgow", "postcode": "G1 1EJ", "region": "Glasgow City"}, "name": "Tinderbox", "related_places": {}, "timezone": "Europe/London"}, {"fsq_id": "4bbe3eaa8ca376b0b88ac77a", "categories": [{"id": 13018, "name": "Pub", "short_name": "Pub", "plural_name": "Pubs", "icon": {"prefix": "https://ss3.4sqi.net/img/categories_v2/nightlife/pub_", "suffix": ".png"}}, {"id": 13022, "name": "Sports Bar", "short_name": "Sports Bar", "plural_name": "Sports Bars", "icon": {"prefix": "https://ss3.4sqi.net/img/categories_v2/nightlife/sportsbar_", "suffix": ".png"}}, {"id": 13065, "name": "Restaurant", "short_name": "Restaurant", "plural_name": "Restaurants", "icon": {"prefix": "https://ss3.4sqi.net/img/categories_v2/food/default_", "suffix": ".png"}}], "chains": [], "closed_bucket": "Unsure", "distance": 668, "geocodes": {"drop_off": {"latitude": 55.862082, "longitude": -4.248418}, "front_door": {"latitude": 55.862103, "longitude": -4.248469}, "main": {"latitude": 55.862103, "longitude": -4.248469}, "roof": {"latitude": 55.862085, "longitude": -4.248395}}, "link": "/v3/places/4bbe3eaa8ca376b0b88ac77a", "location": {"address": "North Frederick St", "admin_region": "Scotland", "country": "GB", "formatted_address": "North Frederick St, Glasgow, G1 2BS", "locality": "Glasgow", "post_town": "Glasgow", "postcode": "G1 2BS"}, "name": "The Ark Glasgow", "related_places": {}, "timezone": "Europe/London"}, {"fsq_id": "4eecb82346907303be234128", "categories": [{"id": 13034, "name": "Caf\u00e9", "short_name": "Caf\u00e9", "plural_name": "Caf\u00e9s", "icon": {"prefix": "https://ss3.4sqi.net/img/categories_v2/food/cafe_", "suffix": ".png"}}, {"id": 13035, "name": "Coffee Shop", "short_name": "Coffee Shop", "plural_name": "Coffee Shops", "icon": {"prefix": "https://ss3.4sqi.net/img/categories_v2/food/coffeeshop_", "suffix": ".png"}}, {"id": 13065, "name": "Restaurant", "short_name": "Restaurant", "plural_name": "Restaurants", "icon": {"prefix": "https://ss3.4sqi.net/img/categories_v2/food/default_", "suffix": ".png"}}], "chains": [], "closed_bucket": "VeryLikelyOpen", "distance": 799, "geocodes": {"main": {"latitude": 55.856657, "longitude": -4.244727}, "roof": {"latitude": 55.856657, "longitude": -4.244727}}, "link": "/v3/places/4eecb82346907303be234128", "location": {"address": "27 Trongate", "admin_region": "Scotland", "country": "GB", "cross_street": "", "formatted_address": "27 Trongate, Glasgow, G1 5EZ", "locality": "Glasgow", "post_town": "Glasgow", "postcode": "G1 5EZ"}, "name": "Rose & Grants", "related_places": {}, "timezone": "Europe/London"}, {"fsq_id": "4b50b2d4f964a5201e2e27e3", "categories": [{"id": 13263, "name": "Japanese Restaurant", "short_name": "Japanese", "plural_name": "Japanese Restaurants", "icon": {"prefix": "https://ss3.4sqi.net/img/categories_v2/food/japanese_", "suffix": ".png"}}], "chains": [], "closed_bucket": "Unsure", "distance": 1011, "geocodes": {"main": {"latitude": 55.858927, "longitude": -4.252048}, "roof": {"latitude": 55.858927, "longitude": -4.252048}}, "link": "/v3/places/4b50b2d4f964a5201e2e27e3", "location": {"address": "50 Queen St", "admin_region": "Scotland", "country": "GB", "cross_street": "", "formatted_address": "50 Queen St, Glasgow, Glasgow City, G1 3DS", "locality": "Glasgow", "post_town": "Glasgow", "postcode": "G1 3DS", "region": "Glasgow City"}, "name": "Ichiban Noodle Cafe", "related_places": {}, "timezone": "Europe/London"}, {"fsq_id": "4bb3471f42959c7445b3212c", "categories": [{"id": 13276, "name": "Sushi Restaurant", "short_name": "Sushi", "plural_name": "Sushi Restaurants", "icon": {"prefix": "https://ss3.4sqi.net/img/categories_v2/food/sushi_", "suffix": ".png"}}], "chains": [], "closed_bucket": "VeryLikelyOpen", "distance": 495, "geocodes": {"main": {"latitude": 55.859251, "longitude": -4.241722}, "roof": {"latitude": 55.859251, "longitude": -4.241722}}, "link": "/v3/places/4bb3471f42959c7445b3212c", "location": {"address": "2-6 Ingram St", "admin_region": "Scotland", "country": "GB", "cross_street": "High Street", "formatted_address": "2-6 Ingram St (High Street), Glasgow, Glasgow City, G1 1HA", "locality": "Glasgow", "post_town": "Glasgow", "postcode": "G1 1HA", "region": "Glasgow City"}, "name": "Sapporo Teppanyaki - Glasgow", "related_places": {}, "timezone": "Europe/London"}, {"fsq_id": "4b9cecbcf964a520bd8236e3", "categories": [{"id": 13003, "name": "Bar", "short_name": "Bar", "plural_name": "Bars", "icon": {"prefix": "https://ss3.4sqi.net/img/categories_v2/nightlife/pub_", "suffix": ".png"}}, {"id": 13065, "name": "Restaurant", "short_name": "Restaurant", "plural_name": "Restaurants", "icon": {"prefix": "https://ss3.4sqi.net/img/categories_v2/food/default_", "suffix": ".png"}}], "chains": [], "closed_bucket": "VeryLikelyOpen", "distance": 676, "geocodes": {"main": {"latitude": 55.858429, "longitude": -4.245061}, "roof": {"latitude": 55.858429, "longitude": -4.245061}}, "link": "/v3/places/4b9cecbcf964a520bd8236e3", "location": {"address": "71-73 Albion St", "admin_region": "Scotland", "country": "GB", "formatted_address": "71-73 Albion St, Glasgow, Glasgow City, G1 1NY", "locality": "Glasgow", "post_town": "Glasgow", "postcode": "G1 1NY", "region": "Glasgow City"}, "name": "Merchant Square", "related_places": {"children": [{"fsq_id": "595f841bf79faa623f93bd17", "categories": [{"id": 13031, "name": "Burger Joint", "short_name": "Burgers", "plural_name": "Burger Joints", "icon": {"prefix": "https://ss3.4sqi.net/img/categories_v2/food/burger_", "suffix": ".png"}}, {"id": 13068, "name": "American Restaurant", "short_name": "American", "plural_name": "American Restaurants", "icon": {"prefix": "https://ss3.4sqi.net/img/categories_v2/food/default_", "suffix": ".png"}}], "name": "Steak Cattle & Roll"}, {"fsq_id": "5c44b02ea8eb60002c7f69b5", "categories": [{"id": 13031, "name": "Burger Joint", "short_name": "Burgers", "plural_name": "Burger Joints", "icon": {"prefix": "https://ss3.4sqi.net/img/categories_v2/food/burger_", "suffix": ".png"}}, {"id": 13068, "name": "American Restaurant", "short_name": "American", "plural_name": "American Restaurants", "icon": {"prefix": "https://ss3.4sqi.net/img/categories_v2/food/default_", "suffix": ".png"}}], "name": "Monterey Jack's"}, {"fsq_id": "5dfbf5ae17653b0007afa486", "categories": [{"id": 13025, "name": "Wine Bar", "short_name": "Wine Bar", "plural_name": "Wine Bars", "icon": {"prefix": "https://ss3.4sqi.net/img/categories_v2/food/winery_", "suffix": ".png"}}], "name": "Naked Wine"}, {"fsq_id": "61f5a6de63f5ba30cd5dbff0", "categories": [{"id": 13064, "name": "Pizzeria", "short_name": "Pizza", "plural_name": "Pizzerias", "icon": {"prefix": "https://ss3.4sqi.net/img/categories_v2/food/pizza_", "suffix": ".png"}}], "name": "Badabing"}, {"fsq_id": "4b5b73e4f964a5201bff28e3", "categories": [{"id": 13006, "name": "Beer Bar", "short_name": "Beer Bar", "plural_name": "Beer Bars", "icon": {"prefix": "https://ss3.4sqi.net/img/categories_v2/nightlife/pub_", "suffix": ".png"}}, {"id": 13018, "name": "Pub", "short_name": "Pub", "plural_name": "Pubs", "icon": {"prefix": "https://ss3.4sqi.net/img/categories_v2/nightlife/pub_", "suffix": ".png"}}, {"id": 13065, "name": "Restaurant", "short_name": "Restaurant", "plural_name": "Restaurants", "icon": {"prefix": "https://ss3.4sqi.net/img/categories_v2/food/default_", "suffix": ".png"}}], "name": "O'Neill's"}]}, "timezone": "Europe/London"}, {"fsq_id": "4be5726b910020a1ecf0d214", "categories": [{"id": 13064, "name": "Pizzeria", "short_name": "Pizza", "plural_name": "Pizzerias", "icon": {"prefix": "https://ss3.4sqi.net/img/categories_v2/food/pizza_", "suffix": ".png"}}, {"id": 13236, "name": "Italian Restaurant", "short_name": "Italian", "plural_name": "Italian Restaurants", "icon": {"prefix": "https://ss3.4sqi.net/img/categories_v2/food/italian_", "suffix": ".png"}}], "chains": [], "closed_bucket": "Unsure", "distance": 887, "geocodes": {"main": {"latitude": 55.860783, "longitude": -4.251824}, "roof": {"latitude": 55.860783, "longitude": -4.251824}}, "link": "/v3/places/4be5726b910020a1ecf0d214", "location": {"address": "161 Queen St", "admin_region": "Scotland", "country": "GB", "formatted_address": "161 Queen St, Glasgow, Glasgow City, G1 3BJ", "locality": "Glasgow", "post_town": "Glasgow", "postcode": "G1 3BJ", "region": "Glasgow City"}, "name": "La Vita", "related_places": {}, "timezone": "Europe/London"}, {"fsq_id": "4b37d796f964a520464725e3", "categories": [{"id": 13011, "name": "Gay Bar", "short_name": "Gay Bar", "plural_name": "Gay Bars", "icon": {"prefix": "https://ss3.4sqi.net/img/categories_v2/nightlife/gaybar_", "suffix": ".png"}}, {"id": 13015, "name": "Karaoke Bar", "short_name": "Karaoke", "plural_name": "Karaoke Bars", "icon": {"prefix": "https://ss3.4sqi.net/img/categories_v2/nightlife/karaoke_", "suffix": ".png"}}, {"id": 13025, "name": "Wine Bar", "short_name": "Wine Bar", "plural_name": "Wine Bars", "icon": {"prefix": "https://ss3.4sqi.net/img/categories_v2/food/winery_", "suffix": ".png"}}], "chains": [], "closed_bucket": "Unsure", "distance": 866, "geocodes": {"main": {"latitude": 55.859064, "longitude": -4.249635}, "roof": {"latitude": 55.859064, "longitude": -4.249635}}, "link": "/v3/places/4b37d796f964a520464725e3", "location": {"address": "68 Virginia St", "admin_region": "Scotland", "country": "GB", "formatted_address": "68 Virginia St, Merchant City, Glasgow City, G1 1TX", "locality": "Merchant City", "post_town": "Glasgow", "postcode": "G1 1TX", "region": "Glasgow City"}, "name": "Delmonicas", "related_places": {}, "timezone": "Europe/London"}, {"fsq_id": "4ebe6e3b003940d47f41c6dc", "categories": [{"id": 13002, "name": "Bakery", "short_name": "Bakery", "plural_name": "Bakeries", "icon": {"prefix": "https://ss3.4sqi.net/img/categories_v2/food/bakery_", "suffix": ".png"}}, {"id": 13034, "name": "Caf\u00e9", "short_name": "Caf\u00e9", "plural_name": "Caf\u00e9s", "icon": {"prefix": "https://ss3.4sqi.net/img/categories_v2/food/cafe_", "suffix": ".png"}}, {"id": 13065, "name": "Restaurant", "short_name": "Restaurant", "plural_name": "Restaurants", "icon": {"prefix": "https://ss3.4sqi.net/img/categories_v2/food/default_", "suffix": ".png"}}], "chains": [], "closed_bucket": "LikelyOpen", "distance": 937, "geocodes": {"main": {"latitude": 55.856137, "longitude": -4.246463}, "roof": {"latitude": 55.856137, "longitude": -4.246463}}, "link": "/v3/places/4ebe6e3b003940d47f41c6dc", "location": {"address": "45 King St", "admin_region": "Scotland", "country": "GB", "formatted_address": "45 King St, Glasgow, Glasgow City, G1 5RA", "locality": "Glasgow", "post_town": "Glasgow", "postcode": "G1 5RA", "region": "Glasgow City"}, "name": "Once Upon a Tart", "related_places": {}, "timezone": "Europe/London"}, {"fsq_id": "5849c7c116f00008d58bf116", "categories": [{"id": 13345, "name": "Spanish Restaurant", "short_name": "Spanish", "plural_name": "Spanish Restaurants", "icon": {"prefix": "https://ss3.4sqi.net/img/categories_v2/food/spanish_", "suffix": ".png"}}, {"id": 13383, "name": "Steakhouse", "short_name": "Steakhouse", "plural_name": "Steakhouses", "icon": {"prefix": "https://ss3.4sqi.net/img/categories_v2/food/steakhouse_", "suffix": ".png"}}], "chains": [], "closed_bucket": "LikelyOpen", "distance": 910, "geocodes": {"main": {"latitude": 55.859375, "longitude": -4.25066}, "roof": {"latitude": 55.859375, "longitude": -4.25066}}, "link": "/v3/places/5849c7c116f00008d58bf116", "location": {"address": "80 Miller St", "admin_region": "Scotland", "country": "GB", "cross_street": "", "formatted_address": "80 Miller St, Glasgow, Glasgow City, G1 1DT", "locality": "Glasgow", "post_town": "Glasgow", "postcode": "G1 1DT", "region": "Glasgow City"}, "name": "The Spanish Butcher", "related_places": {}, "timezone": "Europe/London"}, {"fsq_id": "4e4fb9c3aeb70f1284a3ced1", "categories": [{"id": 13018, "name": "Pub", "short_name": "Pub", "plural_name": "Pubs", "icon": {"prefix": "https://ss3.4sqi.net/img/categories_v2/nightlife/pub_", "suffix": ".png"}}], "chains": [], "closed_bucket": "VeryLikelyOpen", "distance": 914, "geocodes": {"main": {"latitude": 55.862113, "longitude": -4.25253}, "roof": {"latitude": 55.862113, "longitude": -4.25253}}, "link": "/v3/places/4e4fb9c3aeb70f1284a3ced1", "location": {"address": "9-11 Dundas St", "admin_region": "Scotland", "country": "GB", "formatted_address": "9-11 Dundas St, Glasgow, G1 2AH", "locality": "Glasgow", "post_town": "Glasgow", "postcode": "G1 2AH"}, "name": "Dow's", "related_places": {}, "timezone": "Europe/London"}, {"fsq_id": "4dac2fad93a04642f0a441db", "categories": [{"id": 13145, "name": "Fast Food Restaurant", "short_name": "Fast Food", "plural_name": "Fast Food Restaurants", "icon": {"prefix": "https://ss3.4sqi.net/img/categories_v2/food/fastfood_", "suffix": ".png"}}, {"id": 13305, "name": "Burrito Restaurant", "short_name": "Burritos", "plural_name": "Burrito Restaurants", "icon": {"prefix": "https://ss3.4sqi.net/img/categories_v2/food/burrito_", "suffix": ".png"}}], "chains": [], "closed_bucket": "Unsure", "distance": 904, "geocodes": {"main": {"latitude": 55.86065, "longitude": -4.2514}, "roof": {"latitude": 55.86065, "longitude": -4.2514}}, "link": "/v3/places/4dac2fad93a04642f0a441db", "location": {"address": "138 Queen St", "admin_region": "Scotland", "country": "GB", "cross_street": "btw George Sq & Ingram St", "formatted_address": "138 Queen St (btw George Sq & Ingram St), Glasgow, Glasgow City, G1 3BX", "locality": "Glasgow", "post_town": "Glasgow", "postcode": "G1 3BX", "region": "Glasgow City"}, "name": "Barburrito", "related_places": {}, "timezone": "Europe/London"}, {"fsq_id": "4b5216fcf964a520f66627e3", "categories": [{"id": 13003, "name": "Bar", "short_name": "Bar", "plural_name": "Bars", "icon": {"prefix": "https://ss3.4sqi.net/img/categories_v2/nightlife/pub_", "suffix": ".png"}}, {"id": 13065, "name": "Restaurant", "short_name": "Restaurant", "plural_name": "Restaurants", "icon": {"prefix": "https://ss3.4sqi.net/img/categories_v2/food/default_", "suffix": ".png"}}], "chains": [], "closed_bucket": "VeryLikelyOpen", "distance": 673, "geocodes": {"main": {"latitude": 55.858867, "longitude": -4.245705}, "roof": {"latitude": 55.858867, "longitude": -4.245705}}, "link": "/v3/places/4b5216fcf964a520f66627e3", "location": {"address": "91 Candleriggs", "admin_region": "Scotland", "country": "GB", "formatted_address": "91 Candleriggs, Glasgow, Glasgow City, G1 1NP", "locality": "Glasgow", "post_town": "Glasgow", "postcode": "G1 1NP", "region": "Glasgow City"}, "name": "Bar 91", "related_places": {}, "timezone": "Europe/London"}, {"fsq_id": "4bf80c5fb182c9b65cb8765a", "categories": [{"id": 13236, "name": "Italian Restaurant", "short_name": "Italian", "plural_name": "Italian Restaurants", "icon": {"prefix": "https://ss3.4sqi.net/img/categories_v2/food/italian_", "suffix": ".png"}}], "chains": [], "closed_bucket": "VeryLikelyOpen", "distance": 519, "geocodes": {"main": {"latitude": 55.859312, "longitude": -4.242495}, "roof": {"latitude": 55.859312, "longitude": -4.242495}}, "link": "/v3/places/4bf80c5fb182c9b65cb8765a", "location": {"address": "30 Ingram St", "admin_region": "Scotland", "country": "GB", "formatted_address": "30 Ingram St, Glasgow, G1 1EZ", "locality": "Glasgow", "post_town": "Glasgow", "postcode": "G1 1EZ"}, "name": "Amore", "related_places": {}, "timezone": "Europe/London"}, {"fsq_id": "4c6586789cb82d7fc10e8ed2", "categories": [{"id": 13009, "name": "Cocktail Bar", "short_name": "Cocktail", "plural_name": "Cocktail Bars", "icon": {"prefix": "https://ss3.4sqi.net/img/categories_v2/nightlife/cocktails_", "suffix": ".png"}}], "chains": [], "closed_bucket": "Unsure", "distance": 839, "geocodes": {"main": {"latitude": 55.859598, "longitude": -4.249511}, "roof": {"latitude": 55.859598, "longitude": -4.249511}}, "link": "/v3/places/4c6586789cb82d7fc10e8ed2", "location": {"address": "191 Ingram St", "admin_region": "Scotland", "country": "GB", "formatted_address": "191 Ingram St, Glasgow, Glasgow City, G1 1DA", "locality": "Glasgow", "post_town": "Glasgow", "postcode": "G1 1DA", "region": "Glasgow City"}, "name": "The Corinthian Club", "related_places": {}, "timezone": "Europe/London"}, {"fsq_id": "58010b1638fa810125548805", "categories": [{"id": 13034, "name": "Caf\u00e9", "short_name": "Caf\u00e9", "plural_name": "Caf\u00e9s", "icon": {"prefix": "https://ss3.4sqi.net/img/categories_v2/food/cafe_", "suffix": ".png"}}, {"id": 13065, "name": "Restaurant", "short_name": "Restaurant", "plural_name": "Restaurants", "icon": {"prefix": "https://ss3.4sqi.net/img/categories_v2/food/default_", "suffix": ".png"}}], "chains": [], "closed_bucket": "VeryLikelyOpen", "distance": 887, "geocodes": {"main": {"latitude": 55.863829, "longitude": -4.251987}, "roof": {"latitude": 55.863829, "longitude": -4.251987}}, "link": "/v3/places/58010b1638fa810125548805", "location": {"address": "John Lewis", "admin_region": "Scotland", "country": "GB", "cross_street": "Buchanan Galleries", "formatted_address": "John Lewis (Buchanan Galleries), Glasgow, Glasgow City", "locality": "Glasgow", "post_town": "Glasgow", "region": "Glasgow City"}, "name": "The Cafe by Benugo", "related_places": {"parent": {"fsq_id": "4b4489b4f964a5203cf625e3", "categories": [{"id": 17114, "name": "Shopping Mall", "short_name": "Mall", "plural_name": "Shopping Malls", "icon": {"prefix": "https://ss3.4sqi.net/img/categories_v2/shops/mall_", "suffix": ".png"}}], "name": "Buchanan Galleries"}}, "timezone": "Europe/London"}, {"fsq_id": "4bd99cb4e914a5934e1a57fa", "categories": [{"id": 13018, "name": "Pub", "short_name": "Pub", "plural_name": "Pubs", "icon": {"prefix": "https://ss3.4sqi.net/img/categories_v2/nightlife/pub_", "suffix": ".png"}}, {"id": 13065, "name": "Restaurant", "short_name": "Restaurant", "plural_name": "Restaurants", "icon": {"prefix": "https://ss3.4sqi.net/img/categories_v2/food/default_", "suffix": ".png"}}], "chains": [{"id": "07841cd9-3716-4bd6-8ebd-ad13070b3125", "name": "J D Wetherspoon"}], "closed_bucket": "Unsure", "distance": 872, "geocodes": {"main": {"latitude": 55.861153, "longitude": -4.2518}, "roof": {"latitude": 55.861153, "longitude": -4.2518}}, "link": "/v3/places/4bd99cb4e914a5934e1a57fa", "location": {"address": "2 St. Vincent Pl", "admin_region": "Scotland", "country": "GB", "formatted_address": "2 St. Vincent Pl, Glasgow, Glasgow City, G1 2DH", "locality": "Glasgow", "post_town": "Glasgow", "postcode": "G1 2DH", "region": "Glasgow City"}, "name": "The Counting House", "related_places": {}, "timezone": "Europe/London"}, {"fsq_id": "4b5b9194f964a520c30729e3", "categories": [{"id": 13018, "name": "Pub", "short_name": "Pub", "plural_name": "Pubs", "icon": {"prefix": "https://ss3.4sqi.net/img/categories_v2/nightlife/pub_", "suffix": ".png"}}, {"id": 13337, "name": "Scottish Restaurant", "short_name": "Scottish", "plural_name": "Scottish Restaurants", "icon": {"prefix": "https://ss3.4sqi.net/img/categories_v2/food/default_", "suffix": ".png"}}], "chains": [], "closed_bucket": "LikelyOpen", "distance": 806, "geocodes": {"main": {"latitude": 55.857101, "longitude": -4.245266}, "roof": {"latitude": 55.857101, "longitude": -4.245266}}, "link": "/v3/places/4b5b9194f964a520c30729e3", "location": {"address": "60 Trongate", "admin_region": "Scotland", "country": "GB", "formatted_address": "60 Trongate, Glasgow, Glasgow City, G1 5EP", "locality": "Glasgow", "post_town": "Glasgow", "postcode": "G1 5EP", "region": "Glasgow City"}, "name": "Maggie Mays", "related_places": {}, "timezone": "Europe/London"}, {"fsq_id": "4beead88b0b376b01cc2dab3", "categories": [{"id": 13003, "name": "Bar", "short_name": "Bar", "plural_name": "Bars", "icon": {"prefix": "https://ss3.4sqi.net/img/categories_v2/nightlife/pub_", "suffix": ".png"}}], "chains": [], "closed_bucket": "Unsure", "distance": 761, "geocodes": {"main": {"latitude": 55.860551, "longitude": -4.249435}, "roof": {"latitude": 55.860551, "longitude": -4.249435}}, "link": "/v3/places/4beead88b0b376b01cc2dab3", "location": {"address": "57 Cochrane St", "admin_region": "Scotland", "country": "GB", "cross_street": "George Square", "formatted_address": "57 Cochrane St (George Square), Glasgow, G1 1HL", "locality": "Glasgow", "post_town": "Glasgow", "postcode": "G1 1HL"}, "name": "The Piper Bar", "related_places": {}, "timezone": "Europe/London"}, {"fsq_id": "571a5bb1498e7769619c1f58", "categories": [{"id": 13309, "name": "Middle Eastern Restaurant", "short_name": "Middle Eastern", "plural_name": "Middle Eastern Restaurants", "icon": {"prefix": "https://ss3.4sqi.net/img/categories_v2/food/middleeastern_", "suffix": ".png"}}, {"id": 13339, "name": "Shawarma Restaurant", "short_name": "Shawarma Restaurant", "plural_name": "Shawarma Restaurants", "icon": {"prefix": "https://ss3.4sqi.net/img/categories_v2/food/middleeastern_", "suffix": ".png"}}], "chains": [], "closed_bucket": "LikelyOpen", "distance": 696, "geocodes": {"main": {"latitude": 55.862194, "longitude": -4.248328}, "roof": {"latitude": 55.862194, "longitude": -4.248328}}, "link": "/v3/places/571a5bb1498e7769619c1f58", "location": {"address": "48 North Frederick Street", "admin_region": "Scotland", "country": "GB", "cross_street": "", "formatted_address": "48 North Frederick Street, Glasgow, Glasgow City, G1 2BS", "locality": "Glasgow", "post_town": "Glasgow", "postcode": "G1 2BS", "region": "Glasgow City"}, "name": "Pasha", "related_places": {}, "timezone": "Europe/London"}, {"fsq_id": "4c1cc2a6eac020a168f946c2", "categories": [{"id": 13199, "name": "Indian Restaurant", "short_name": "Indian", "plural_name": "Indian Restaurants", "icon": {"prefix": "https://ss3.4sqi.net/img/categories_v2/food/indian_", "suffix": ".png"}}, {"id": 13236, "name": "Italian Restaurant", "short_name": "Italian", "plural_name": "Italian Restaurants", "icon": {"prefix": "https://ss3.4sqi.net/img/categories_v2/food/italian_", "suffix": ".png"}}, {"id": 13302, "name": "Mediterranean Restaurant", "short_name": "Mediterranean", "plural_name": "Mediterranean Restaurants", "icon": {"prefix": "https://ss3.4sqi.net/img/categories_v2/food/mediterranean_", "suffix": ".png"}}], "chains": [], "closed_bucket": "VeryLikelyOpen", "distance": 743, "geocodes": {"main": {"latitude": 55.85967, "longitude": -4.248252}, "roof": {"latitude": 55.85967, "longitude": -4.248252}}, "link": "/v3/places/4c1cc2a6eac020a168f946c2", "location": {"address": "159 Ingram St", "admin_region": "Scotland", "country": "GB", "formatted_address": "159 Ingram St, Glasgow, Glasgow City, G1 1DW", "locality": "Glasgow", "post_town": "Glasgow", "postcode": "G1 1DW", "region": "Glasgow City"}, "name": "Mediterraneo", "related_places": {}, "timezone": "Europe/London"}, {"fsq_id": "4c110b613ce120a1b102091c", "categories": [{"id": 13003, "name": "Bar", "short_name": "Bar", "plural_name": "Bars", "icon": {"prefix": "https://ss3.4sqi.net/img/categories_v2/nightlife/pub_", "suffix": ".png"}}, {"id": 13065, "name": "Restaurant", "short_name": "Restaurant", "plural_name": "Restaurants", "icon": {"prefix": "https://ss3.4sqi.net/img/categories_v2/food/default_", "suffix": ".png"}}], "chains": [], "closed_bucket": "VeryLikelyOpen", "distance": 843, "geocodes": {"main": {"latitude": 55.858882, "longitude": -4.249139}, "roof": {"latitude": 55.858882, "longitude": -4.249139}}, "link": "/v3/places/4c110b613ce120a1b102091c", "location": {"address": "61-65 Glassford St", "admin_region": "Scotland", "country": "GB", "formatted_address": "61-65 Glassford St, Glasgow, Glasgow City, G1 1UG", "locality": "Glasgow", "post_town": "Glasgow", "postcode": "G1 1UG", "region": "Glasgow City"}, "name": "Warehouse Merchant City", "related_places": {}, "timezone": "Europe/London"}, {"fsq_id": "4de95474c65b72347a275f9e", "categories": [{"id": 13022, "name": "Sports Bar", "short_name": "Sports Bar", "plural_name": "Sports Bars", "icon": {"prefix": "https://ss3.4sqi.net/img/categories_v2/nightlife/sportsbar_", "suffix": ".png"}}, {"id": 13018, "name": "Pub", "short_name": "Pub", "plural_name": "Pubs", "icon": {"prefix": "https://ss3.4sqi.net/img/categories_v2/nightlife/pub_", "suffix": ".png"}}], "chains": [], "closed_bucket": "Unsure", "distance": 688, "geocodes": {"main": {"latitude": 55.860185, "longitude": -4.247532}, "roof": {"latitude": 55.860185, "longitude": -4.247532}}, "link": "/v3/places/4de95474c65b72347a275f9e", "location": {"address": "18 John St", "admin_region": "Scotland", "country": "GB", "cross_street": "", "formatted_address": "18 John St, Glasgow, Glasgow City, G1 1JQ", "locality": "Glasgow", "post_town": "Glasgow", "postcode": "G1 1JQ", "region": "Glasgow City"}, "name": "Committee Room No.9", "related_places": {}, "timezone": "Europe/London"}, {"fsq_id": "59c6a66dc4df1d02e4877a35", "categories": [{"id": 13029, "name": "Brewery", "short_name": "Brewery", "plural_name": "Breweries", "icon": {"prefix": "https://ss3.4sqi.net/img/categories_v2/food/brewery_", "suffix": ".png"}}], "chains": [], "closed_bucket": "VeryLikelyOpen", "distance": 602, "geocodes": {"drop_off": {"latitude": 55.859145, "longitude": -4.230883}, "main": {"latitude": 55.859288, "longitude": -4.230863}, "roof": {"latitude": 55.859288, "longitude": -4.230863}}, "link": "/v3/places/59c6a66dc4df1d02e4877a35", "location": {"address": "161 Duke St", "admin_region": "Scotland", "country": "GB", "cross_street": "", "formatted_address": "161 Duke St, Glasgow, G31 1JD", "locality": "Glasgow", "post_town": "Glasgow", "postcode": "G31 1JD"}, "name": "Tennent\u2019s Caledonian Brewery Visitor Center", "related_places": {}, "timezone": "Europe/London"}, {"fsq_id": "4b5b73e4f964a5201bff28e3", "categories": [{"id": 13006, "name": "Beer Bar", "short_name": "Beer Bar", "plural_name": "Beer Bars", "icon": {"prefix": "https://ss3.4sqi.net/img/categories_v2/nightlife/pub_", "suffix": ".png"}}, {"id": 13018, "name": "Pub", "short_name": "Pub", "plural_name": "Pubs", "icon": {"prefix": "https://ss3.4sqi.net/img/categories_v2/nightlife/pub_", "suffix": ".png"}}, {"id": 13065, "name": "Restaurant", "short_name": "Restaurant", "plural_name": "Restaurants", "icon": {"prefix": "https://ss3.4sqi.net/img/categories_v2/food/default_", "suffix": ".png"}}], "chains": [], "closed_bucket": "VeryLikelyOpen", "distance": 681, "geocodes": {"main": {"latitude": 55.858295, "longitude": -4.244637}, "roof": {"latitude": 55.858295, "longitude": -4.244637}}, "link": "/v3/places/4b5b73e4f964a5201bff28e3", "location": {"address": "71-73 Albion St", "admin_region": "Scotland", "country": "GB", "cross_street": "", "formatted_address": "71-73 Albion St, Glasgow, Glasgow City, G1 1NY", "locality": "Glasgow", "post_town": "Glasgow", "postcode": "G1 1NY", "region": "Glasgow City"}, "name": "O'Neill's", "related_places": {"parent": {"fsq_id": "4b9cecbcf964a520bd8236e3", "categories": [{"id": 13003, "name": "Bar", "short_name": "Bar", "plural_name": "Bars", "icon": {"prefix": "https://ss3.4sqi.net/img/categories_v2/nightlife/pub_", "suffix": ".png"}}, {"id": 13065, "name": "Restaurant", "short_name": "Restaurant", "plural_name": "Restaurants", "icon": {"prefix": "https://ss3.4sqi.net/img/categories_v2/food/default_", "suffix": ".png"}}], "name": "Merchant Square"}}, "timezone": "Europe/London"}, {"fsq_id": "4d9b10cc7709cbff216f38b2", "categories": [{"id": 13039, "name": "Deli", "short_name": "Deli", "plural_name": "Delis", "icon": {"prefix": "https://ss3.4sqi.net/img/categories_v2/food/deli_", "suffix": ".png"}}, {"id": 13145, "name": "Fast Food Restaurant", "short_name": "Fast Food", "plural_name": "Fast Food Restaurants", "icon": {"prefix": "https://ss3.4sqi.net/img/categories_v2/food/fastfood_", "suffix": ".png"}}, {"id": 13334, "name": "Sandwich Spot", "short_name": "Sandwich Spot", "plural_name": "Sandwich Spots", "icon": {"prefix": "https://ss3.4sqi.net/img/categories_v2/food/deli_", "suffix": ".png"}}], "chains": [{"id": "ab4bee40-d68a-012e-5619-003048cad9da", "name": "Subway"}], "closed_bucket": "VeryLikelyOpen", "distance": 936, "geocodes": {"main": {"latitude": 55.860863, "longitude": -4.252282}, "roof": {"latitude": 55.860863, "longitude": -4.252282}}, "link": "/v3/places/4d9b10cc7709cbff216f38b2", "location": {"address": "11 St Vincent Pl", "admin_region": "Scotland", "country": "GB", "formatted_address": "11 St Vincent Pl, Glasgow, G1 2DW", "locality": "Glasgow", "post_town": "Glasgow", "postcode": "G1 2DW"}, "name": "Subway", "related_places": {}, "timezone": "Europe/London"}, {"fsq_id": "4c13853ea9c220a1fdd4559d", "categories": [{"id": 13022, "name": "Sports Bar", "short_name": "Sports Bar", "plural_name": "Sports Bars", "icon": {"prefix": "https://ss3.4sqi.net/img/categories_v2/nightlife/sportsbar_", "suffix": ".png"}}, {"id": 13068, "name": "American Restaurant", "short_name": "American", "plural_name": "American Restaurants", "icon": {"prefix": "https://ss3.4sqi.net/img/categories_v2/food/default_", "suffix": ".png"}}], "chains": [], "closed_bucket": "Unsure", "distance": 954, "geocodes": {"main": {"latitude": 55.860748, "longitude": -4.252454}, "roof": {"latitude": 55.860748, "longitude": -4.252454}}, "link": "/v3/places/4c13853ea9c220a1fdd4559d", "location": {"address": "6 North Ct", "admin_region": "Scotland", "country": "GB", "formatted_address": "6 North Ct, Glasgow, Glasgow City, G1 2DP", "locality": "Glasgow", "post_town": "Glasgow", "postcode": "G1 2DP", "region": "Glasgow City"}, "name": "The Auctioneers", "related_places": {}, "timezone": "Europe/London"}, {"fsq_id": "4ba74d5ff964a520758a39e3", "categories": [{"id": 13034, "name": "Caf\u00e9", "short_name": "Caf\u00e9", "plural_name": "Caf\u00e9s", "icon": {"prefix": "https://ss3.4sqi.net/img/categories_v2/food/cafe_", "suffix": ".png"}}, {"id": 13049, "name": "Diner", "short_name": "Diner", "plural_name": "Diners", "icon": {"prefix": "https://ss3.4sqi.net/img/categories_v2/food/diner_", "suffix": ".png"}}, {"id": 13334, "name": "Sandwich Spot", "short_name": "Sandwich Spot", "plural_name": "Sandwich Spots", "icon": {"prefix": "https://ss3.4sqi.net/img/categories_v2/food/deli_", "suffix": ".png"}}], "chains": [], "closed_bucket": "LikelyOpen", "distance": 803, "geocodes": {"main": {"latitude": 55.857015, "longitude": -4.244913}, "roof": {"latitude": 55.857015, "longitude": -4.244913}}, "link": "/v3/places/4ba74d5ff964a520758a39e3", "location": {"address": "46 Trongate", "admin_region": "Scotland", "country": "GB", "cross_street": "Albion Street", "formatted_address": "46 Trongate (Albion Street), Glasgow, Glasgow City, G1 5ES", "locality": "Glasgow", "post_town": "Glasgow", "postcode": "G1 5ES", "region": "Glasgow City"}, "name": "Spoon Cafe", "related_places": {}, "timezone": "Europe/London"}, {"fsq_id": "4bf22eee78cec9282e40bb86", "categories": [{"id": 13031, "name": "Burger Joint", "short_name": "Burgers", "plural_name": "Burger Joints", "icon": {"prefix": "https://ss3.4sqi.net/img/categories_v2/food/burger_", "suffix": ".png"}}, {"id": 13145, "name": "Fast Food Restaurant", "short_name": "Fast Food", "plural_name": "Fast Food Restaurants", "icon": {"prefix": "https://ss3.4sqi.net/img/categories_v2/food/fastfood_", "suffix": ".png"}}], "chains": [{"id": "ab4a3530-d68a-012e-5619-003048cad9da", "name": "McDonald's"}], "closed_bucket": "VeryLikelyOpen", "distance": 903, "geocodes": {"main": {"latitude": 55.85728, "longitude": -4.2486}, "roof": {"latitude": 55.85728, "longitude": -4.2486}}, "link": "/v3/places/4bf22eee78cec9282e40bb86", "location": {"address": "165/167 Trongate", "admin_region": "Scotland", "country": "GB", "cross_street": "Trongate", "formatted_address": "165/167 Trongate (Trongate), Glasgow, Glasgow City, G1 5HF", "locality": "Glasgow", "post_town": "Glasgow", "postcode": "G1 5HF", "region": "Glasgow City"}, "name": "McDonald's", "related_places": {}, "timezone": "Europe/London"}, {"fsq_id": "4c07ee4d7e3fc9280b7def82", "categories": [{"id": 13018, "name": "Pub", "short_name": "Pub", "plural_name": "Pubs", "icon": {"prefix": "https://ss3.4sqi.net/img/categories_v2/nightlife/pub_", "suffix": ".png"}}, {"id": 13022, "name": "Sports Bar", "short_name": "Sports Bar", "plural_name": "Sports Bars", "icon": {"prefix": "https://ss3.4sqi.net/img/categories_v2/nightlife/sportsbar_", "suffix": ".png"}}, {"id": 13065, "name": "Restaurant", "short_name": "Restaurant", "plural_name": "Restaurants", "icon": {"prefix": "https://ss3.4sqi.net/img/categories_v2/food/default_", "suffix": ".png"}}], "chains": [], "closed_bucket": "VeryLikelyOpen", "distance": 900, "geocodes": {"main": {"latitude": 55.86062, "longitude": -4.251924}, "roof": {"latitude": 55.86062, "longitude": -4.251924}}, "link": "/v3/places/4c07ee4d7e3fc9280b7def82", "location": {"address": "155 Queen St", "admin_region": "Scotland", "country": "GB", "formatted_address": "155 Queen St, Glasgow, Glasgow City, G1 3BJ", "locality": "Glasgow", "post_town": "Glasgow", "postcode": "G1 3BJ", "region": "Glasgow City"}, "name": "Drouthy's", "related_places": {}, "timezone": "Europe/London"}, {"fsq_id": "6163179622fff040770c2d38", "categories": [{"id": 13236, "name": "Italian Restaurant", "short_name": "Italian", "plural_name": "Italian Restaurants", "icon": {"prefix": "https://ss3.4sqi.net/img/categories_v2/food/italian_", "suffix": ".png"}}], "chains": [], "closed_bucket": "LikelyOpen", "distance": 199, "geocodes": {"main": {"latitude": 55.861895, "longitude": -4.23504}, "roof": {"latitude": 55.861895, "longitude": -4.23504}}, "link": "/v3/places/6163179622fff040770c2d38", "location": {"address": "28-32 Cathedral Square", "admin_region": "Scotland", "country": "GB", "cross_street": "", "formatted_address": "28-32 Cathedral Square, Glasgow, Glasgow City, G4 0XA", "locality": "Glasgow", "post_town": "Glasgow", "postcode": "G4 0XA", "region": "Glasgow City"}, "name": "Celentano's", "related_places": {}, "timezone": "Europe/London"}, {"fsq_id": "5209f6ed11d2d9468161b9da", "categories": [{"id": 13034, "name": "Caf\u00e9", "short_name": "Caf\u00e9", "plural_name": "Caf\u00e9s", "icon": {"prefix": "https://ss3.4sqi.net/img/categories_v2/food/cafe_", "suffix": ".png"}}, {"id": 13035, "name": "Coffee Shop", "short_name": "Coffee Shop", "plural_name": "Coffee Shops", "icon": {"prefix": "https://ss3.4sqi.net/img/categories_v2/food/coffeeshop_", "suffix": ".png"}}, {"id": 13065, "name": "Restaurant", "short_name": "Restaurant", "plural_name": "Restaurants", "icon": {"prefix": "https://ss3.4sqi.net/img/categories_v2/food/default_", "suffix": ".png"}}], "chains": [], "closed_bucket": "VeryLikelyOpen", "distance": 246, "geocodes": {"main": {"latitude": 55.864966, "longitude": -4.235693}, "roof": {"latitude": 55.864966, "longitude": -4.235693}}, "link": "/v3/places/5209f6ed11d2d9468161b9da", "location": {"address": "88-92 Castle St", "address_extended": "Unit 88", "admin_region": "Scotland", "country": "GB", "cross_street": "", "formatted_address": "88-92 Castle St, Glasgow, G4 0SF", "locality": "Glasgow", "post_town": "Glasgow", "postcode": "G4 0SF"}, "name": "The Clock Tower", "related_places": {}, "timezone": "Europe/London"}, {"fsq_id": "4d5d9360e0ffa1cd04d01c54", "categories": [{"id": 13018, "name": "Pub", "short_name": "Pub", "plural_name": "Pubs", "icon": {"prefix": "https://ss3.4sqi.net/img/categories_v2/nightlife/pub_", "suffix": ".png"}}], "chains": [], "closed_bucket": "LikelyOpen", "distance": 468, "geocodes": {"main": {"latitude": 55.86029, "longitude": -4.243821}, "roof": {"latitude": 55.86029, "longitude": -4.243821}}, "link": "/v3/places/4d5d9360e0ffa1cd04d01c54", "location": {"address": "199 Albion St", "admin_region": "Scotland", "country": "GB", "cross_street": "", "formatted_address": "199 Albion St, Glasgow, G1 1RU", "locality": "Glasgow", "post_town": "Glasgow", "postcode": "G1 1RU"}, "name": "The Press Bar", "related_places": {}, "timezone": "Europe/London"}, {"fsq_id": "5b3e211c92e7a9002c617d9e", "categories": [{"id": 13064, "name": "Pizzeria", "short_name": "Pizza", "plural_name": "Pizzerias", "icon": {"prefix": "https://ss3.4sqi.net/img/categories_v2/food/pizza_", "suffix": ".png"}}], "chains": [], "closed_bucket": "VeryLikelyOpen", "distance": 543, "geocodes": {"main": {"latitude": 55.859217, "longitude": -4.232122}, "roof": {"latitude": 55.859217, "longitude": -4.232122}}, "link": "/v3/places/5b3e211c92e7a9002c617d9e", "location": {"address": "120 Duke St", "admin_region": "Scotland", "country": "GB", "cross_street": "", "formatted_address": "120 Duke St, Glasgow, Glasgow City, G4 0XW", "locality": "Glasgow", "post_town": "Glasgow", "postcode": "G4 0XW", "region": "Glasgow City"}, "name": "Baked Pizza Al Taglio", "related_places": {}, "timezone": "Europe/London"}, {"fsq_id": "8fd26a7f3e2f47438adaf7f5", "categories": [{"id": 10032, "name": "Night Club", "short_name": "Night Club", "plural_name": "Night Clubs", "icon": {"prefix": "https://ss3.4sqi.net/img/categories_v2/nightlife/nightclub_", "suffix": ".png"}}, {"id": 13003, "name": "Bar", "short_name": "Bar", "plural_name": "Bars", "icon": {"prefix": "https://ss3.4sqi.net/img/categories_v2/nightlife/pub_", "suffix": ".png"}}], "chains": [], "closed_bucket": "LikelyOpen", "distance": 663, "geocodes": {"drop_off": {"latitude": 55.857396, "longitude": -4.242205}, "main": {"latitude": 55.857541, "longitude": -4.242161}, "roof": {"latitude": 55.857541, "longitude": -4.242161}}, "link": "/v3/places/8fd26a7f3e2f47438adaf7f5", "location": {"address": "111 Bell St", "admin_region": "Scotland", "country": "GB", "formatted_address": "111 Bell St, Glasgow, Glasgow City, G4 0TQ", "locality": "Glasgow", "post_town": "Glasgow", "postcode": "G4 0TQ", "region": "Glasgow City"}, "name": "Tilllate Media", "related_places": {}, "timezone": "Europe/London"}], "context": {"geo_bounds": {"circle": {"center": {"latitude": 55.862973, "longitude": -4.237745}, "radius": 1000}}}}