{"results": [{"fsq_id": "526ea7df498e5b63e521e724", "categories": [{"id": 13003, "name": "Bar", "short_name": "Bar", "plural_name": "Bars", "icon": {"prefix": "https://ss3.4sqi.net/img/categories_v2/nightlife/pub_", "suffix": ".png"}}], "chains": [], "closed_bucket": "VeryLikelyOpen", "distance": 744, "geocodes": {"main": {"latitude": 55.827611, "longitude": -4.295682}, "roof": {"latitude": 55.827611, "longitude": -4.295682}}, "link": "/v3/places/526ea7df498e5b63e521e724", "location": {"admin_region": "Scotland", "country": "GB", "cross_street": "", "formatted_address": "Glasgow, Glasgow City, G43 1RF", "locality": "Glasgow", "post_town": "Glasgow", "postcode": "G43 1RF", "region": "Glasgow City"}, "name": "Burrell", "related_places": {}, "timezone": "Europe/London"}, {"fsq_id": "529634c311d21b0f7e41c474", "categories": [{"id": 10000, "name": "Arts and Entertainment", "short_name": "Arts & Entertainment", "plural_name": "Arts and Entertainment", "icon": {"prefix": "https://ss3.4sqi.net/img/categories_v2/arts_entertainment/default_", "suffix": ".png"}}, {"id": 13003, "name": "Bar", "short_name": "Bar", "plural_name": "Bars", "icon": {"prefix": "https://ss3.4sqi.net/img/categories_v2/nightlife/pub_", "suffix": ".png"}}, {"id": 13031, "name": "Burger Joint", "short_name": "Burgers", "plural_name": "Burger Joints", "icon": {"prefix": "https://ss3.4sqi.net/img/categories_v2/food/burger_", "suffix": ".png"}}], "chains": [], "closed_bucket": "VeryLikelyOpen", "distance": 749, "geocodes": {"main": {"latitude": 55.823219, "longitude": -4.303321}, "roof": {"latitude": 55.823219, "longitude": -4.303321}}, "link": "/v3/places/529634c311d21b0f7e41c474", "location": {"address": "2060 Pollockshaw Rd", "admin_region": "Scotland", "country": "GB", "cross_street": "", "formatted_address": "2060 Pollockshaw Rd, Glasgow, G43 1AT", "locality": "Glasgow", "post_town": "Glasgow", "postcode": "G43 1AT"}, "name": "Burrell Restaurant", "related_places": {}, "timezone": "Europe/London"}, {"fsq_id": "cedaf863c895467a9d350648", "categories": [{"id": 13003, "name": "Bar", "short_name": "Bar", "plural_name": "Bars", "icon": {"prefix": "https://ss3.4sqi.net/img/categories_v2/nightlife/pub_", "suffix": ".png"}}, {"id": 13347, "name": "Tapas Restaurant", "short_name": "Tapas", "plural_name": "Tapas Restaurants", "icon": {"prefix": "https://ss3.4sqi.net/img/categories_v2/food/tapas_", "suffix": ".png"}}], "chains": [], "closed_bucket": "Unsure", "distance": 750, "geocodes": {"main": {"latitude": 55.827617, "longitude": -4.295577}, "roof": {"latitude": 55.827617, "longitude": -4.295577}}, "link": "/v3/places/cedaf863c895467a9d350648", "location": {"address": "1543 Pollokshaws Rd", "admin_region": "Scotland", "country": "GB", "formatted_address": "1543 Pollokshaws Rd, Glasgow, Glasgow City, G43 1RF", "locality": "Glasgow", "post_town": "Glasgow", "postcode": "G43 1RF", "region": "Glasgow City"}, "name": "Nineteenoone Bar", "related_places": {}, "timezone": "Europe/London"}, {"fsq_id": "4fc50f1cd5fbe3b4351367bd", "categories": [{"id": 13003, "name": "Bar", "short_name": "Bar", "plural_name": "Bars", "icon": {"prefix": "https://ss3.4sqi.net/img/categories_v2/nightlife/pub_", "suffix": ".png"}}, {"id": 13347, "name": "Tapas Restaurant", "short_name": "Tapas", "plural_name": "Tapas Restaurants", "icon": {"prefix": "https://ss3.4sqi.net/img/categories_v2/food/tapas_", "suffix": ".png"}}], "chains": [], "closed_bucket": "LikelyOpen", "distance": 750, "geocodes": {"main": {"latitude": 55.827617, "longitude": -4.295577}, "roof": {"latitude": 55.827617, "longitude": -4.295577}}, "link": "/v3/places/4fc50f1cd5fbe3b4351367bd", "location": {"address": "1534 Pollokshaws Rd", "admin_region": "Scotland", "country": "GB", "cross_street": "Pollokshaws", "formatted_address": "1534 Pollokshaws Rd (Pollokshaws), Glasgow, G43 1RF", "locality": "Glasgow", "post_town": "Glasgow", "postcode": "G43 1RF"}, "name": "La Vida Tapas Bar", "related_places": {}, "timezone": "Europe/London"}, {"fsq_id": "4f96a4fae4b0dd23c44f463b", "categories": [{"id": 13057, "name": "Gastropub", "short_name": "Gastropub", "plural_name": "Gastropubs", "icon": {"prefix": "https://ss3.4sqi.net/img/categories_v2/food/gastropub_", "suffix": ".png"}}], "chains": [], "closed_bucket": "VeryLikelyOpen", "distance": 810, "geocodes": {"main": {"latitude": 55.827862, "longitude": -4.31881}, "roof": {"latitude": 55.827862, "longitude": -4.31881}}, "link": "/v3/places/4f96a4fae4b0dd23c44f463b", "location": {"country": "GB", "cross_street": "", "formatted_address": ""}, "name": "Kitchen Restaurant", "related_places": {}, "timezone": "Europe/London"}, {"fsq_id": "4e3bc7586365a251c7023f9f", "categories": [{"id": 13099, "name": "Chinese Restaurant", "short_name": "Chinese", "plural_name": "Chinese Restaurants", "icon": {"prefix": "https://ss3.4sqi.net/img/categories_v2/food/asian_", "suffix": ".png"}}, {"id": 13145, "name": "Fast Food Restaurant", "short_name": "Fast Food", "plural_name": "Fast Food Restaurants", "icon": {"prefix": "https://ss3.4sqi.net/img/categories_v2/food/fastfood_", "suffix": ".png"}}], "chains": [], "closed_bucket": "LikelyOpen", "distance": 851, "geocodes": {"main": {"latitude": 55.825632, "longitude": -4.29527}, "roof": {"latitude": 55.825632, "longitude": -4.29527}}, "link": "/v3/places/4e3bc7586365a251c7023f9f", "location": {"address": "33 Shawbridge Arcade", "admin_region": "Scotland", "country": "GB", "formatted_address": "33 Shawbridge Arcade, Glasgow, Glasgow City, G43 1RT", "locality": "Glasgow", "post_town": "Glasgow", "postcode": "G43 1RT", "region": "Glasgow City"}, "name": "Lucky Star", "related_places": {}, "timezone": "Europe/London"}, {"fsq_id": "4e3e88846365a251c703ceef", "categories": [{"id": 13145, "name": "Fast Food Restaurant", "short_name": "Fast Food", "plural_name": "Fast Food Restaurants", "icon": {"prefix": "https://ss3.4sqi.net/img/categories_v2/food/fastfood_", "suffix": ".png"}}, {"id": 13199, "name": "Indian Restaurant", "short_name": "Indian", "plural_name": "Indian Restaurants", "icon": {"prefix": "https://ss3.4sqi.net/img/categories_v2/food/indian_", "suffix": ".png"}}], "chains": [], "closed_bucket": "LikelyOpen", "distance": 852, "geocodes": {"main": {"latitude": 55.825583, "longitude": -4.295199}, "roof": {"latitude": 55.825583, "longitude": -4.295199}}, "link": "/v3/places/4e3e88846365a251c703ceef", "location": {"address": "29 Shawbridge Arcade", "admin_region": "Scotland", "country": "GB", "formatted_address": "29 Shawbridge Arcade, Glasgow, Glasgow City, G43 1RT", "locality": "Glasgow", "post_town": "Glasgow", "postcode": "G43 1RT", "region": "Glasgow City"}, "name": "Spice Routes", "related_places": {}, "timezone": "Europe/London"}, {"fsq_id": "51c25663454a342160dc7b34", "categories": [{"id": 13003, "name": "Bar", "short_name": "Bar", "plural_name": "Bars", "icon": {"prefix": "https://ss3.4sqi.net/img/categories_v2/nightlife/pub_", "suffix": ".png"}}], "chains": [], "closed_bucket": "VeryLikelyOpen", "distance": 959, "geocodes": {"drop_off": {"latitude": 55.825502, "longitude": -4.293661}, "main": {"latitude": 55.825407, "longitude": -4.293687}, "roof": {"latitude": 55.825407, "longitude": -4.293687}}, "link": "/v3/places/51c25663454a342160dc7b34", "location": {"address": "12 Greenview St", "admin_region": "Scotland", "country": "GB", "formatted_address": "12 Greenview St, Glasgow, Glasgow City, G43 1SN", "locality": "Glasgow", "post_town": "Glasgow", "postcode": "G43 1SN", "region": "Glasgow City"}, "name": "Taps Oan", "related_places": {}, "timezone": "Europe/London"}, {"fsq_id": "6a729aeca40c489d49dc50c9", "categories": [{"id": 13003, "name": "Bar", "short_name": "Bar", "plural_name": "Bars", "icon": {"prefix": "https://ss3.4sqi.net/img/categories_v2/nightlife/pub_", "suffix": ".png"}}, {"id": 13065, "name": "Restaurant", "short_name": "Restaurant", "plural_name": "Restaurants", "icon": {"prefix": "https://ss3.4sqi.net/img/categories_v2/food/default_", "suffix": ".png"}}], "chains": [], "closed_bucket": "Unsure", "distance": 755, "geocodes": {"drop_off": {"latitude": 55.827513, "longitude": -4.295442}, "main": {"latitude": 55.827623, "longitude": -4.295473}, "roof": {"latitude": 55.827623, "longitude": -4.295473}}, "link": "/v3/places/6a729aeca40c489d49dc50c9", "location": {"admin_region": "Scotland", "country": "GB", "formatted_address": "Glasgow", "locality": "Glasgow", "post_town": "Glasgow"}, "name": "1901 Public House", "related_places": {}}, {"fsq_id": "5a4a85ea28c949ee6961b2a4", "categories": [{"id": 10000, "name": "Arts and Entertainment", "short_name": "Arts & Entertainment", "plural_name": "Arts and Entertainment", "icon": {"prefix": "https://ss3.4sqi.net/img/categories_v2/arts_entertainment/default_", "suffix": ".png"}}, {"id": 13065, "name": "Restaurant", "short_name": "Restaurant", "plural_name": "Restaurants", "icon": {"prefix": "https://ss3.4sqi.net/img/categories_v2/food/default_", "suffix": ".png"}}], "chains": [], "closed_bucket": "Unsure", "distance": 767, "geocodes": {"main": {"latitude": 55.828026, "longitude": -4.31871}, "roof": {"latitude": 55.828026, "longitude": -4.31871}}, "link": "/v3/places/5a4a85ea28c949ee6961b2a4", "location": {"address": "2060 Pollokshaws Rd", "admin_region": "Scotland", "country": "GB", "formatted_address": "2060 Pollokshaws Rd, Glasgow, G43 1AT", "locality": "Glasgow", "post_town": "Glasgow", "postcode": "G43 1AT"}, "name": "The Edwardian Kitchen Restaurant", "related_places": {}}, {"fsq_id": "42f4f4f5e7ba48d86de180d4", "categories": [{"id": 13029, "name": "Brewery", "short_name": "Brewery", "plural_name": "Breweries", "icon": {"prefix": "https://ss3.4sqi.net/img/categories_v2/food/brewery_", "suffix": ".png"}}], "chains": [], "closed_bucket": "Unsure", "distance": 968, "geocodes": {"main": {"latitude": 55.822913, "longitude": -4.297638}, "roof": {"latitude": 55.822913, "longitude": -4.297638}}, "link": "/v3/places/42f4f4f5e7ba48d86de180d4", "location": {"address": "137 Shawbridge St", "admin_region": "Scotland", "country": "GB", "formatted_address": "137 Shawbridge St, Glasgow, G43 1QQ", "locality": "Glasgow", "post_town": "Glasgow", "postcode": "G43 1QQ"}, "name": "Isle of Skye Brewery", "related_places": {}}], "context": {"geo_bounds": {"circle": {"center": {"latitude": 55.829914, "longitude": -4.306877}, "radius": 1000}}}}