{"results": [{"fsq_id": "4e2db6c618387cce068bd7ac", "categories": [{"id": 13338, "name": "Seafood Restaurant", "short_name": "Seafood", "plural_name": "Seafood Restaurants", "icon": {"prefix": "https://ss3.4sqi.net/img/categories_v2/food/seafood_", "suffix": ".png"}}], "chains": [], "closed_bucket": "LikelyOpen", "distance": 1008, "geocodes": {"main": {"latitude": 55.878078, "longitude": -4.322501}, "roof": {"latitude": 55.878078, "longitude": -4.322501}}, "link": "/v3/places/4e2db6c618387cce068bd7ac", "location": {"address": "340 Crow Rd", "admin_region": "Scotland", "country": "GB", "formatted_address": "340 Crow Rd, Glasgow, Glasgow City, G11 7HT", "locality": "Glasgow", "post_town": "Glasgow", "postcode": "G11 7HT", "region": "Glasgow City"}, "name": "Wee Lochan", "related_places": {}, "timezone": "Europe/London"}, {"fsq_id": "4e6b4e48d164c37bf4f34dbe", "categories": [{"id": 13027, "name": "Bistro", "short_name": "Bistro", "plural_name": "Bistros", "icon": {"prefix": "https://ss3.4sqi.net/img/categories_v2/food/default_", "suffix": ".png"}}, {"id": 13034, "name": "Caf\u00e9", "short_name": "Caf\u00e9", "plural_name": "Caf\u00e9s", "icon": {"prefix": "https://ss3.4sqi.net/img/categories_v2/food/cafe_", "suffix": ".png"}}, {"id": 13035, "name": "Coffee Shop", "short_name": "Coffee Shop", "plural_name": "Coffee Shops", "icon": {"prefix": "https://ss3.4sqi.net/img/categories_v2/food/coffeeshop_", "suffix": ".png"}}], "chains": [], "closed_bucket": "VeryLikelyOpen", "distance": 961, "geocodes": {"main": {"latitude": 55.875789, "longitude": -4.305458}, "roof": {"latitude": 55.875789, "longitude": -4.305458}}, "link": "/v3/places/4e6b4e48d164c37bf4f34dbe", "location": {"address": "195 Hyndland Rd", "admin_region": "Scotland", "country": "GB", "cross_street": "", "formatted_address": "195 Hyndland Rd, Glasgow, G12 9HT", "locality": "Glasgow", "post_town": "Glasgow", "postcode": "G12 9HT"}, "name": "Jelly Hill", "related_places": {}, "timezone": "Europe/London"}, {"fsq_id": "569283c2498ea42feb60531d", "categories": [{"id": 13236, "name": "Italian Restaurant", "short_name": "Italian", "plural_name": "Italian Restaurants", "icon": {"prefix": "https://ss3.4sqi.net/img/categories_v2/food/italian_", "suffix": ".png"}}], "chains": [], "closed_bucket": "LikelyOpen", "distance": 469, "geocodes": {"main": {"latitude": 55.88097, "longitude": -4.30513}, "roof": {"latitude": 55.88097, "longitude": -4.30513}}, "link": "/v3/places/569283c2498ea42feb60531d", "location": {"address": "30A Hyndland Rd", "admin_region": "Scotland", "country": "GB", "cross_street": "", "formatted_address": "30A Hyndland Rd, Glasgow, Glasgow City, G12 9UP", "locality": "Glasgow", "post_town": "Glasgow", "postcode": "G12 9UP", "region": "Glasgow City"}, "name": "Caffe Parma", "related_places": {}, "timezone": "Europe/London"}, {"fsq_id": "4b6c0e77f964a520aa212ce3", "categories": [{"id": 13034, "name": "Caf\u00e9", "short_name": "Caf\u00e9", "plural_name": "Caf\u00e9s", "icon": {"prefix": "https://ss3.4sqi.net/img/categories_v2/food/cafe_", "suffix": ".png"}}, {"id": 13334, "name": "Sandwich Spot", "short_name": "Sandwich Spot", "plural_name": "Sandwich Spots", "icon": {"prefix": "https://ss3.4sqi.net/img/categories_v2/food/deli_", "suffix": ".png"}}], "chains": [], "closed_bucket": "Unsure", "distance": 710, "geocodes": {"main": {"latitude": 55.877819, "longitude": -4.312324}, "roof": {"latitude": 55.877819, "longitude": -4.312324}}, "link": "/v3/places/4b6c0e77f964a520aa212ce3", "location": {"address": "96 Clarence Dr", "admin_region": "Scotland", "country": "GB", "cross_street": "", "formatted_address": "96 Clarence Dr, Glasgow, Glasgow City, G12 9RN", "locality": "Glasgow", "post_town": "Glasgow", "postcode": "G12 9RN", "region": "Glasgow City"}, "name": "The Hyndland Cafe", "related_places": {}, "timezone": "Europe/London"}, {"fsq_id": "4e948ac97ee6471a2aa1967d", "categories": [{"id": 13065, "name": "Restaurant", "short_name": "Restaurant", "plural_name": "Restaurants", "icon": {"prefix": "https://ss3.4sqi.net/img/categories_v2/food/default_", "suffix": ".png"}}], "chains": [], "closed_bucket": "VeryLikelyOpen", "distance": 362, "geocodes": {"main": {"latitude": 55.881396, "longitude": -4.306896}, "roof": {"latitude": 55.881396, "longitude": -4.306896}}, "link": "/v3/places/4e948ac97ee6471a2aa1967d", "location": {"address": "32 Hughenden Rd", "admin_region": "Scotland", "country": "GB", "cross_street": "", "formatted_address": "32 Hughenden Rd, Glasgow, Glasgow City, G12 9XP", "locality": "Glasgow", "post_town": "Glasgow", "postcode": "G12 9XP", "region": "Glasgow City"}, "name": "Cafe Source Too", "related_places": {}, "timezone": "Europe/London"}, {"fsq_id": "4bd595d2cfa7b7135afd25da", "categories": [{"id": 13034, "name": "Caf\u00e9", "short_name": "Caf\u00e9", "plural_name": "Caf\u00e9s", "icon": {"prefix": "https://ss3.4sqi.net/img/categories_v2/food/cafe_", "suffix": ".png"}}, {"id": 13035, "name": "Coffee Shop", "short_name": "Coffee Shop", "plural_name": "Coffee Shops", "icon": {"prefix": "https://ss3.4sqi.net/img/categories_v2/food/coffeeshop_", "suffix": ".png"}}, {"id": 13145, "name": "Fast Food Restaurant", "short_name": "Fast Food", "plural_name": "Fast Food Restaurants", "icon": {"prefix": "https://ss3.4sqi.net/img/categories_v2/food/fastfood_", "suffix": ".png"}}], "chains": [], "closed_bucket": "VeryLikelyOpen", "distance": 999, "geocodes": {"main": {"latitude": 55.87769, "longitude": -4.321928}, "roof": {"latitude": 55.87769, "longitude": -4.321928}}, "link": "/v3/places/4bd595d2cfa7b7135afd25da", "location": {"address": "322 Crow Rd", "admin_region": "Scotland", "country": "GB", "cross_street": "", "formatted_address": "322 Crow Rd, Glasgow, Glasgow City, G11 7HS", "locality": "Glasgow", "post_town": "Glasgow", "postcode": "G11 7HS", "region": "Glasgow City"}, "name": "Cafe Circa", "related_places": {}, "timezone": "Europe/London"}, {"fsq_id": "56bce4ba498ee4410078fdfe", "categories": [{"id": 13065, "name": "Restaurant", "short_name": "Restaurant", "plural_name": "Restaurants", "icon": {"prefix": "https://ss3.4sqi.net/img/categories_v2/food/default_", "suffix": ".png"}}], "chains": [], "closed_bucket": "VeryLikelyOpen", "distance": 531, "geocodes": {"drop_off": {"latitude": 55.888377, "longitude": -4.306639}, "main": {"latitude": 55.888251, "longitude": -4.306761}, "roof": {"latitude": 55.888251, "longitude": -4.306761}}, "link": "/v3/places/56bce4ba498ee4410078fdfe", "location": {"address": "111 Cleveden Rd", "admin_region": "Scotland", "country": "GB", "cross_street": "", "formatted_address": "111 Cleveden Rd, Glasgow, Glasgow City, G12 0JU", "locality": "Glasgow", "post_town": "Glasgow", "postcode": "G12 0JU", "region": "Glasgow City"}, "name": "111 by Nico", "related_places": {}, "timezone": "Europe/London"}, {"fsq_id": "50c4c2e51648ab28fd64876b", "categories": [{"id": 13035, "name": "Coffee Shop", "short_name": "Coffee Shop", "plural_name": "Coffee Shops", "icon": {"prefix": "https://ss3.4sqi.net/img/categories_v2/food/coffeeshop_", "suffix": ".png"}}, {"id": 13039, "name": "Deli", "short_name": "Deli", "plural_name": "Delis", "icon": {"prefix": "https://ss3.4sqi.net/img/categories_v2/food/deli_", "suffix": ".png"}}], "chains": [], "closed_bucket": "LikelyOpen", "distance": 954, "geocodes": {"main": {"latitude": 55.875838, "longitude": -4.30553}, "roof": {"latitude": 55.875838, "longitude": -4.30553}}, "link": "/v3/places/50c4c2e51648ab28fd64876b", "location": {"address": "187 Hyndland Rd", "admin_region": "Scotland", "country": "GB", "formatted_address": "187 Hyndland Rd, Glasgow, Glasgow City, G12 9HT", "locality": "Glasgow", "post_town": "Glasgow", "postcode": "G12 9HT", "region": "Glasgow City"}, "name": "The Kitchen Window", "related_places": {}, "timezone": "Europe/London"}, {"fsq_id": "565b4d60498eb40794684b66", "categories": [{"id": 13003, "name": "Bar", "short_name": "Bar", "plural_name": "Bars", "icon": {"prefix": "https://ss3.4sqi.net/img/categories_v2/nightlife/pub_", "suffix": ".png"}}, {"id": 13065, "name": "Restaurant", "short_name": "Restaurant", "plural_name": "Restaurants", "icon": {"prefix": "https://ss3.4sqi.net/img/categories_v2/food/default_", "suffix": ".png"}}], "chains": [], "closed_bucket": "LikelyOpen", "distance": 94, "geocodes": {"main": {"latitude": 55.884151, "longitude": -4.309367}, "roof": {"latitude": 55.884151, "longitude": -4.309367}}, "link": "/v3/places/565b4d60498eb40794684b66", "location": {"address": "1051 Great Western Rd", "admin_region": "Scotland", "country": "GB", "cross_street": "", "formatted_address": "1051 Great Western Rd, Glasgow, G12 0XP", "locality": "Glasgow", "post_town": "Glasgow", "postcode": "G12 0XP"}, "name": "1051 Gwr", "related_places": {}, "timezone": "Europe/London"}, {"fsq_id": "4d8e6837c1b1721e05fb2f46", "categories": [{"id": 13025, "name": "Wine Bar", "short_name": "Wine Bar", "plural_name": "Wine Bars", "icon": {"prefix": "https://ss3.4sqi.net/img/categories_v2/food/winery_", "suffix": ".png"}}, {"id": 13034, "name": "Caf\u00e9", "short_name": "Caf\u00e9", "plural_name": "Caf\u00e9s", "icon": {"prefix": "https://ss3.4sqi.net/img/categories_v2/food/cafe_", "suffix": ".png"}}, {"id": 13142, "name": "English Restaurant", "short_name": "English", "plural_name": "English Restaurants", "icon": {"prefix": "https://ss3.4sqi.net/img/categories_v2/food/default_", "suffix": ".png"}}], "chains": [], "closed_bucket": "LikelyOpen", "distance": 882, "geocodes": {"main": {"latitude": 55.876615, "longitude": -4.305764}, "roof": {"latitude": 55.876615, "longitude": -4.305764}}, "link": "/v3/places/4d8e6837c1b1721e05fb2f46", "location": {"address": "159 Hyndland Rd", "admin_region": "Scotland", "country": "GB", "formatted_address": "159 Hyndland Rd, Glasgow, Glasgow City, G12 9JA", "locality": "Glasgow", "post_town": "Glasgow", "postcode": "G12 9JA", "region": "Glasgow City"}, "name": "Epicures of Hyndland", "related_places": {}, "timezone": "Europe/London"}, {"fsq_id": "4f2ad0e0e4b05997ed71b214", "categories": [{"id": 13039, "name": "Deli", "short_name": "Deli", "plural_name": "Delis", "icon": {"prefix": "https://ss3.4sqi.net/img/categories_v2/food/deli_", "suffix": ".png"}}, {"id": 13145, "name": "Fast Food Restaurant", "short_name": "Fast Food", "plural_name": "Fast Food Restaurants", "icon": {"prefix": "https://ss3.4sqi.net/img/categories_v2/food/fastfood_", "suffix": ".png"}}, {"id": 13334, "name": "Sandwich Spot", "short_name": "Sandwich Spot", "plural_name": "Sandwich Spots", "icon": {"prefix": "https://ss3.4sqi.net/img/categories_v2/food/deli_", "suffix": ".png"}}], "chains": [{"id": "ab4bee40-d68a-012e-5619-003048cad9da", "name": "Subway"}], "closed_bucket": "LikelyOpen", "distance": 518, "geocodes": {"main": {"latitude": 55.888202, "longitude": -4.306689}, "roof": {"latitude": 55.888202, "longitude": -4.306689}}, "link": "/v3/places/4f2ad0e0e4b05997ed71b214", "location": {"address": "105-107 Cleveden Rd", "admin_region": "Scotland", "country": "GB", "cross_street": "Kelvindale Road", "formatted_address": "105-107 Cleveden Rd (Kelvindale Road), Glasgow, G12 0JU", "locality": "Glasgow", "post_town": "Glasgow", "postcode": "G12 0JU"}, "name": "Subway", "related_places": {}, "timezone": "Europe/London"}, {"fsq_id": "4c0d69a1d64c0f47baab265d", "categories": [{"id": 13018, "name": "Pub", "short_name": "Pub", "plural_name": "Pubs", "icon": {"prefix": "https://ss3.4sqi.net/img/categories_v2/nightlife/pub_", "suffix": ".png"}}, {"id": 13065, "name": "Restaurant", "short_name": "Restaurant", "plural_name": "Restaurants", "icon": {"prefix": "https://ss3.4sqi.net/img/categories_v2/food/default_", "suffix": ".png"}}], "chains": [{"id": "07841cd9-3716-4bd6-8ebd-ad13070b3125", "name": "J D Wetherspoon"}], "closed_bucket": "Unsure", "distance": 986, "geocodes": {"main": {"latitude": 55.888446, "longitude": -4.321743}, "roof": {"latitude": 55.888446, "longitude": -4.321743}}, "link": "/v3/places/4c0d69a1d64c0f47baab265d", "location": {"address": "1487 Great Western Rd", "admin_region": "Scotland", "country": "GB", "formatted_address": "1487 Great Western Rd, Glasgow, Glasgow City, G12 0AU", "locality": "Glasgow", "post_town": "Glasgow", "postcode": "G12 0AU", "region": "Glasgow City"}, "name": "The Esquire House", "related_places": {}, "timezone": "Europe/London"}, {"fsq_id": "4c659539f7a80f4794a99b7a", "categories": [{"id": 13236, "name": "Italian Restaurant", "short_name": "Italian", "plural_name": "Italian Restaurants", "icon": {"prefix": "https://ss3.4sqi.net/img/categories_v2/food/italian_", "suffix": ".png"}}], "chains": [], "closed_bucket": "Unsure", "distance": 894, "geocodes": {"main": {"latitude": 55.876221, "longitude": -4.306208}, "roof": {"latitude": 55.876221, "longitude": -4.306208}}, "link": "/v3/places/4c659539f7a80f4794a99b7a", "location": {"address": "168 Hyndland Rd", "admin_region": "Scotland", "country": "GB", "cross_street": "", "formatted_address": "168 Hyndland Rd, Glasgow, Glasgow City, G12 9HZ", "locality": "Glasgow", "post_town": "Glasgow", "postcode": "G12 9HZ", "region": "Glasgow City"}, "name": "Nicks Restaurant & Bars", "related_places": {}, "timezone": "Europe/London"}, {"fsq_id": "4f566c87e4b0b9c9fa0c2ac3", "categories": [{"id": 13018, "name": "Pub", "short_name": "Pub", "plural_name": "Pubs", "icon": {"prefix": "https://ss3.4sqi.net/img/categories_v2/nightlife/pub_", "suffix": ".png"}}], "chains": [], "closed_bucket": "VeryLikelyOpen", "distance": 53, "geocodes": {"main": {"latitude": 55.884413, "longitude": -4.311234}, "roof": {"latitude": 55.884413, "longitude": -4.311234}}, "link": "/v3/places/4f566c87e4b0b9c9fa0c2ac3", "location": {"country": "GB", "cross_street": "", "formatted_address": ""}, "name": "The Lansdowne - Bar & Kitchen", "related_places": {}, "timezone": "Europe/London"}, {"fsq_id": "4e8da2c47beb42eabdf02582", "categories": [{"id": 13065, "name": "Restaurant", "short_name": "Restaurant", "plural_name": "Restaurants", "icon": {"prefix": "https://ss3.4sqi.net/img/categories_v2/food/default_", "suffix": ".png"}}], "chains": [], "closed_bucket": "VeryLikelyOpen", "distance": 100, "geocodes": {"main": {"latitude": 55.884151, "longitude": -4.309367}, "roof": {"latitude": 55.884151, "longitude": -4.309367}}, "link": "/v3/places/4e8da2c47beb42eabdf02582", "location": {"address": "1051 Great Western Rd", "admin_region": "Scotland", "country": "GB", "cross_street": "at The Pond", "formatted_address": "1051 Great Western Rd (at The Pond), Glasgow, Glasgow City, G12 0XP", "locality": "Glasgow", "post_town": "Glasgow", "postcode": "G12 0XP", "region": "Glasgow City"}, "name": "The Partners Suite", "related_places": {}, "timezone": "Europe/London"}, {"fsq_id": "4ef08ddd02d50bd8575dd4b2", "categories": [{"id": 13236, "name": "Italian Restaurant", "short_name": "Italian", "plural_name": "Italian Restaurants", "icon": {"prefix": "https://ss3.4sqi.net/img/categories_v2/food/italian_", "suffix": ".png"}}], "chains": [], "closed_bucket": "VeryLikelyOpen", "distance": 210, "geocodes": {"drop_off": {"latitude": 55.885216, "longitude": -4.307568}, "main": {"latitude": 55.884988, "longitude": -4.30764}, "roof": {"latitude": 55.884988, "longitude": -4.30764}}, "link": "/v3/places/4ef08ddd02d50bd8575dd4b2", "location": {"address": "111 Cleveden Rd", "admin_region": "Scotland", "country": "GB", "cross_street": "", "formatted_address": "111 Cleveden Rd, Glasgow, Glasgow City, G12 0JU", "locality": "Glasgow", "post_town": "Glasgow", "postcode": "G12 0JU", "region": "Glasgow City"}, "name": "La Famiglia", "related_places": {}, "timezone": "Europe/London"}, {"fsq_id": "625451721fa1952f1c4897aa", "categories": [{"id": 13337, "name": "Scottish Restaurant", "short_name": "Scottish", "plural_name": "Scottish Restaurants", "icon": {"prefix": "https://ss3.4sqi.net/img/categories_v2/food/default_", "suffix": ".png"}}], "chains": [], "closed_bucket": "VeryLikelyOpen", "distance": 535, "geocodes": {"drop_off": {"latitude": 55.888377, "longitude": -4.306639}, "main": {"latitude": 55.888251, "longitude": -4.306761}, "roof": {"latitude": 55.888251, "longitude": -4.306761}}, "link": "/v3/places/625451721fa1952f1c4897aa", "location": {"address": "111 Cleveden Rd", "admin_region": "Scotland", "country": "GB", "cross_street": "", "formatted_address": "111 Cleveden Rd, Glasgow, G12 0JU", "locality": "Glasgow", "post_town": "Glasgow", "postcode": "G12 0JU"}, "name": "111 by Modou", "related_places": {}, "timezone": "Europe/London"}, {"fsq_id": "c84db3dbfab32b8c816556c9", "categories": [{"id": 11056, "name": "Food and Beverage Service", "short_name": "Food Service", "plural_name": "Food and Beverage Services", "icon": {"prefix": "https://ss3.4sqi.net/img/categories_v2/shops/foodanddrink_", "suffix": ".png"}}, {"id": 13064, "name": "Pizzeria", "short_name": "Pizza", "plural_name": "Pizzerias", "icon": {"prefix": "https://ss3.4sqi.net/img/categories_v2/food/pizza_", "suffix": ".png"}}], "chains": [], "closed_bucket": "LikelyOpen", "distance": 548, "geocodes": {"drop_off": {"latitude": 55.880315, "longitude": -4.304972}, "main": {"latitude": 55.8802, "longitude": -4.30479}, "roof": {"latitude": 55.8802, "longitude": -4.30479}}, "link": "/v3/places/c84db3dbfab32b8c816556c9", "location": {"address": "72 Hyndland Rd", "admin_region": "Scotland", "country": "GB", "formatted_address": "72 Hyndland Rd, Glasgow, Glasgow City", "locality": "Glasgow", "post_town": "Glasgow", "region": "Glasgow City"}, "name": "Marco's", "related_places": {}, "timezone": "Europe/London"}, {"fsq_id": "4db30be21e7248d135836d33", "categories": [{"id": 13099, "name": "Chinese Restaurant", "short_name": "Chinese", "plural_name": "Chinese Restaurants", "icon": {"prefix": "https://ss3.4sqi.net/img/categories_v2/food/asian_", "suffix": ".png"}}, {"id": 13145, "name": "Fast Food Restaurant", "short_name": "Fast Food", "plural_name": "Fast Food Restaurants", "icon": {"prefix": "https://ss3.4sqi.net/img/categories_v2/food/fastfood_", "suffix": ".png"}}], "chains": [], "closed_bucket": "LikelyOpen", "distance": 550, "geocodes": {"main": {"latitude": 55.888251, "longitude": -4.306761}, "roof": {"latitude": 55.888251, "longitude": -4.306761}}, "link": "/v3/places/4db30be21e7248d135836d33", "location": {"address": "121 Cleveden Rd", "admin_region": "Scotland", "country": "GB", "cross_street": "", "formatted_address": "121 Cleveden Rd, Glasgow, Glasgow City, G12 0JU", "locality": "Glasgow", "post_town": "Glasgow", "postcode": "G12 0JU", "region": "Glasgow City"}, "name": "Wok Cuisine", "related_places": {}, "timezone": "Europe/London"}, {"fsq_id": "63693121c999233a829476f4", "categories": [{"id": 13236, "name": "Italian Restaurant", "short_name": "Italian", "plural_name": "Italian Restaurants", "icon": {"prefix": "https://ss3.4sqi.net/img/categories_v2/food/italian_", "suffix": ".png"}}, {"id": 17057, "name": "Food and Beverage Retail", "short_name": "Food & Beverage", "plural_name": "Food and Beverage Retail", "icon": {"prefix": "https://ss3.4sqi.net/img/categories_v2/shops/foodanddrink_", "suffix": ".png"}}], "chains": [], "closed_bucket": "Unsure", "distance": 566, "geocodes": {"drop_off": {"latitude": 55.879628, "longitude": -4.305411}, "main": {"latitude": 55.879733, "longitude": -4.305582}, "roof": {"latitude": 55.879733, "longitude": -4.305582}}, "link": "/v3/places/63693121c999233a829476f4", "location": {"address": "70-72 Hyndland Rd", "admin_region": "Scotland", "country": "GB", "cross_street": "Novar Drive", "formatted_address": "70-72 Hyndland Rd (Novar Drive), Glasgow, Glasgow City, G12 9UT", "locality": "Glasgow", "post_town": "Glasgow", "postcode": "G12 9UT", "region": "Glasgow City"}, "name": "Nostrana", "related_places": {}, "timezone": "Europe/London"}, {"fsq_id": "4c76ab9166be6dcb7dd3c30f", "categories": [{"id": 13064, "name": "Pizzeria", "short_name": "Pizza", "plural_name": "Pizzerias", "icon": {"prefix": "https://ss3.4sqi.net/img/categories_v2/food/pizza_", "suffix": ".png"}}, {"id": 13145, "name": "Fast Food Restaurant", "short_name": "Fast Food", "plural_name": "Fast Food Restaurants", "icon": {"prefix": "https://ss3.4sqi.net/img/categories_v2/food/fastfood_", "suffix": ".png"}}], "chains": [], "closed_bucket": "LikelyOpen", "distance": 579, "geocodes": {"main": {"latitude": 55.879787, "longitude": -4.305548}, "roof": {"latitude": 55.879787, "longitude": -4.305548}}, "link": "/v3/places/4c76ab9166be6dcb7dd3c30f", "location": {"address": "72 Hyndland Rd", "admin_region": "Scotland", "country": "GB", "cross_street": "Kingsborough Gardens", "formatted_address": "72 Hyndland Rd (Kingsborough Gardens), Glasgow, Glasgow City, G12 9UT", "locality": "Glasgow", "post_town": "Glasgow", "postcode": "G12 9UT", "region": "Glasgow City"}, "name": "Pizza Magic", "related_places": {}, "timezone": "Europe/London"}, {"fsq_id": "cb4fbcd0c84248b3a38056c7", "categories": [{"id": 13002, "name": "Bakery", "short_name": "Bakery", "plural_name": "Bakeries", "icon": {"prefix": "https://ss3.4sqi.net/img/categories_v2/food/bakery_", "suffix": ".png"}}, {"id": 13035, "name": "Coffee Shop", "short_name": "Coffee Shop", "plural_name": "Coffee Shops", "icon": {"prefix": "https://ss3.4sqi.net/img/categories_v2/food/coffeeshop_", "suffix": ".png"}}, {"id": 13065, "name": "Restaurant", "short_name": "Restaurant", "plural_name": "Restaurants", "icon": {"prefix": "https://ss3.4sqi.net/img/categories_v2/food/default_", "suffix": ".png"}}], "chains": [], "closed_bucket": "Unsure", "distance": 697, "geocodes": {"drop_off": {"latitude": 55.87766, "longitude": -4.308856}, "main": {"latitude": 55.877605, "longitude": -4.308706}, "roof": {"latitude": 55.877605, "longitude": -4.308706}}, "link": "/v3/places/cb4fbcd0c84248b3a38056c7", "location": {"address": "79 Lauderdale Gardens", "admin_region": "Scotland", "country": "GB", "formatted_address": "79 Lauderdale Gardens, Glasgow, Glasgow City", "locality": "Glasgow", "post_town": "Glasgow", "region": "Glasgow City"}, "name": "The Bakery by Zique", "related_places": {}, "timezone": "Europe/London"}, {"fsq_id": "bfd3a0dc4c9247a75fb2c94b", "categories": [{"id": 10032, "name": "Night Club", "short_name": "Night Club", "plural_name": "Night Clubs", "icon": {"prefix": "https://ss3.4sqi.net/img/categories_v2/nightlife/nightclub_", "suffix": ".png"}}, {"id": 13015, "name": "Karaoke Bar", "short_name": "Karaoke", "plural_name": "Karaoke Bars", "icon": {"prefix": "https://ss3.4sqi.net/img/categories_v2/nightlife/karaoke_", "suffix": ".png"}}], "chains": [], "closed_bucket": "LikelyOpen", "distance": 735, "geocodes": {"main": {"latitude": 55.885626, "longitude": -4.299244}, "roof": {"latitude": 55.885626, "longitude": -4.299244}}, "link": "/v3/places/bfd3a0dc4c9247a75fb2c94b", "location": {"address": "2 Winton Lane", "admin_region": "Scotland", "country": "GB", "formatted_address": "2 Winton Lane, Glasgow, G12 0QD", "locality": "Glasgow", "post_town": "Glasgow", "postcode": "G12 0QD"}, "name": "Cheezee Choonz", "related_places": {}, "timezone": "Europe/London"}, {"fsq_id": "4e73917afa76812398eab448", "categories": [{"id": 13191, "name": "Halal Restaurant", "short_name": "Halal", "plural_name": "Halal Restaurants", "icon": {"prefix": "https://ss3.4sqi.net/img/categories_v2/food/halal_", "suffix": ".png"}}, {"id": 13199, "name": "Indian Restaurant", "short_name": "Indian", "plural_name": "Indian Restaurants", "icon": {"prefix": "https://ss3.4sqi.net/img/categories_v2/food/indian_", "suffix": ".png"}}, {"id": 13288, "name": "Kebab Restaurant", "short_name": "Kebab", "plural_name": "Kebab Restaurants", "icon": {"prefix": "https://ss3.4sqi.net/img/categories_v2/food/middleeastern_", "suffix": ".png"}}], "chains": [], "closed_bucket": "VeryLikelyOpen", "distance": 742, "geocodes": {"main": {"latitude": 55.89019, "longitude": -4.315204}, "roof": {"latitude": 55.89019, "longitude": -4.315204}}, "link": "/v3/places/4e73917afa76812398eab448", "location": {"address": "162 Dorchester Ave", "admin_region": "Scotland", "country": "GB", "cross_street": "", "formatted_address": "162 Dorchester Ave, Glasgow, Glasgow City, G12 0DZ", "locality": "Glasgow", "post_town": "Glasgow", "postcode": "G12 0DZ", "region": "Glasgow City"}, "name": "Jaipur Indian Takeaway", "related_places": {}, "timezone": "Europe/London"}, {"fsq_id": "4d974bab2bd6f04d7eb04b50", "categories": [{"id": 13051, "name": "Fish and Chips Shop", "short_name": "Fish and Chips Shop", "plural_name": "Fish and Chips Shops", "icon": {"prefix": "https://ss3.4sqi.net/img/categories_v2/food/fishandchips_", "suffix": ".png"}}], "chains": [], "closed_bucket": "VeryLikelyOpen", "distance": 761, "geocodes": {"main": {"latitude": 55.877047, "longitude": -4.308338}, "roof": {"latitude": 55.877047, "longitude": -4.308338}}, "link": "/v3/places/4d974bab2bd6f04d7eb04b50", "location": {"address": "31 Clarence Dr", "admin_region": "Scotland", "country": "GB", "cross_street": "", "formatted_address": "31 Clarence Dr, Glasgow, G12 9QN", "locality": "Glasgow", "post_town": "Glasgow", "postcode": "G12 9QN"}, "name": "Paolos", "related_places": {}, "timezone": "Europe/London"}, {"fsq_id": "4e65fbc6c65b2dc8a11b6a2b", "categories": [{"id": 13031, "name": "Burger Joint", "short_name": "Burgers", "plural_name": "Burger Joints", "icon": {"prefix": "https://ss3.4sqi.net/img/categories_v2/food/burger_", "suffix": ".png"}}, {"id": 13145, "name": "Fast Food Restaurant", "short_name": "Fast Food", "plural_name": "Fast Food Restaurants", "icon": {"prefix": "https://ss3.4sqi.net/img/categories_v2/food/fastfood_", "suffix": ".png"}}, {"id": 13236, "name": "Italian Restaurant", "short_name": "Italian", "plural_name": "Italian Restaurants", "icon": {"prefix": "https://ss3.4sqi.net/img/categories_v2/food/italian_", "suffix": ".png"}}], "chains": [], "closed_bucket": "LikelyOpen", "distance": 761, "geocodes": {"main": {"latitude": 55.877126, "longitude": -4.308796}, "roof": {"latitude": 55.877126, "longitude": -4.308796}}, "link": "/v3/places/4e65fbc6c65b2dc8a11b6a2b", "location": {"address": "35 Clarence Driver", "admin_region": "Scotland", "country": "GB", "cross_street": "", "formatted_address": "35 Clarence Driver, Glasgow, Glasgow City", "locality": "Glasgow", "post_town": "Glasgow", "region": "Glasgow City"}, "name": "Casablanca", "related_places": {}, "timezone": "Europe/London"}, {"fsq_id": "4f303304e4b07ca31819aac3", "categories": [{"id": 13051, "name": "Fish and Chips Shop", "short_name": "Fish and Chips Shop", "plural_name": "Fish and Chips Shops", "icon": {"prefix": "https://ss3.4sqi.net/img/categories_v2/food/fishandchips_", "suffix": ".png"}}], "chains": [], "closed_bucket": "VeryLikelyOpen", "distance": 765, "geocodes": {"main": {"latitude": 55.877097, "longitude": -4.311144}, "roof": {"latitude": 55.877097, "longitude": -4.311144}}, "link": "/v3/places/4f303304e4b07ca31819aac3", "location": {"country": "GB", "cross_street": "", "formatted_address": ""}, "name": "paolo's Fish Bar", "related_places": {}, "timezone": "Europe/London"}, {"fsq_id": "53075776498e758f8d7d5687", "categories": [{"id": 13039, "name": "Deli", "short_name": "Deli", "plural_name": "Delis", "icon": {"prefix": "https://ss3.4sqi.net/img/categories_v2/food/deli_", "suffix": ".png"}}], "chains": [], "closed_bucket": "VeryLikelyOpen", "distance": 778, "geocodes": {"main": {"latitude": 55.877016, "longitude": -4.307951}, "roof": {"latitude": 55.877016, "longitude": -4.307951}}, "link": "/v3/places/53075776498e758f8d7d5687", "location": {"country": "GB", "cross_street": "", "formatted_address": ""}, "name": "Roscoe's", "related_places": {}, "timezone": "Europe/London"}, {"fsq_id": "b7101df2dec34a82c7aea965", "categories": [{"id": 13035, "name": "Coffee Shop", "short_name": "Coffee Shop", "plural_name": "Coffee Shops", "icon": {"prefix": "https://ss3.4sqi.net/img/categories_v2/food/coffeeshop_", "suffix": ".png"}}, {"id": 13039, "name": "Deli", "short_name": "Deli", "plural_name": "Delis", "icon": {"prefix": "https://ss3.4sqi.net/img/categories_v2/food/deli_", "suffix": ".png"}}], "chains": [], "closed_bucket": "LikelyOpen", "distance": 780, "geocodes": {"drop_off": {"latitude": 55.877194, "longitude": -4.308319}, "main": {"latitude": 55.877047, "longitude": -4.308338}, "roof": {"latitude": 55.877047, "longitude": -4.308338}}, "link": "/v3/places/b7101df2dec34a82c7aea965", "location": {"address": "23 Clarence Dr", "admin_region": "Scotland", "country": "GB", "formatted_address": "23 Clarence Dr, Glasgow, Glasgow City, G12 9QN", "locality": "Glasgow", "post_town": "Glasgow", "postcode": "G12 9QN", "region": "Glasgow City"}, "name": "Roscoe's Deli Bar Hyndland", "related_places": {}, "timezone": "Europe/London"}, {"fsq_id": "5813a56a38fac24bb098d729", "categories": [{"id": 13051, "name": "Fish and Chips Shop", "short_name": "Fish and Chips Shop", "plural_name": "Fish and Chips Shops", "icon": {"prefix": "https://ss3.4sqi.net/img/categories_v2/food/fishandchips_", "suffix": ".png"}}], "chains": [], "closed_bucket": "VeryLikelyOpen", "distance": 782, "geocodes": {"drop_off": {"latitude": 55.877216, "longitude": -4.308498}, "main": {"latitude": 55.877089, "longitude": -4.308514}, "roof": {"latitude": 55.877089, "longitude": -4.308514}}, "link": "/v3/places/5813a56a38fac24bb098d729", "location": {"address": "31 Clarence Dr", "admin_region": "Scotland", "country": "GB", "cross_street": "", "formatted_address": "31 Clarence Dr, Glasgow, Glasgow City, G12 9QN", "locality": "Glasgow", "post_town": "Glasgow", "postcode": "G12 9QN", "region": "Glasgow City"}, "name": "Paulo's", "related_places": {}, "timezone": "Europe/London"}, {"fsq_id": "4fa2792ae4b0a07988f07d61", "categories": [{"id": 13049, "name": "Diner", "short_name": "Diner", "plural_name": "Diners", "icon": {"prefix": "https://ss3.4sqi.net/img/categories_v2/food/diner_", "suffix": ".png"}}], "chains": [], "closed_bucket": "VeryLikelyOpen", "distance": 811, "geocodes": {"main": {"latitude": 55.88514, "longitude": -4.297616}, "roof": {"latitude": 55.88514, "longitude": -4.297616}}, "link": "/v3/places/4fa2792ae4b0a07988f07d61", "location": {"country": "GB", "cross_street": "", "formatted_address": ""}, "name": "Lunch Hall", "related_places": {}, "timezone": "Europe/London"}, {"fsq_id": "4ef8c86630f894d8698e078b", "categories": [{"id": 13051, "name": "Fish and Chips Shop", "short_name": "Fish and Chips Shop", "plural_name": "Fish and Chips Shops", "icon": {"prefix": "https://ss3.4sqi.net/img/categories_v2/food/fishandchips_", "suffix": ".png"}}], "chains": [], "closed_bucket": "VeryLikelyOpen", "distance": 855, "geocodes": {"main": {"latitude": 55.890919, "longitude": -4.316279}, "roof": {"latitude": 55.890919, "longitude": -4.316279}}, "link": "/v3/places/4ef8c86630f894d8698e078b", "location": {"address": "1556 Great Western Rd", "country": "GB", "cross_street": "", "formatted_address": "1556 Great Western Rd, Glasgow, Glasgow City", "locality": "Glasgow", "post_town": "Glasgow", "region": "Glasgow City"}, "name": "Genarros Fish and Chip Ship", "related_places": {}, "timezone": "Europe/London"}, {"fsq_id": "4f2d8c20e4b09d49e88a4891", "categories": [{"id": 13099, "name": "Chinese Restaurant", "short_name": "Chinese", "plural_name": "Chinese Restaurants", "icon": {"prefix": "https://ss3.4sqi.net/img/categories_v2/food/asian_", "suffix": ".png"}}], "chains": [], "closed_bucket": "VeryLikelyOpen", "distance": 899, "geocodes": {"main": {"latitude": 55.889308, "longitude": -4.322331}, "roof": {"latitude": 55.889308, "longitude": -4.322331}}, "link": "/v3/places/4f2d8c20e4b09d49e88a4891", "location": {"address": "1550 Great Western Rd", "admin_region": "Scotland", "country": "GB", "cross_street": "", "formatted_address": "1550 Great Western Rd, Glasgow, Glasgow City, G13 1HJ", "locality": "Glasgow", "post_town": "Glasgow", "postcode": "G13 1HJ", "region": "Glasgow City"}, "name": "Home Wok Express", "related_places": {}, "timezone": "Europe/London"}, {"fsq_id": "2a5263b2cf914b26131d6d25", "categories": [{"id": 13051, "name": "Fish and Chips Shop", "short_name": "Fish and Chips Shop", "plural_name": "Fish and Chips Shops", "icon": {"prefix": "https://ss3.4sqi.net/img/categories_v2/food/fishandchips_", "suffix": ".png"}}, {"id": 13064, "name": "Pizzeria", "short_name": "Pizza", "plural_name": "Pizzerias", "icon": {"prefix": "https://ss3.4sqi.net/img/categories_v2/food/pizza_", "suffix": ".png"}}, {"id": 13338, "name": "Seafood Restaurant", "short_name": "Seafood", "plural_name": "Seafood Restaurants", "icon": {"prefix": "https://ss3.4sqi.net/img/categories_v2/food/seafood_", "suffix": ".png"}}], "chains": [], "closed_bucket": "LikelyOpen", "distance": 948, "geocodes": {"main": {"latitude": 55.889308, "longitude": -4.322331}, "roof": {"latitude": 55.889308, "longitude": -4.322331}}, "link": "/v3/places/2a5263b2cf914b26131d6d25", "location": {"address": "1556 Great Western Rd", "admin_region": "Scotland", "country": "GB", "formatted_address": "1556 Great Western Rd, Glasgow, G13 1HJ", "locality": "Glasgow", "post_town": "Glasgow", "postcode": "G13 1HJ"}, "name": "Gennaro's", "related_places": {}, "timezone": "Europe/London"}, {"fsq_id": "5e0a3d59d2b4c00008a5a1b1", "categories": [{"id": 13337, "name": "Scottish Restaurant", "short_name": "Scottish", "plural_name": "Scottish Restaurants", "icon": {"prefix": "https://ss3.4sqi.net/img/categories_v2/food/default_", "suffix": ".png"}}], "chains": [], "closed_bucket": "LikelyOpen", "distance": 958, "geocodes": {"main": {"latitude": 55.883061, "longitude": -4.32564}, "roof": {"latitude": 55.883061, "longitude": -4.32564}}, "link": "/v3/places/5e0a3d59d2b4c00008a5a1b1", "location": {"address": "1a Ashwood Gardens", "admin_region": "Scotland", "country": "GB", "cross_street": "", "formatted_address": "1a Ashwood Gardens, Glasgow, Glasgow City, G13 1NX", "locality": "Glasgow", "post_town": "Glasgow", "postcode": "G13 1NX", "region": "Glasgow City"}, "name": "The Prancing Stag", "related_places": {}, "timezone": "Europe/London"}, {"fsq_id": "4d6e4de3ffedf04d29d860c5", "categories": [{"id": 13145, "name": "Fast Food Restaurant", "short_name": "Fast Food", "plural_name": "Fast Food Restaurants", "icon": {"prefix": "https://ss3.4sqi.net/img/categories_v2/food/fastfood_", "suffix": ".png"}}], "chains": [], "closed_bucket": "VeryLikelyOpen", "distance": 973, "geocodes": {"main": {"latitude": 55.889484, "longitude": -4.322933}, "roof": {"latitude": 55.889484, "longitude": -4.322933}}, "link": "/v3/places/4d6e4de3ffedf04d29d860c5", "location": {"country": "GB", "cross_street": "", "formatted_address": "Glasgow, Glasgow City", "locality": "Glasgow", "post_town": "Glasgow", "region": "Glasgow City"}, "name": "Gennaro's Chippy", "related_places": {}, "timezone": "Europe/London"}, {"fsq_id": "4c38eca60a71c9b6c09e41c9", "categories": [{"id": 13065, "name": "Restaurant", "short_name": "Restaurant", "plural_name": "Restaurants", "icon": {"prefix": "https://ss3.4sqi.net/img/categories_v2/food/default_", "suffix": ".png"}}, {"id": 10003, "name": "Arcade", "short_name": "Arcade", "plural_name": "Arcades", "icon": {"prefix": "https://ss3.4sqi.net/img/categories_v2/arts_entertainment/arcade_", "suffix": ".png"}}], "chains": [], "closed_bucket": "LikelyOpen", "distance": 986, "geocodes": {"main": {"latitude": 55.883055, "longitude": -4.325745}, "roof": {"latitude": 55.883055, "longitude": -4.325745}}, "link": "/v3/places/4c38eca60a71c9b6c09e41c9", "location": {"address": "1a Ashwood Gardens", "admin_region": "Scotland", "country": "GB", "formatted_address": "1a Ashwood Gardens, Jordanhill, Glasgow City, G13 1NU", "locality": "Jordanhill", "post_town": "Glasgow", "postcode": "G13 1NU", "region": "Glasgow City"}, "name": "The Sisters Jordanhill", "related_places": {}, "timezone": "Europe/London"}, {"fsq_id": "4ec2d2109adf5630f714321b", "categories": [{"id": 13064, "name": "Pizzeria", "short_name": "Pizza", "plural_name": "Pizzerias", "icon": {"prefix": "https://ss3.4sqi.net/img/categories_v2/food/pizza_", "suffix": ".png"}}, {"id": 13236, "name": "Italian Restaurant", "short_name": "Italian", "plural_name": "Italian Restaurants", "icon": {"prefix": "https://ss3.4sqi.net/img/categories_v2/food/italian_", "suffix": ".png"}}], "chains": [], "closed_bucket": "LikelyOpen", "distance": 987, "geocodes": {"main": {"latitude": 55.883055, "longitude": -4.325745}, "roof": {"latitude": 55.883055, "longitude": -4.325745}}, "link": "/v3/places/4ec2d2109adf5630f714321b", "location": {"address": "Crow Rd", "admin_region": "Scotland", "country": "GB", "formatted_address": "Crow Rd, Glasgow, Glasgow City, G13 1NU", "locality": "Glasgow", "post_town": "Glasgow", "postcode": "G13 1NU", "region": "Glasgow City"}, "name": "Little Soho Jordanhill", "related_places": {}, "timezone": "Europe/London"}, {"fsq_id": "4c7b99f481bca09305860315", "categories": [{"id": 13018, "name": "Pub", "short_name": "Pub", "plural_name": "Pubs", "icon": {"prefix": "https://ss3.4sqi.net/img/categories_v2/nightlife/pub_", "suffix": ".png"}}, {"id": 13068, "name": "American Restaurant", "short_name": "American", "plural_name": "American Restaurants", "icon": {"prefix": "https://ss3.4sqi.net/img/categories_v2/food/default_", "suffix": ".png"}}], "chains": [], "closed_bucket": "VeryLikelyOpen", "distance": 987, "geocodes": {"main": {"latitude": 55.883055, "longitude": -4.325745}, "roof": {"latitude": 55.883055, "longitude": -4.325745}}, "link": "/v3/places/4c7b99f481bca09305860315", "location": {"address": "512 Crow Rd", "admin_region": "Scotland", "country": "GB", "cross_street": "", "formatted_address": "512 Crow Rd, Glasgow, G13 1NU", "locality": "Glasgow", "post_town": "Glasgow", "postcode": "G13 1NU"}, "name": "Bobby-Joe's", "related_places": {}, "timezone": "Europe/London"}, {"fsq_id": "4c13c0f6b7b9c9289414aa37", "categories": [{"id": 11053, "name": "Financial Planner", "short_name": "Financial Planner", "plural_name": "Financial Planners", "icon": {"prefix": "https://ss3.4sqi.net/img/categories_v2/building/default_", "suffix": ".png"}}, {"id": 13099, "name": "Chinese Restaurant", "short_name": "Chinese", "plural_name": "Chinese Restaurants", "icon": {"prefix": "https://ss3.4sqi.net/img/categories_v2/food/asian_", "suffix": ".png"}}, {"id": 13145, "name": "Fast Food Restaurant", "short_name": "Fast Food", "plural_name": "Fast Food Restaurants", "icon": {"prefix": "https://ss3.4sqi.net/img/categories_v2/food/fastfood_", "suffix": ".png"}}], "chains": [], "closed_bucket": "Unsure", "distance": 990, "geocodes": {"main": {"latitude": 55.880919, "longitude": -4.325327}, "roof": {"latitude": 55.880919, "longitude": -4.325327}}, "link": "/v3/places/4c13c0f6b7b9c9289414aa37", "location": {"address": "Crow Rd", "admin_region": "Scotland", "country": "GB", "cross_street": "", "formatted_address": "Crow Rd, Glasgow, Glasgow City", "locality": "Glasgow", "post_town": "Glasgow", "region": "Glasgow City"}, "name": "Blue Sky", "related_places": {}, "timezone": "Europe/London"}, {"fsq_id": "42298bdc6d68a35b8e8e0f85", "categories": [{"id": 13064, "name": "Pizzeria", "short_name": "Pizza", "plural_name": "Pizzerias", "icon": {"prefix": "https://ss3.4sqi.net/img/categories_v2/food/pizza_", "suffix": ".png"}}, {"id": 13145, "name": "Fast Food Restaurant", "short_name": "Fast Food", "plural_name": "Fast Food Restaurants", "icon": {"prefix": "https://ss3.4sqi.net/img/categories_v2/food/fastfood_", "suffix": ".png"}}], "chains": [], "closed_bucket": "Unsure", "distance": 265, "geocodes": {"main": {"latitude": 55.882048, "longitude": -4.312983}, "roof": {"latitude": 55.882048, "longitude": -4.312983}}, "link": "/v3/places/42298bdc6d68a35b8e8e0f85", "location": {"address": "1051 Great Western Rd", "admin_region": "Scotland", "country": "GB", "formatted_address": "1051 Great Western Rd, Glasgow, G12 0XP", "locality": "Glasgow", "post_town": "Glasgow", "postcode": "G12 0XP"}, "name": "PizzaFellas", "related_places": {}}, {"fsq_id": "6adf00c82a2c498e81eb07f4", "categories": [{"id": 13065, "name": "Restaurant", "short_name": "Restaurant", "plural_name": "Restaurants", "icon": {"prefix": "https://ss3.4sqi.net/img/categories_v2/food/default_", "suffix": ".png"}}], "chains": [], "closed_bucket": "Unsure", "distance": 773, "geocodes": {"drop_off": {"latitude": 55.877229, "longitude": -4.308601}, "main": {"latitude": 55.877083, "longitude": -4.308619}, "roof": {"latitude": 55.877083, "longitude": -4.308619}}, "link": "/v3/places/6adf00c82a2c498e81eb07f4", "location": {"address": "33 Clarence Dr", "admin_region": "Scotland", "country": "GB", "formatted_address": "33 Clarence Dr, Glasgow, G12 9QN", "locality": "Glasgow", "post_town": "Glasgow", "postcode": "G12 9QN"}, "name": "Grilla Bites", "related_places": {}}, {"fsq_id": "698afe4502d68a0589d5609e", "categories": [{"id": 13065, "name": "Restaurant", "short_name": "Restaurant", "plural_name": "Restaurants", "icon": {"prefix": "https://ss3.4sqi.net/img/categories_v2/food/default_", "suffix": ".png"}}], "chains": [], "closed_bucket": "LikelyOpen", "distance": 883, "geocodes": {"drop_off": {"latitude": 55.87648, "longitude": -4.306113}, "main": {"latitude": 55.876372, "longitude": -4.306318}, "roof": {"latitude": 55.876372, "longitude": -4.306318}}, "link": "/v3/places/698afe4502d68a0589d5609e", "location": {"address": "168 Hyndland Rd", "admin_region": "Scotland", "country": "GB", "formatted_address": "168 Hyndland Rd, Glasgow, G12 9HZ", "locality": "Glasgow", "post_town": "Glasgow", "postcode": "G12 9HZ"}, "name": "Shucks Glasgow", "related_places": {}}, {"fsq_id": "fc432dc254df430606feba10", "categories": [{"id": 13065, "name": "Restaurant", "short_name": "Restaurant", "plural_name": "Restaurants", "icon": {"prefix": "https://ss3.4sqi.net/img/categories_v2/food/default_", "suffix": ".png"}}], "chains": [], "closed_bucket": "LikelyOpen", "distance": 945, "geocodes": {"drop_off": {"latitude": 55.883935, "longitude": -4.325844}, "main": {"latitude": 55.883904, "longitude": -4.325632}, "roof": {"latitude": 55.883904, "longitude": -4.325632}}, "link": "/v3/places/fc432dc254df430606feba10", "location": {"address": "513 Crow Rd", "admin_region": "Scotland", "country": "GB", "formatted_address": "513 Crow Rd, Glasgow, G13 1NU", "locality": "Glasgow", "post_town": "Glasgow", "postcode": "G13 1NU"}, "name": "Little Soho Jordanhill- Afternoon tea", "related_places": {}}], "context": {"geo_bounds": {"circle": {"center": {"latitude": 55.883971, "longitude": -4.31046}, "radius": 1000}}}}