{"results": [{"fsq_id": "4e1c4c481fc714dc5c3143ed", "categories": [{"id": 13006, "name": "Beer Bar", "short_name": "Beer Bar", "plural_name": "Beer Bars", "icon": {"prefix": "https://ss3.4sqi.net/img/categories_v2/nightlife/pub_", "suffix": ".png"}}, {"id": 13031, "name": "Burger Joint", "short_name": "Burgers", "plural_name": "Burger Joints", "icon": {"prefix": "https://ss3.4sqi.net/img/categories_v2/food/burger_", "suffix": ".png"}}], "chains": [], "closed_bucket": "Unsure", "distance": 493, "geocodes": {"main": {"latitude": 55.868325, "longitude": -4.292289}, "roof": {"latitude": 55.868325, "longitude": -4.292289}}, "link": "/v3/places/4e1c4c481fc714dc5c3143ed", "location": {"address": "1397 Argyle St", "admin_region": "Scotland", "country": "GB", "formatted_address": "1397 Argyle St, Glasgow, Glasgow City, G3 8AN", "locality": "Glasgow", "post_town": "Glasgow", "postcode": "G3 8AN", "region": "Glasgow City"}, "name": "BrewDog Glasgow", "related_places": {}, "timezone": "Europe/London"}, {"fsq_id": "4b7b007cf964a5205b4b2fe3", "categories": [{"id": 13199, "name": "Indian Restaurant", "short_name": "Indian", "plural_name": "Indian Restaurants", "icon": {"prefix": "https://ss3.4sqi.net/img/categories_v2/food/indian_", "suffix": ".png"}}], "chains": [], "closed_bucket": "Unsure", "distance": 379, "geocodes": {"main": {"latitude": 55.867287, "longitude": -4.2911}, "roof": {"latitude": 55.867287, "longitude": -4.2911}}, "link": "/v3/places/4b7b007cf964a5205b4b2fe3", "location": {"address": "1355 Argyle St", "admin_region": "Scotland", "country": "GB", "formatted_address": "1355 Argyle St, Glasgow, Glasgow City, G3 8AD", "locality": "Glasgow", "post_town": "Glasgow", "postcode": "G3 8AD", "region": "Glasgow City"}, "name": "Mother India's Cafe", "related_places": {}, "timezone": "Europe/London"}, {"fsq_id": "4b852d7bf964a5207d4f31e3", "categories": [{"id": 13024, "name": "Whisky Bar", "short_name": "Whisky Bar", "plural_name": "Whisky Bars", "icon": {"prefix": "https://ss3.4sqi.net/img/categories_v2/nightlife/whiskey_", "suffix": ".png"}}], "chains": [], "closed_bucket": "Unsure", "distance": 947, "geocodes": {"main": {"latitude": 55.864143, "longitude": -4.271445}, "roof": {"latitude": 55.864143, "longitude": -4.271445}}, "link": "/v3/places/4b852d7bf964a5207d4f31e3", "location": {"address": "153 North St", "admin_region": "Scotland", "country": "GB", "formatted_address": "153 North St, Glasgow, Glasgow City, G3 7DA", "locality": "Glasgow", "post_town": "Glasgow", "postcode": "G3 7DA", "region": "Glasgow City"}, "name": "Bon Accord", "related_places": {}, "timezone": "Europe/London"}, {"fsq_id": "536e0497498effee047e1ab2", "categories": [{"id": 13065, "name": "Restaurant", "short_name": "Restaurant", "plural_name": "Restaurants", "icon": {"prefix": "https://ss3.4sqi.net/img/categories_v2/food/default_", "suffix": ".png"}}], "chains": [], "closed_bucket": "Unsure", "distance": 93, "geocodes": {"main": {"latitude": 55.865754, "longitude": -4.284743}, "roof": {"latitude": 55.865754, "longitude": -4.284743}}, "link": "/v3/places/536e0497498effee047e1ab2", "location": {"address": "920 Sauchiehall St", "admin_region": "Scotland", "country": "GB", "cross_street": "", "formatted_address": "920 Sauchiehall St, Glasgow, G3 7TF", "locality": "Glasgow", "post_town": "Glasgow", "postcode": "G3 7TF"}, "name": "Ox and Finch", "related_places": {}, "timezone": "Europe/London"}, {"fsq_id": "4b687ef1f964a520237c2be3", "categories": [{"id": 13024, "name": "Whisky Bar", "short_name": "Whisky Bar", "plural_name": "Whisky Bars", "icon": {"prefix": "https://ss3.4sqi.net/img/categories_v2/nightlife/whiskey_", "suffix": ".png"}}], "chains": [], "closed_bucket": "Unsure", "distance": 78, "geocodes": {"main": {"latitude": 55.864838, "longitude": -4.2851}, "roof": {"latitude": 55.864838, "longitude": -4.2851}}, "link": "/v3/places/4b687ef1f964a520237c2be3", "location": {"address": "1147 Argyle St", "admin_region": "Scotland", "country": "GB", "cross_street": "Corunna St", "formatted_address": "1147 Argyle St (Corunna St), Glasgow, Glasgow City, G3 8TB", "locality": "Glasgow", "post_town": "Glasgow", "postcode": "G3 8TB", "region": "Glasgow City"}, "name": "The Ben Nevis", "related_places": {}, "timezone": "Europe/London"}, {"fsq_id": "4bc2003eabf49521bdbfc193", "categories": [{"id": 13025, "name": "Wine Bar", "short_name": "Wine Bar", "plural_name": "Wine Bars", "icon": {"prefix": "https://ss3.4sqi.net/img/categories_v2/food/winery_", "suffix": ".png"}}, {"id": 13383, "name": "Steakhouse", "short_name": "Steakhouse", "plural_name": "Steakhouses", "icon": {"prefix": "https://ss3.4sqi.net/img/categories_v2/food/steakhouse_", "suffix": ".png"}}], "chains": [], "closed_bucket": "Unsure", "distance": 256, "geocodes": {"main": {"latitude": 55.866819, "longitude": -4.289157}, "roof": {"latitude": 55.866819, "longitude": -4.289157}}, "link": "/v3/places/4bc2003eabf49521bdbfc193", "location": {"address": "1055 Sauchiehall St", "admin_region": "Scotland", "country": "GB", "formatted_address": "1055 Sauchiehall St, Glasgow, Glasgow City, G3 7UD", "locality": "Glasgow", "post_town": "Glasgow", "postcode": "G3 7UD", "region": "Glasgow City"}, "name": "The Butchershop Bar & Grill", "related_places": {}, "timezone": "Europe/London"}, {"fsq_id": "5606f8f0498ecb20434d8a44", "categories": [{"id": 13236, "name": "Italian Restaurant", "short_name": "Italian", "plural_name": "Italian Restaurants", "icon": {"prefix": "https://ss3.4sqi.net/img/categories_v2/food/italian_", "suffix": ".png"}}], "chains": [], "closed_bucket": "LikelyOpen", "distance": 837, "geocodes": {"drop_off": {"latitude": 55.872408, "longitude": -4.280217}, "main": {"latitude": 55.87254, "longitude": -4.280291}, "roof": {"latitude": 55.87254, "longitude": -4.280291}}, "link": "/v3/places/5606f8f0498ecb20434d8a44", "location": {"address": "152 Park Rd", "admin_region": "Scotland", "country": "GB", "cross_street": "Gibson St", "formatted_address": "152 Park Rd (Gibson St), Glasgow, G4 9HB", "locality": "Glasgow", "post_town": "Glasgow", "postcode": "G4 9HB"}, "name": "Eusebi Deli", "related_places": {}, "timezone": "Europe/London"}, {"fsq_id": "4c8530ab74d7b60cac4999d8", "categories": [{"id": 13199, "name": "Indian Restaurant", "short_name": "Indian", "plural_name": "Indian Restaurants", "icon": {"prefix": "https://ss3.4sqi.net/img/categories_v2/food/indian_", "suffix": ".png"}}], "chains": [], "closed_bucket": "Unsure", "distance": 132, "geocodes": {"main": {"latitude": 55.865238, "longitude": -4.28364}, "roof": {"latitude": 55.865238, "longitude": -4.28364}}, "link": "/v3/places/4c8530ab74d7b60cac4999d8", "location": {"address": "28 Westminster Terrace", "admin_region": "Scotland", "country": "GB", "formatted_address": "28 Westminster Terrace, Glasgow, Glasgow City, G3 7RU", "locality": "Glasgow", "post_town": "Glasgow", "postcode": "G3 7RU", "region": "Glasgow City"}, "name": "Mother India", "related_places": {}, "timezone": "Europe/London"}, {"fsq_id": "56752941498ef438347e5c5e", "categories": [{"id": 13002, "name": "Bakery", "short_name": "Bakery", "plural_name": "Bakeries", "icon": {"prefix": "https://ss3.4sqi.net/img/categories_v2/food/bakery_", "suffix": ".png"}}, {"id": 13035, "name": "Coffee Shop", "short_name": "Coffee Shop", "plural_name": "Coffee Shops", "icon": {"prefix": "https://ss3.4sqi.net/img/categories_v2/food/coffeeshop_", "suffix": ".png"}}, {"id": 13145, "name": "Fast Food Restaurant", "short_name": "Fast Food", "plural_name": "Fast Food Restaurants", "icon": {"prefix": "https://ss3.4sqi.net/img/categories_v2/food/fastfood_", "suffix": ".png"}}], "chains": [], "closed_bucket": "LikelyOpen", "distance": 422, "geocodes": {"main": {"latitude": 55.86693, "longitude": -4.291825}, "roof": {"latitude": 55.86693, "longitude": -4.291825}}, "link": "/v3/places/56752941498ef438347e5c5e", "location": {"address": "27 Old Dumbarton Rd", "admin_region": "Scotland", "country": "GB", "cross_street": "", "formatted_address": "27 Old Dumbarton Rd, Glasgow, Glasgow City, G3 8RD", "locality": "Glasgow", "post_town": "Glasgow", "postcode": "G3 8RD", "region": "Glasgow City"}, "name": "Tantrum Doughnuts", "related_places": {}, "timezone": "Europe/London"}, {"fsq_id": "4b8d5addf964a5209df632e3", "categories": [{"id": 13199, "name": "Indian Restaurant", "short_name": "Indian", "plural_name": "Indian Restaurants", "icon": {"prefix": "https://ss3.4sqi.net/img/categories_v2/food/indian_", "suffix": ".png"}}], "chains": [], "closed_bucket": "VeryLikelyOpen", "distance": 874, "geocodes": {"main": {"latitude": 55.857888, "longitude": -4.281346}, "roof": {"latitude": 55.857888, "longitude": -4.281346}}, "link": "/v3/places/4b8d5addf964a5209df632e3", "location": {"address": "181 Finnieston St", "admin_region": "Scotland", "country": "GB", "cross_street": "", "formatted_address": "181 Finnieston St, Glasgow, Glasgow City, G3 8HE", "locality": "Glasgow", "post_town": "Glasgow", "postcode": "G3 8HE", "region": "Glasgow City"}, "name": "India Quay", "related_places": {}, "timezone": "Europe/London"}, {"fsq_id": "4b2544e3f964a520096f24e3", "categories": [{"id": 13057, "name": "Gastropub", "short_name": "Gastropub", "plural_name": "Gastropubs", "icon": {"prefix": "https://ss3.4sqi.net/img/categories_v2/food/gastropub_", "suffix": ".png"}}], "chains": [], "closed_bucket": "LikelyOpen", "distance": 839, "geocodes": {"main": {"latitude": 55.872578, "longitude": -4.282395}, "roof": {"latitude": 55.872578, "longitude": -4.282395}}, "link": "/v3/places/4b2544e3f964a520096f24e3", "location": {"address": "28 Gibson St", "admin_region": "Scotland", "country": "GB", "formatted_address": "28 Gibson St, Glasgow City, G12 8NX", "locality": "Glasgow City", "post_town": "Glasgow", "postcode": "G12 8NX", "region": "Glasgow City"}, "name": "Stravaigin", "related_places": {}, "timezone": "Europe/London"}, {"fsq_id": "4c263d74b012b7135fd90893", "categories": [{"id": 13002, "name": "Bakery", "short_name": "Bakery", "plural_name": "Bakeries", "icon": {"prefix": "https://ss3.4sqi.net/img/categories_v2/food/bakery_", "suffix": ".png"}}, {"id": 13036, "name": "Tea Room", "short_name": "Tea Room", "plural_name": "Tea Rooms", "icon": {"prefix": "https://ss3.4sqi.net/img/categories_v2/food/tearoom_", "suffix": ".png"}}, {"id": 13065, "name": "Restaurant", "short_name": "Restaurant", "plural_name": "Restaurants", "icon": {"prefix": "https://ss3.4sqi.net/img/categories_v2/food/default_", "suffix": ".png"}}], "chains": [], "closed_bucket": "LikelyOpen", "distance": 202, "geocodes": {"main": {"latitude": 55.864291, "longitude": -4.283611}, "roof": {"latitude": 55.864291, "longitude": -4.283611}}, "link": "/v3/places/4c263d74b012b7135fd90893", "location": {"address": "1103 Argyle St", "address_extended": "Unit 8", "admin_region": "Scotland", "country": "GB", "cross_street": "Argyle Court", "formatted_address": "1103 Argyle St (Argyle Court), Glasgow, G3 8ND", "locality": "Glasgow", "post_town": "Glasgow", "postcode": "G3 8ND"}, "name": "The Hidden Lane Tearoom", "related_places": {"children": [{"fsq_id": "6177c84b1b7e0864e20470d8", "categories": [{"id": 11124, "name": "Office", "short_name": "Office", "plural_name": "Offices", "icon": {"prefix": "https://ss3.4sqi.net/img/categories_v2/building/default_", "suffix": ".png"}}], "name": "Rakata Technology Limited"}]}, "timezone": "Europe/London"}, {"fsq_id": "523f5bd411d202b54c76c7c3", "categories": [{"id": 13337, "name": "Scottish Restaurant", "short_name": "Scottish", "plural_name": "Scottish Restaurants", "icon": {"prefix": "https://ss3.4sqi.net/img/categories_v2/food/default_", "suffix": ".png"}}], "chains": [], "closed_bucket": "VeryLikelyOpen", "distance": 62, "geocodes": {"drop_off": {"latitude": 55.865039, "longitude": -4.285229}, "main": {"latitude": 55.864881, "longitude": -4.285277}, "roof": {"latitude": 55.864881, "longitude": -4.285277}}, "link": "/v3/places/523f5bd411d202b54c76c7c3", "location": {"address": "1155 Argyle St", "admin_region": "Scotland", "country": "GB", "cross_street": "", "formatted_address": "1155 Argyle St, Glasgow, G3 8TB", "locality": "Glasgow", "post_town": "Glasgow", "postcode": "G3 8TB"}, "name": "The Gannet", "related_places": {}, "timezone": "Europe/London"}, {"fsq_id": "4b65dd17f964a520ac042be3", "categories": [{"id": 13009, "name": "Cocktail Bar", "short_name": "Cocktail", "plural_name": "Cocktail Bars", "icon": {"prefix": "https://ss3.4sqi.net/img/categories_v2/nightlife/cocktails_", "suffix": ".png"}}, {"id": 13057, "name": "Gastropub", "short_name": "Gastropub", "plural_name": "Gastropubs", "icon": {"prefix": "https://ss3.4sqi.net/img/categories_v2/food/gastropub_", "suffix": ".png"}}], "chains": [], "closed_bucket": "Unsure", "distance": 322, "geocodes": {"main": {"latitude": 55.864078, "longitude": -4.281817}, "roof": {"latitude": 55.864078, "longitude": -4.281817}}, "link": "/v3/places/4b65dd17f964a520ac042be3", "location": {"address": "1008 Argyle St", "admin_region": "Scotland", "country": "GB", "cross_street": "", "formatted_address": "1008 Argyle St, Glasgow, Glasgow City, G3 8LX", "locality": "Glasgow", "post_town": "Glasgow", "postcode": "G3 8LX", "region": "Glasgow City"}, "name": "Lebowskis", "related_places": {}, "timezone": "Europe/London"}, {"fsq_id": "4c125afbb7b9c9284698a737", "categories": [{"id": 13018, "name": "Pub", "short_name": "Pub", "plural_name": "Pubs", "icon": {"prefix": "https://ss3.4sqi.net/img/categories_v2/nightlife/pub_", "suffix": ".png"}}, {"id": 13049, "name": "Diner", "short_name": "Diner", "plural_name": "Diners", "icon": {"prefix": "https://ss3.4sqi.net/img/categories_v2/food/diner_", "suffix": ".png"}}], "chains": [], "closed_bucket": "VeryLikelyOpen", "distance": 220, "geocodes": {"main": {"latitude": 55.866412, "longitude": -4.288899}, "roof": {"latitude": 55.866412, "longitude": -4.288899}}, "link": "/v3/places/4c125afbb7b9c9284698a737", "location": {"address": "1256 Argyle St", "admin_region": "Scotland", "country": "GB", "cross_street": "West End", "formatted_address": "1256 Argyle St (West End), Glasgow, Glasgow City, G3 8TJ", "locality": "Glasgow", "post_town": "Glasgow", "postcode": "G3 8TJ", "region": "Glasgow City"}, "name": "Islay Inn", "related_places": {}, "timezone": "Europe/London"}, {"fsq_id": "4c582eed7613b713957b91ea", "categories": [{"id": 13034, "name": "Caf\u00e9", "short_name": "Caf\u00e9", "plural_name": "Caf\u00e9s", "icon": {"prefix": "https://ss3.4sqi.net/img/categories_v2/food/cafe_", "suffix": ".png"}}, {"id": 13035, "name": "Coffee Shop", "short_name": "Coffee Shop", "plural_name": "Coffee Shops", "icon": {"prefix": "https://ss3.4sqi.net/img/categories_v2/food/coffeeshop_", "suffix": ".png"}}, {"id": 13065, "name": "Restaurant", "short_name": "Restaurant", "plural_name": "Restaurants", "icon": {"prefix": "https://ss3.4sqi.net/img/categories_v2/food/default_", "suffix": ".png"}}], "chains": [], "closed_bucket": "VeryLikelyOpen", "distance": 416, "geocodes": {"main": {"latitude": 55.866964, "longitude": -4.280154}, "roof": {"latitude": 55.866964, "longitude": -4.280154}}, "link": "/v3/places/4c582eed7613b713957b91ea", "location": {"address": "Kelvingrove Park", "admin_region": "Scotland", "country": "GB", "cross_street": "at North Claremont Street", "formatted_address": "Kelvingrove Park (at North Claremont Street), Glasgow, Glasgow City, G3 7LH", "locality": "Glasgow", "post_town": "Glasgow", "postcode": "G3 7LH", "region": "Glasgow City"}, "name": "An Clachan Cafe", "related_places": {}, "timezone": "Europe/London"}, {"fsq_id": "4d28d36debacb1f71b01f54f", "categories": [{"id": 13024, "name": "Whisky Bar", "short_name": "Whisky Bar", "plural_name": "Whisky Bars", "icon": {"prefix": "https://ss3.4sqi.net/img/categories_v2/nightlife/whiskey_", "suffix": ".png"}}], "chains": [], "closed_bucket": "LikelyOpen", "distance": 868, "geocodes": {"main": {"latitude": 55.871154, "longitude": -4.276883}, "roof": {"latitude": 55.871154, "longitude": -4.276883}}, "link": "/v3/places/4d28d36debacb1f71b01f54f", "location": {"address": "232-246 Woodlands Rd", "admin_region": "Scotland", "country": "GB", "formatted_address": "232-246 Woodlands Rd, Glasgow, Glasgow City, G3 6ND", "locality": "Glasgow", "post_town": "Glasgow", "postcode": "G3 6ND", "region": "Glasgow City"}, "name": "Dram", "related_places": {}, "timezone": "Europe/London"}, {"fsq_id": "4b44d799f964a520d7fd25e3", "categories": [{"id": 13034, "name": "Caf\u00e9", "short_name": "Caf\u00e9", "plural_name": "Caf\u00e9s", "icon": {"prefix": "https://ss3.4sqi.net/img/categories_v2/food/cafe_", "suffix": ".png"}}, {"id": 13035, "name": "Coffee Shop", "short_name": "Coffee Shop", "plural_name": "Coffee Shops", "icon": {"prefix": "https://ss3.4sqi.net/img/categories_v2/food/coffeeshop_", "suffix": ".png"}}, {"id": 13065, "name": "Restaurant", "short_name": "Restaurant", "plural_name": "Restaurants", "icon": {"prefix": "https://ss3.4sqi.net/img/categories_v2/food/default_", "suffix": ".png"}}], "chains": [], "closed_bucket": "LikelyOpen", "distance": 829, "geocodes": {"main": {"latitude": 55.872238, "longitude": -4.281894}, "roof": {"latitude": 55.872238, "longitude": -4.281894}}, "link": "/v3/places/4b44d799f964a520d7fd25e3", "location": {"address": "3-5 Gibson St", "admin_region": "Scotland", "country": "GB", "cross_street": "at Park Rd", "formatted_address": "3-5 Gibson St (at Park Rd), Glasgow, Glasgow City, G12 8NU", "locality": "Glasgow", "post_town": "Glasgow", "postcode": "G12 8NU", "region": "Glasgow City"}, "name": "Offshore", "related_places": {}, "timezone": "Europe/London"}, {"fsq_id": "4ca0e56546978cfabaa2b77f", "categories": [{"id": 13199, "name": "Indian Restaurant", "short_name": "Indian", "plural_name": "Indian Restaurants", "icon": {"prefix": "https://ss3.4sqi.net/img/categories_v2/food/indian_", "suffix": ".png"}}], "chains": [], "closed_bucket": "VeryLikelyOpen", "distance": 755, "geocodes": {"main": {"latitude": 55.865158, "longitude": -4.273965}, "roof": {"latitude": 55.865158, "longitude": -4.273965}}, "link": "/v3/places/4ca0e56546978cfabaa2b77f", "location": {"address": "17 Granville St", "admin_region": "Scotland", "country": "GB", "cross_street": "", "formatted_address": "17 Granville St, Glasgow, Glasgow City, G3 7EE", "locality": "Glasgow", "post_town": "Glasgow", "postcode": "G3 7EE", "region": "Glasgow City"}, "name": "Shenaz", "related_places": {}, "timezone": "Europe/London"}, {"fsq_id": "4b609ccdf964a52037f029e3", "categories": [{"id": 13003, "name": "Bar", "short_name": "Bar", "plural_name": "Bars", "icon": {"prefix": "https://ss3.4sqi.net/img/categories_v2/nightlife/pub_", "suffix": ".png"}}, {"id": 13027, "name": "Bistro", "short_name": "Bistro", "plural_name": "Bistros", "icon": {"prefix": "https://ss3.4sqi.net/img/categories_v2/food/default_", "suffix": ".png"}}], "chains": [], "closed_bucket": "Unsure", "distance": 840, "geocodes": {"drop_off": {"latitude": 55.87252, "longitude": -4.282678}, "main": {"latitude": 55.872402, "longitude": -4.282705}, "roof": {"latitude": 55.872402, "longitude": -4.282705}}, "link": "/v3/places/4b609ccdf964a52037f029e3", "location": {"address": "33-35 Gibson St", "admin_region": "Scotland", "country": "GB", "formatted_address": "33-35 Gibson St, Glasgow, Glasgow City, G12 8NU", "locality": "Glasgow", "post_town": "Glasgow", "postcode": "G12 8NU", "region": "Glasgow City"}, "name": "The Left Bank", "related_places": {}, "timezone": "Europe/London"}, {"fsq_id": "4bb4be3486a8d13a67c8de7f", "categories": [{"id": 13010, "name": "Dive Bar", "short_name": "Dive Bar", "plural_name": "Dive Bars", "icon": {"prefix": "https://ss3.4sqi.net/img/categories_v2/nightlife/divebar_", "suffix": ".png"}}, {"id": 13018, "name": "Pub", "short_name": "Pub", "plural_name": "Pubs", "icon": {"prefix": "https://ss3.4sqi.net/img/categories_v2/nightlife/pub_", "suffix": ".png"}}, {"id": 13065, "name": "Restaurant", "short_name": "Restaurant", "plural_name": "Restaurants", "icon": {"prefix": "https://ss3.4sqi.net/img/categories_v2/food/default_", "suffix": ".png"}}], "chains": [], "closed_bucket": "Unsure", "distance": 969, "geocodes": {"main": {"latitude": 55.873122, "longitude": -4.279327}, "roof": {"latitude": 55.873122, "longitude": -4.279327}}, "link": "/v3/places/4bb4be3486a8d13a67c8de7f", "location": {"address": "74 Park Rd", "admin_region": "Scotland", "country": "GB", "cross_street": "Woodlands Road", "formatted_address": "74 Park Rd (Woodlands Road), Glasgow, Glasgow City, G4 9JF", "locality": "Glasgow", "post_town": "Glasgow", "postcode": "G4 9JF", "region": "Glasgow City"}, "name": "The Doublet", "related_places": {}, "timezone": "Europe/London"}, {"fsq_id": "4c0164bef7ab0f471d0816b6", "categories": [{"id": 13018, "name": "Pub", "short_name": "Pub", "plural_name": "Pubs", "icon": {"prefix": "https://ss3.4sqi.net/img/categories_v2/nightlife/pub_", "suffix": ".png"}}, {"id": 13065, "name": "Restaurant", "short_name": "Restaurant", "plural_name": "Restaurants", "icon": {"prefix": "https://ss3.4sqi.net/img/categories_v2/food/default_", "suffix": ".png"}}], "chains": [], "closed_bucket": "Unsure", "distance": 900, "geocodes": {"main": {"latitude": 55.872066, "longitude": -4.278453}, "roof": {"latitude": 55.872066, "longitude": -4.278453}}, "link": "/v3/places/4c0164bef7ab0f471d0816b6", "location": {"address": "287 Woodlands Rd", "admin_region": "Scotland", "country": "GB", "cross_street": "", "formatted_address": "287 Woodlands Rd, Glasgow, Glasgow City, G3 6NF", "locality": "Glasgow", "post_town": "Glasgow", "postcode": "G3 6NF", "region": "Glasgow City"}, "name": "Old Schoolhouse Glasgow", "related_places": {}, "timezone": "Europe/London"}, {"fsq_id": "4c2f3cf866e40f47117fc18b", "categories": [{"id": 13003, "name": "Bar", "short_name": "Bar", "plural_name": "Bars", "icon": {"prefix": "https://ss3.4sqi.net/img/categories_v2/nightlife/pub_", "suffix": ".png"}}, {"id": 13065, "name": "Restaurant", "short_name": "Restaurant", "plural_name": "Restaurants", "icon": {"prefix": "https://ss3.4sqi.net/img/categories_v2/food/default_", "suffix": ".png"}}], "chains": [], "closed_bucket": "VeryLikelyOpen", "distance": 881, "geocodes": {"main": {"latitude": 55.868415, "longitude": -4.273189}, "roof": {"latitude": 55.868415, "longitude": -4.273189}}, "link": "/v3/places/4c2f3cf866e40f47117fc18b", "location": {"address": "1 Lynedoch St", "admin_region": "Scotland", "country": "GB", "formatted_address": "1 Lynedoch St, Glasgow, Glasgow City, G3 6EF", "locality": "Glasgow", "post_town": "Glasgow", "postcode": "G3 6EF", "region": "Glasgow City"}, "name": "The Drake", "related_places": {}, "timezone": "Europe/London"}, {"fsq_id": "4b658635f964a52041f32ae3", "categories": [{"id": 13018, "name": "Pub", "short_name": "Pub", "plural_name": "Pubs", "icon": {"prefix": "https://ss3.4sqi.net/img/categories_v2/nightlife/pub_", "suffix": ".png"}}, {"id": 13025, "name": "Wine Bar", "short_name": "Wine Bar", "plural_name": "Wine Bars", "icon": {"prefix": "https://ss3.4sqi.net/img/categories_v2/food/winery_", "suffix": ".png"}}, {"id": 13057, "name": "Gastropub", "short_name": "Gastropub", "plural_name": "Gastropubs", "icon": {"prefix": "https://ss3.4sqi.net/img/categories_v2/food/gastropub_", "suffix": ".png"}}], "chains": [], "closed_bucket": "LikelyOpen", "distance": 140, "geocodes": {"main": {"latitude": 55.865596, "longitude": -4.283827}, "roof": {"latitude": 55.865596, "longitude": -4.283827}}, "link": "/v3/places/4b658635f964a52041f32ae3", "location": {"address": "36a Kelvingrove St", "admin_region": "Scotland", "country": "GB", "formatted_address": "36a Kelvingrove St, Glasgow, Glasgow City, G3 7SA", "locality": "Glasgow", "post_town": "Glasgow", "postcode": "G3 7SA", "region": "Glasgow City"}, "name": "Big Slope", "related_places": {}, "timezone": "Europe/London"}, {"fsq_id": "4bc9e70dfb84c9b6ded81b3e", "categories": [{"id": 13352, "name": "Thai Restaurant", "short_name": "Thai", "plural_name": "Thai Restaurants", "icon": {"prefix": "https://ss3.4sqi.net/img/categories_v2/food/thai_", "suffix": ".png"}}], "chains": [], "closed_bucket": "LikelyOpen", "distance": 40, "geocodes": {"main": {"latitude": 55.865373, "longitude": -4.286799}, "roof": {"latitude": 55.865373, "longitude": -4.286799}}, "link": "/v3/places/4bc9e70dfb84c9b6ded81b3e", "location": {"address": "1191 Argyle St", "admin_region": "Scotland", "country": "GB", "cross_street": "", "formatted_address": "1191 Argyle St, Glasgow, Glasgow City, G3 8TQ", "locality": "Glasgow", "post_town": "Glasgow", "postcode": "G3 8TQ", "region": "Glasgow City"}, "name": "Thai Siam", "related_places": {}, "timezone": "Europe/London"}, {"fsq_id": "52409f4d11d224590bfca521", "categories": [{"id": 13003, "name": "Bar", "short_name": "Bar", "plural_name": "Bars", "icon": {"prefix": "https://ss3.4sqi.net/img/categories_v2/nightlife/pub_", "suffix": ".png"}}, {"id": 13034, "name": "Caf\u00e9", "short_name": "Caf\u00e9", "plural_name": "Caf\u00e9s", "icon": {"prefix": "https://ss3.4sqi.net/img/categories_v2/food/cafe_", "suffix": ".png"}}, {"id": 13065, "name": "Restaurant", "short_name": "Restaurant", "plural_name": "Restaurants", "icon": {"prefix": "https://ss3.4sqi.net/img/categories_v2/food/default_", "suffix": ".png"}}], "chains": [], "closed_bucket": "VeryLikelyOpen", "distance": 875, "geocodes": {"main": {"latitude": 55.87321, "longitude": -4.284238}, "roof": {"latitude": 55.87321, "longitude": -4.284238}}, "link": "/v3/places/52409f4d11d224590bfca521", "location": {"address": "52-54 Bank St", "admin_region": "Scotland", "country": "GB", "cross_street": "", "formatted_address": "52-54 Bank St, Glasgow, G12 8LZ", "locality": "Glasgow", "post_town": "Glasgow", "postcode": "G12 8LZ"}, "name": "Bank Street Bar Kitchen", "related_places": {}, "timezone": "Europe/London"}, {"fsq_id": "53949cd6498e932c3f1aabba", "categories": [{"id": 13199, "name": "Indian Restaurant", "short_name": "Indian", "plural_name": "Indian Restaurants", "icon": {"prefix": "https://ss3.4sqi.net/img/categories_v2/food/indian_", "suffix": ".png"}}], "chains": [], "closed_bucket": "VeryLikelyOpen", "distance": 781, "geocodes": {"main": {"latitude": 55.866025, "longitude": -4.273536}, "roof": {"latitude": 55.866025, "longitude": -4.273536}}, "link": "/v3/places/53949cd6498e932c3f1aabba", "location": {"address": "573-581 Sauchiehall St", "admin_region": "Scotland", "country": "GB", "cross_street": "", "formatted_address": "573-581 Sauchiehall St, Glasgow, G3 7PQ", "locality": "Glasgow", "post_town": "Glasgow", "postcode": "G3 7PQ"}, "name": "Akbar's", "related_places": {}, "timezone": "Europe/London"}, {"fsq_id": "4ee28df99a521fcbefc9cf9a", "categories": [{"id": 13003, "name": "Bar", "short_name": "Bar", "plural_name": "Bars", "icon": {"prefix": "https://ss3.4sqi.net/img/categories_v2/nightlife/pub_", "suffix": ".png"}}], "chains": [], "closed_bucket": "LikelyOpen", "distance": 436, "geocodes": {"main": {"latitude": 55.866966, "longitude": -4.292106}, "roof": {"latitude": 55.866966, "longitude": -4.292106}}, "link": "/v3/places/4ee28df99a521fcbefc9cf9a", "location": {"address": "41 Old Dumbarton Rd", "admin_region": "Scotland", "country": "GB", "cross_street": "Yorkhill St", "formatted_address": "41 Old Dumbarton Rd (Yorkhill St), Glasgow, G3 8RD", "locality": "Glasgow", "post_town": "Glasgow", "postcode": "G3 8RD"}, "name": "Dukes Bar", "related_places": {}, "timezone": "Europe/London"}, {"fsq_id": "4c894ce9da5da1cdec563be9", "categories": [{"id": 13018, "name": "Pub", "short_name": "Pub", "plural_name": "Pubs", "icon": {"prefix": "https://ss3.4sqi.net/img/categories_v2/nightlife/pub_", "suffix": ".png"}}], "chains": [], "closed_bucket": "Unsure", "distance": 339, "geocodes": {"main": {"latitude": 55.863859, "longitude": -4.281039}, "roof": {"latitude": 55.863859, "longitude": -4.281039}}, "link": "/v3/places/4c894ce9da5da1cdec563be9", "location": {"address": "1004 Argyle St", "admin_region": "Scotland", "country": "GB", "formatted_address": "1004 Argyle St, Glasgow, Glasgow City, G3 8LZ", "locality": "Glasgow", "post_town": "Glasgow", "postcode": "G3 8LZ", "region": "Glasgow City"}, "name": "The Brass Monkey", "related_places": {}, "timezone": "Europe/London"}, {"fsq_id": "4b85775ff964a520cb5f31e3", "categories": [{"id": 13035, "name": "Coffee Shop", "short_name": "Coffee Shop", "plural_name": "Coffee Shops", "icon": {"prefix": "https://ss3.4sqi.net/img/categories_v2/food/coffeeshop_", "suffix": ".png"}}, {"id": 13065, "name": "Restaurant", "short_name": "Restaurant", "plural_name": "Restaurants", "icon": {"prefix": "https://ss3.4sqi.net/img/categories_v2/food/default_", "suffix": ".png"}}], "chains": [], "closed_bucket": "Unsure", "distance": 877, "geocodes": {"main": {"latitude": 55.871452, "longitude": -4.277208}, "roof": {"latitude": 55.871452, "longitude": -4.277208}}, "link": "/v3/places/4b85775ff964a520cb5f31e3", "location": {"address": "250-254 Woodlands Rd", "admin_region": "Scotland", "country": "GB", "cross_street": "", "formatted_address": "250-254 Woodlands Rd, Glasgow City, G3 6ND", "locality": "Glasgow City", "post_town": "Glasgow", "postcode": "G3 6ND", "region": "Glasgow City"}, "name": "iCafe", "related_places": {}, "timezone": "Europe/London"}, {"fsq_id": "530b2e55498e560107d891b4", "categories": [{"id": 13031, "name": "Burger Joint", "short_name": "Burgers", "plural_name": "Burger Joints", "icon": {"prefix": "https://ss3.4sqi.net/img/categories_v2/food/burger_", "suffix": ".png"}}], "chains": [], "closed_bucket": "VeryLikelyOpen", "distance": 569, "geocodes": {"main": {"latitude": 55.860216, "longitude": -4.287621}, "roof": {"latitude": 55.860216, "longitude": -4.287621}}, "link": "/v3/places/530b2e55498e560107d891b4", "location": {"address": "Queens Dock", "admin_region": "Scotland", "country": "GB", "cross_street": "", "formatted_address": "Queens Dock, Glasgow, Glasgow City, G3 8YW", "locality": "Glasgow", "post_town": "Glasgow", "postcode": "G3 8YW", "region": "Glasgow City"}, "name": "Clydebuilt Bar & Kitchen", "related_places": {}, "timezone": "Europe/London"}, {"fsq_id": "4c3a2d4f2c8020a120f58d00", "categories": [{"id": 13003, "name": "Bar", "short_name": "Bar", "plural_name": "Bars", "icon": {"prefix": "https://ss3.4sqi.net/img/categories_v2/nightlife/pub_", "suffix": ".png"}}], "chains": [], "closed_bucket": "VeryLikelyOpen", "distance": 873, "geocodes": {"main": {"latitude": 55.870161, "longitude": -4.297043}, "roof": {"latitude": 55.870161, "longitude": -4.297043}}, "link": "/v3/places/4c3a2d4f2c8020a120f58d00", "location": {"address": "5-13 Thurso St", "country": "GB", "cross_street": "", "formatted_address": "5-13 Thurso St, Glasgow, Glasgow City", "locality": "Glasgow", "post_town": "Glasgow", "region": "Glasgow City"}, "name": "Gallus", "related_places": {}, "timezone": "Europe/London"}, {"fsq_id": "4b8421a8f964a520b72231e3", "categories": [{"id": 13035, "name": "Coffee Shop", "short_name": "Coffee Shop", "plural_name": "Coffee Shops", "icon": {"prefix": "https://ss3.4sqi.net/img/categories_v2/food/coffeeshop_", "suffix": ".png"}}, {"id": 13036, "name": "Tea Room", "short_name": "Tea Room", "plural_name": "Tea Rooms", "icon": {"prefix": "https://ss3.4sqi.net/img/categories_v2/food/tearoom_", "suffix": ".png"}}, {"id": 13065, "name": "Restaurant", "short_name": "Restaurant", "plural_name": "Restaurants", "icon": {"prefix": "https://ss3.4sqi.net/img/categories_v2/food/default_", "suffix": ".png"}}], "chains": [], "closed_bucket": "LikelyOpen", "distance": 919, "geocodes": {"main": {"latitude": 55.868208, "longitude": -4.272201}, "roof": {"latitude": 55.868208, "longitude": -4.272201}}, "link": "/v3/places/4b8421a8f964a520b72231e3", "location": {"address": "40-42 Woodlands Rd", "admin_region": "Scotland", "country": "GB", "cross_street": "at Baliol Ln", "formatted_address": "40-42 Woodlands Rd (at Baliol Ln), Glasgow, Glasgow City, G3 6UR", "locality": "Glasgow", "post_town": "Glasgow", "postcode": "G3 6UR", "region": "Glasgow City"}, "name": "The Coffee Pod", "related_places": {}, "timezone": "Europe/London"}, {"fsq_id": "4bebee7362c0c928e5a5e2d4", "categories": [{"id": 13031, "name": "Burger Joint", "short_name": "Burgers", "plural_name": "Burger Joints", "icon": {"prefix": "https://ss3.4sqi.net/img/categories_v2/food/burger_", "suffix": ".png"}}, {"id": 13145, "name": "Fast Food Restaurant", "short_name": "Fast Food", "plural_name": "Fast Food Restaurants", "icon": {"prefix": "https://ss3.4sqi.net/img/categories_v2/food/fastfood_", "suffix": ".png"}}], "chains": [{"id": "ab4a3530-d68a-012e-5619-003048cad9da", "name": "McDonald's"}], "closed_bucket": "VeryLikelyOpen", "distance": 471, "geocodes": {"main": {"latitude": 55.862645, "longitude": -4.280161}, "roof": {"latitude": 55.862645, "longitude": -4.280161}}, "link": "/v3/places/4bebee7362c0c928e5a5e2d4", "location": {"address": "The Clydeway Centre Skypark", "admin_region": "Scotland", "country": "GB", "cross_street": "at Finnieston St.", "formatted_address": "The Clydeway Centre Skypark (at Finnieston St.), Glasgow, Glasgow City, G3 8JU", "locality": "Glasgow", "post_town": "Glasgow", "postcode": "G3 8JU", "region": "Glasgow City"}, "name": "McDonald's", "related_places": {}, "timezone": "Europe/London"}, {"fsq_id": "4bbe2e501416a59330c6f33c", "categories": [{"id": 13018, "name": "Pub", "short_name": "Pub", "plural_name": "Pubs", "icon": {"prefix": "https://ss3.4sqi.net/img/categories_v2/nightlife/pub_", "suffix": ".png"}}], "chains": [], "closed_bucket": "LikelyOpen", "distance": 120, "geocodes": {"main": {"latitude": 55.866162, "longitude": -4.286823}, "roof": {"latitude": 55.866162, "longitude": -4.286823}}, "link": "/v3/places/4bbe2e501416a59330c6f33c", "location": {"address": "979 Sauchiehall St", "admin_region": "Scotland", "country": "GB", "cross_street": "", "formatted_address": "979 Sauchiehall St, Glasgow, Glasgow City, G3 7TQ", "locality": "Glasgow", "post_town": "Glasgow", "postcode": "G3 7TQ", "region": "Glasgow City"}, "name": "Snaffle Bit Glasgow", "related_places": {}, "timezone": "Europe/London"}, {"fsq_id": "5d07ac6522d490002c021c5e", "categories": [{"id": 13006, "name": "Beer Bar", "short_name": "Beer Bar", "plural_name": "Beer Bars", "icon": {"prefix": "https://ss3.4sqi.net/img/categories_v2/nightlife/pub_", "suffix": ".png"}}, {"id": 13068, "name": "American Restaurant", "short_name": "American", "plural_name": "American Restaurants", "icon": {"prefix": "https://ss3.4sqi.net/img/categories_v2/food/default_", "suffix": ".png"}}], "chains": [], "closed_bucket": "LikelyOpen", "distance": 239, "geocodes": {"main": {"latitude": 55.864303, "longitude": -4.28249}, "roof": {"latitude": 55.864303, "longitude": -4.28249}}, "link": "/v3/places/5d07ac6522d490002c021c5e", "location": {"address": "1038 Argyle St", "admin_region": "Scotland", "country": "GB", "cross_street": "", "formatted_address": "1038 Argyle St, Glasgow, Glasgow City, G3 8LX", "locality": "Glasgow", "post_town": "Glasgow", "postcode": "G3 8LX", "region": "Glasgow City"}, "name": "The Dirty Duchess", "related_places": {}, "timezone": "Europe/London"}, {"fsq_id": "5e4e8b462b631a00083161d8", "categories": [{"id": 13309, "name": "Middle Eastern Restaurant", "short_name": "Middle Eastern", "plural_name": "Middle Eastern Restaurants", "icon": {"prefix": "https://ss3.4sqi.net/img/categories_v2/food/middleeastern_", "suffix": ".png"}}, {"id": 13356, "name": "Turkish Restaurant", "short_name": "Turkish", "plural_name": "Turkish Restaurants", "icon": {"prefix": "https://ss3.4sqi.net/img/categories_v2/food/turkish_", "suffix": ".png"}}], "chains": [], "closed_bucket": "LikelyOpen", "distance": 265, "geocodes": {"drop_off": {"latitude": 55.864113, "longitude": -4.282273}, "main": {"latitude": 55.864211, "longitude": -4.282242}, "roof": {"latitude": 55.864211, "longitude": -4.282242}}, "link": "/v3/places/5e4e8b462b631a00083161d8", "location": {"address": "1032 Argyle St", "admin_region": "Scotland", "country": "GB", "cross_street": "", "formatted_address": "1032 Argyle St, Glasgow, Glasgow City, G3 8LX", "locality": "Glasgow", "post_town": "Glasgow", "postcode": "G3 8LX", "region": "Glasgow City"}, "name": "Meze Meze", "related_places": {}, "timezone": "Europe/London"}, {"fsq_id": "5f33d4f6c551a43bd0797629", "categories": [{"id": 13035, "name": "Coffee Shop", "short_name": "Coffee Shop", "plural_name": "Coffee Shops", "icon": {"prefix": "https://ss3.4sqi.net/img/categories_v2/food/coffeeshop_", "suffix": ".png"}}, {"id": 13065, "name": "Restaurant", "short_name": "Restaurant", "plural_name": "Restaurants", "icon": {"prefix": "https://ss3.4sqi.net/img/categories_v2/food/default_", "suffix": ".png"}}], "chains": [], "closed_bucket": "Unsure", "distance": 387, "geocodes": {"main": {"latitude": 55.867384, "longitude": -4.291243}, "roof": {"latitude": 55.867384, "longitude": -4.291243}}, "link": "/v3/places/5f33d4f6c551a43bd0797629", "location": {"address": "1361 Argyle St", "admin_region": "Scotland", "country": "GB", "cross_street": "", "formatted_address": "1361 Argyle St, Glasgow, Glasgow City", "locality": "Glasgow", "post_town": "Glasgow", "region": "Glasgow City"}, "name": "Ronzio", "related_places": {}, "timezone": "Europe/London"}, {"fsq_id": "4beae92eb3352d7f29c655d2", "categories": [{"id": 13018, "name": "Pub", "short_name": "Pub", "plural_name": "Pubs", "icon": {"prefix": "https://ss3.4sqi.net/img/categories_v2/nightlife/pub_", "suffix": ".png"}}], "chains": [], "closed_bucket": "VeryLikelyOpen", "distance": 389, "geocodes": {"main": {"latitude": 55.862135, "longitude": -4.289082}}, "link": "/v3/places/4beae92eb3352d7f29c655d2", "location": {"country": "GB", "formatted_address": ""}, "name": "Culcreuch Castle Bar and Dungeon", "related_places": {"children": [{"fsq_id": "5b5387c66adbf5002ce6f2fc", "categories": [{"id": 11039, "name": "Event Space", "short_name": "Event Space", "plural_name": "Event Spaces", "icon": {"prefix": "https://ss3.4sqi.net/img/categories_v2/building/eventspace_", "suffix": ".png"}}], "name": "Galbraith Hall"}]}, "timezone": "Europe/London"}, {"fsq_id": "4ef9ea3393ad7cf2ec8ebab2", "categories": [{"id": 13034, "name": "Caf\u00e9", "short_name": "Caf\u00e9", "plural_name": "Caf\u00e9s", "icon": {"prefix": "https://ss3.4sqi.net/img/categories_v2/food/cafe_", "suffix": ".png"}}, {"id": 13065, "name": "Restaurant", "short_name": "Restaurant", "plural_name": "Restaurants", "icon": {"prefix": "https://ss3.4sqi.net/img/categories_v2/food/default_", "suffix": ".png"}}], "chains": [], "closed_bucket": "LikelyOpen", "distance": 439, "geocodes": {"main": {"latitude": 55.8685, "longitude": -4.290156}, "roof": {"latitude": 55.8685, "longitude": -4.290156}}, "link": "/v3/places/4ef9ea3393ad7cf2ec8ebab2", "location": {"address": "Kelvingrove Museum and Gallery", "admin_region": "Scotland", "country": "GB", "cross_street": "", "formatted_address": "Kelvingrove Museum and Gallery, Glasgow, Glasgow City, G3 8AG", "locality": "Glasgow", "post_town": "Glasgow", "postcode": "G3 8AG", "region": "Glasgow City"}, "name": "KG Caf\u00e9", "related_places": {"parent": {"fsq_id": "4ba647c4f964a520f04139e3", "categories": [{"id": 10004, "name": "Art Gallery", "short_name": "Art Gallery", "plural_name": "Art Galleries", "icon": {"prefix": "https://ss3.4sqi.net/img/categories_v2/arts_entertainment/artgallery_", "suffix": ".png"}}], "name": "Kelvingrove Art Gallery and Museum"}}, "timezone": "Europe/London"}, {"fsq_id": "5b8002af234724002c324dec", "categories": [{"id": 13003, "name": "Bar", "short_name": "Bar", "plural_name": "Bars", "icon": {"prefix": "https://ss3.4sqi.net/img/categories_v2/nightlife/pub_", "suffix": ".png"}}, {"id": 13065, "name": "Restaurant", "short_name": "Restaurant", "plural_name": "Restaurants", "icon": {"prefix": "https://ss3.4sqi.net/img/categories_v2/food/default_", "suffix": ".png"}}], "chains": [], "closed_bucket": "LikelyOpen", "distance": 479, "geocodes": {"drop_off": {"latitude": 55.867273, "longitude": -4.292991}, "main": {"latitude": 55.867125, "longitude": -4.293022}, "roof": {"latitude": 55.867125, "longitude": -4.293022}}, "link": "/v3/places/5b8002af234724002c324dec", "location": {"address": "67 Old Dumbarton Rd", "admin_region": "Scotland", "country": "GB", "cross_street": "", "formatted_address": "67 Old Dumbarton Rd, Glasgow, G3 8RF", "locality": "Glasgow", "post_town": "Glasgow", "postcode": "G3 8RF"}, "name": "The Brunch Club", "related_places": {}, "timezone": "Europe/London"}, {"fsq_id": "587a7c79668af7600aabed05", "categories": [{"id": 13034, "name": "Caf\u00e9", "short_name": "Caf\u00e9", "plural_name": "Caf\u00e9s", "icon": {"prefix": "https://ss3.4sqi.net/img/categories_v2/food/cafe_", "suffix": ".png"}}, {"id": 13065, "name": "Restaurant", "short_name": "Restaurant", "plural_name": "Restaurants", "icon": {"prefix": "https://ss3.4sqi.net/img/categories_v2/food/default_", "suffix": ".png"}}], "chains": [], "closed_bucket": "VeryLikelyOpen", "distance": 503, "geocodes": {"drop_off": {"latitude": 55.863047, "longitude": -4.278856}, "main": {"latitude": 55.863196, "longitude": -4.278811}, "roof": {"latitude": 55.863196, "longitude": -4.278811}}, "link": "/v3/places/587a7c79668af7600aabed05", "location": {"admin_region": "Scotland", "country": "GB", "cross_street": "", "formatted_address": "Glasgow, Glasgow City, G3 8JG", "locality": "Glasgow", "post_town": "Glasgow", "postcode": "G3 8JG", "region": "Glasgow City"}, "name": "Finnieston House", "related_places": {}, "timezone": "Europe/London"}, {"fsq_id": "52d99e9b498e5140a1fae25e", "categories": [{"id": 13003, "name": "Bar", "short_name": "Bar", "plural_name": "Bars", "icon": {"prefix": "https://ss3.4sqi.net/img/categories_v2/nightlife/pub_", "suffix": ".png"}}], "chains": [], "closed_bucket": "VeryLikelyOpen", "distance": 609, "geocodes": {"main": {"latitude": 55.859748, "longitude": -4.285679}, "roof": {"latitude": 55.859748, "longitude": -4.285679}}, "link": "/v3/places/52d99e9b498e5140a1fae25e", "location": {"country": "GB", "cross_street": "", "formatted_address": ""}, "name": "The Hydro Club", "related_places": {"parent": {"fsq_id": "4ecfe4e68b81b47395e67c15", "categories": [{"id": 10037, "name": "Concert Hall", "short_name": "Concert Hall", "plural_name": "Concert Halls", "icon": {"prefix": "https://ss3.4sqi.net/img/categories_v2/arts_entertainment/musicvenue_", "suffix": ".png"}}, {"id": 10039, "name": "Music Venue", "short_name": "Music Venue", "plural_name": "Music Venues", "icon": {"prefix": "https://ss3.4sqi.net/img/categories_v2/arts_entertainment/musicvenue_", "suffix": ".png"}}, {"id": 11039, "name": "Event Space", "short_name": "Event Space", "plural_name": "Event Spaces", "icon": {"prefix": "https://ss3.4sqi.net/img/categories_v2/building/eventspace_", "suffix": ".png"}}], "name": "The SSE Hydro"}}, "timezone": "Europe/London"}, {"fsq_id": "5b099a55b399f7002cd7bb21", "categories": [{"id": 13003, "name": "Bar", "short_name": "Bar", "plural_name": "Bars", "icon": {"prefix": "https://ss3.4sqi.net/img/categories_v2/nightlife/pub_", "suffix": ".png"}}, {"id": 13065, "name": "Restaurant", "short_name": "Restaurant", "plural_name": "Restaurants", "icon": {"prefix": "https://ss3.4sqi.net/img/categories_v2/food/default_", "suffix": ".png"}}], "chains": [], "closed_bucket": "VeryLikelyOpen", "distance": 816, "geocodes": {"drop_off": {"latitude": 55.858101, "longitude": -4.282673}, "main": {"latitude": 55.85829, "longitude": -4.28262}, "roof": {"latitude": 55.85829, "longitude": -4.28262}}, "link": "/v3/places/5b099a55b399f7002cd7bb21", "location": {"address": "Finnieston Quay", "admin_region": "Scotland", "country": "GB", "cross_street": "", "formatted_address": "Finnieston Quay, Glasgow, Glasgow City, G3 8HN", "locality": "Glasgow", "post_town": "Glasgow", "postcode": "G3 8HN", "region": "Glasgow City"}, "name": "OUIBar + KTCHN", "related_places": {"parent": {"fsq_id": "5af167bc6adbf5002c4339d2", "categories": [{"id": 19014, "name": "Hotel", "short_name": "Hotel", "plural_name": "Hotels", "icon": {"prefix": "https://ss3.4sqi.net/img/categories_v2/travel/hotel_", "suffix": ".png"}}], "name": "Radisson RED Glasgow"}}, "timezone": "Europe/London"}, {"fsq_id": "5979cf38747ecd2ae6a2fdac", "categories": [{"id": 13065, "name": "Restaurant", "short_name": "Restaurant", "plural_name": "Restaurants", "icon": {"prefix": "https://ss3.4sqi.net/img/categories_v2/food/default_", "suffix": ".png"}}], "chains": [], "closed_bucket": "LikelyOpen", "distance": 845, "geocodes": {"main": {"latitude": 55.857931, "longitude": -4.282433}, "roof": {"latitude": 55.857931, "longitude": -4.282433}}, "link": "/v3/places/5979cf38747ecd2ae6a2fdac", "location": {"address": "Finnieston Quay", "admin_region": "Scotland", "country": "GB", "cross_street": "", "formatted_address": "Finnieston Quay, Glasgow, Glasgow City, G3 8HN", "locality": "Glasgow", "post_town": "Glasgow", "postcode": "G3 8HN", "region": "Glasgow City"}, "name": "Recess", "related_places": {"parent": {"fsq_id": "4f3fcd07e4b06010fc18ad01", "categories": [{"id": 19014, "name": "Hotel", "short_name": "Hotel", "plural_name": "Hotels", "icon": {"prefix": "https://ss3.4sqi.net/img/categories_v2/travel/hotel_", "suffix": ".png"}}], "name": "Hilton Garden Inn Glasgow City Centre"}}, "timezone": "Europe/London"}, {"fsq_id": "5db0acc82e18280007e9dd9b", "categories": [{"id": 13031, "name": "Burger Joint", "short_name": "Burgers", "plural_name": "Burger Joints", "icon": {"prefix": "https://ss3.4sqi.net/img/categories_v2/food/burger_", "suffix": ".png"}}], "chains": [], "closed_bucket": "LikelyOpen", "distance": 848, "geocodes": {"main": {"latitude": 55.869794, "longitude": -4.274878}, "roof": {"latitude": 55.869794, "longitude": -4.274878}}, "link": "/v3/places/5db0acc82e18280007e9dd9b", "location": {"address": "152 Woodlands Rd", "admin_region": "Scotland", "country": "GB", "cross_street": "", "formatted_address": "152 Woodlands Rd, Glasgow, Glasgow City, G3 6LF", "locality": "Glasgow", "post_town": "Glasgow", "postcode": "G3 6LF", "region": "Glasgow City"}, "name": "El Perro Negro Woodlands", "related_places": {}, "timezone": "Europe/London"}, {"fsq_id": "5fa6d89779cd8d03f31040cd", "categories": [{"id": 13383, "name": "Steakhouse", "short_name": "Steakhouse", "plural_name": "Steakhouses", "icon": {"prefix": "https://ss3.4sqi.net/img/categories_v2/food/steakhouse_", "suffix": ".png"}}], "chains": [], "closed_bucket": "Unsure", "distance": 873, "geocodes": {"drop_off": {"latitude": 55.866269, "longitude": -4.272178}, "main": {"latitude": 55.866103, "longitude": -4.272171}, "roof": {"latitude": 55.866103, "longitude": -4.272171}}, "link": "/v3/places/5fa6d89779cd8d03f31040cd", "location": {"address": "515 Sauchiehall St", "admin_region": "Scotland", "country": "GB", "cross_street": "North street", "formatted_address": "515 Sauchiehall St (North street), Glasgow, Glasgow City, G3 7PQ", "locality": "Glasgow", "post_town": "Glasgow", "postcode": "G3 7PQ", "region": "Glasgow City"}, "name": "Bufalo Grill", "related_places": {}, "timezone": "Europe/London"}, {"fsq_id": "beee60ef9bcb4210057922ab", "categories": [{"id": 13068, "name": "American Restaurant", "short_name": "American", "plural_name": "American Restaurants", "icon": {"prefix": "https://ss3.4sqi.net/img/categories_v2/food/default_", "suffix": ".png"}}], "chains": [], "closed_bucket": "LikelyOpen", "distance": 932, "geocodes": {"drop_off": {"latitude": 55.870178, "longitude": -4.298284}, "main": {"latitude": 55.870088, "longitude": -4.298303}, "roof": {"latitude": 55.870088, "longitude": -4.298303}}, "link": "/v3/places/beee60ef9bcb4210057922ab", "location": {"address": "102 Dumbarton Rd", "admin_region": "Scotland", "country": "GB", "formatted_address": "102 Dumbarton Rd, Glasgow, G11 6NX", "locality": "Glasgow", "post_town": "Glasgow", "postcode": "G11 6NX"}, "name": "Trideca Diner", "related_places": {}, "timezone": "Europe/London"}, {"fsq_id": "61012e7aadb68513108dfa00", "categories": [{"id": 13377, "name": "Vegan and Vegetarian Restaurant", "short_name": "Vegan and Vegetarian Restaurant", "plural_name": "Vegan and Vegetarian Restaurants", "icon": {"prefix": "https://ss3.4sqi.net/img/categories_v2/food/vegetarian_", "suffix": ".png"}}, {"id": 13025, "name": "Wine Bar", "short_name": "Wine Bar", "plural_name": "Wine Bars", "icon": {"prefix": "https://ss3.4sqi.net/img/categories_v2/food/winery_", "suffix": ".png"}}], "chains": [], "closed_bucket": "LikelyOpen", "distance": 949, "geocodes": {"drop_off": {"latitude": 55.867867, "longitude": -4.271908}, "main": {"latitude": 55.867965, "longitude": -4.271843}, "roof": {"latitude": 55.867965, "longitude": -4.271843}}, "link": "/v3/places/61012e7aadb68513108dfa00", "location": {"address": "Woodlands Rd 20", "admin_region": "Scotland", "country": "GB", "cross_street": "", "formatted_address": "Woodlands Rd 20, Glasgow, Glasgow City, G3 6UR", "locality": "Glasgow", "post_town": "Glasgow", "postcode": "G3 6UR", "region": "Glasgow City"}, "name": "Sylvan", "related_places": {}, "timezone": "Europe/London"}, {"fsq_id": "5e6e66f7fc840000080fbf71", "categories": [{"id": 13272, "name": "Ramen Restaurant", "short_name": "Ramen", "plural_name": "Ramen Restaurants", "icon": {"prefix": "https://ss3.4sqi.net/img/categories_v2/food/ramen_", "suffix": ".png"}}], "chains": [], "closed_bucket": "Unsure", "distance": 1688, "geocodes": {"drop_off": {"latitude": 55.864939, "longitude": -4.284899}, "main": {"latitude": 55.865063, "longitude": -4.284862}, "roof": {"latitude": 55.865063, "longitude": -4.284862}}, "link": "/v3/places/5e6e66f7fc840000080fbf71", "location": {"address": "1126 Argyle St", "admin_region": "Scotland", "country": "GB", "cross_street": "", "formatted_address": "1126 Argyle St, Glasgow, Glasgow City, G3 8TD", "locality": "Glasgow", "post_town": "Glasgow", "postcode": "G3 8TD", "region": "Glasgow City"}, "name": "Ramen Dayo", "related_places": {}, "timezone": "Europe/London"}], "context": {"geo_bounds": {"circle": {"center": {"latitude": 55.865222, "longitude": -4.286127}, "radius": 1000}}}}