{"results": [{"fsq_id": "54c61ff3498ec3e20f6a64b2", "categories": [{"id": 13035, "name": "Coffee Shop", "short_name": "Coffee Shop", "plural_name": "Coffee Shops", "icon": {"prefix": "https://ss3.4sqi.net/img/categories_v2/food/coffeeshop_", "suffix": ".png"}}, {"id": 13065, "name": "Restaurant", "short_name": "Restaurant", "plural_name": "Restaurants", "icon": {"prefix": "https://ss3.4sqi.net/img/categories_v2/food/default_", "suffix": ".png"}}], "chains": [], "closed_bucket": "LikelyOpen", "distance": 601, "geocodes": {"main": {"latitude": 55.870559, "longitude": -4.316758}, "roof": {"latitude": 55.870559, "longitude": -4.316758}}, "link": "/v3/places/54c61ff3498ec3e20f6a64b2", "location": {"address": "579 Dumbarton Rd", "admin_region": "Scotland", "country": "GB", "cross_street": "Meadow Rd", "formatted_address": "579 Dumbarton Rd (Meadow Rd), Glasgow, Glasgow City, G11 6HY", "locality": "Glasgow", "post_town": "Glasgow", "postcode": "G11 6HY", "region": "Glasgow City"}, "name": "Meadow Road Coffee", "related_places": {}, "timezone": "Europe/London"}, {"fsq_id": "55214a32498e62c5cbccbec2", "categories": [{"id": 13034, "name": "Caf\u00e9", "short_name": "Caf\u00e9", "plural_name": "Caf\u00e9s", "icon": {"prefix": "https://ss3.4sqi.net/img/categories_v2/food/cafe_", "suffix": ".png"}}, {"id": 13065, "name": "Restaurant", "short_name": "Restaurant", "plural_name": "Restaurants", "icon": {"prefix": "https://ss3.4sqi.net/img/categories_v2/food/default_", "suffix": ".png"}}], "chains": [], "closed_bucket": "LikelyOpen", "distance": 209, "geocodes": {"main": {"latitude": 55.877399, "longitude": -4.321498}, "roof": {"latitude": 55.877399, "longitude": -4.321498}}, "link": "/v3/places/55214a32498e62c5cbccbec2", "location": {"address": "300 Crow Rd", "admin_region": "Scotland", "country": "GB", "cross_street": "", "formatted_address": "300 Crow Rd, Glasgow, G11 7HS", "locality": "Glasgow", "post_town": "Glasgow", "postcode": "G11 7HS"}, "name": "Kothel", "related_places": {}, "timezone": "Europe/London"}, {"fsq_id": "59d12b1befa82a766c5f27ec", "categories": [{"id": 13064, "name": "Pizzeria", "short_name": "Pizza", "plural_name": "Pizzerias", "icon": {"prefix": "https://ss3.4sqi.net/img/categories_v2/food/pizza_", "suffix": ".png"}}], "chains": [], "closed_bucket": "VeryLikelyOpen", "distance": 623, "geocodes": {"main": {"latitude": 55.870558, "longitude": -4.315847}, "roof": {"latitude": 55.870558, "longitude": -4.315847}}, "link": "/v3/places/59d12b1befa82a766c5f27ec", "location": {"address": "561 Dumbarton Rd", "admin_region": "Scotland", "country": "GB", "cross_street": "", "formatted_address": "561 Dumbarton Rd, Glasgow, Glasgow City, G11 6HU", "locality": "Glasgow", "post_town": "Glasgow", "postcode": "G11 6HU", "region": "Glasgow City"}, "name": "Basta", "related_places": {}, "timezone": "Europe/London"}, {"fsq_id": "4b6c0e77f964a520aa212ce3", "categories": [{"id": 13034, "name": "Caf\u00e9", "short_name": "Caf\u00e9", "plural_name": "Caf\u00e9s", "icon": {"prefix": "https://ss3.4sqi.net/img/categories_v2/food/cafe_", "suffix": ".png"}}, {"id": 13334, "name": "Sandwich Spot", "short_name": "Sandwich Spot", "plural_name": "Sandwich Spots", "icon": {"prefix": "https://ss3.4sqi.net/img/categories_v2/food/deli_", "suffix": ".png"}}], "chains": [], "closed_bucket": "Unsure", "distance": 494, "geocodes": {"main": {"latitude": 55.877819, "longitude": -4.312324}, "roof": {"latitude": 55.877819, "longitude": -4.312324}}, "link": "/v3/places/4b6c0e77f964a520aa212ce3", "location": {"address": "96 Clarence Dr", "admin_region": "Scotland", "country": "GB", "cross_street": "", "formatted_address": "96 Clarence Dr, Glasgow, Glasgow City, G12 9RN", "locality": "Glasgow", "post_town": "Glasgow", "postcode": "G12 9RN", "region": "Glasgow City"}, "name": "The Hyndland Cafe", "related_places": {}, "timezone": "Europe/London"}, {"fsq_id": "4bd595d2cfa7b7135afd25da", "categories": [{"id": 13034, "name": "Caf\u00e9", "short_name": "Caf\u00e9", "plural_name": "Caf\u00e9s", "icon": {"prefix": "https://ss3.4sqi.net/img/categories_v2/food/cafe_", "suffix": ".png"}}, {"id": 13035, "name": "Coffee Shop", "short_name": "Coffee Shop", "plural_name": "Coffee Shops", "icon": {"prefix": "https://ss3.4sqi.net/img/categories_v2/food/coffeeshop_", "suffix": ".png"}}, {"id": 13145, "name": "Fast Food Restaurant", "short_name": "Fast Food", "plural_name": "Fast Food Restaurants", "icon": {"prefix": "https://ss3.4sqi.net/img/categories_v2/food/fastfood_", "suffix": ".png"}}], "chains": [], "closed_bucket": "VeryLikelyOpen", "distance": 249, "geocodes": {"main": {"latitude": 55.87769, "longitude": -4.321928}, "roof": {"latitude": 55.87769, "longitude": -4.321928}}, "link": "/v3/places/4bd595d2cfa7b7135afd25da", "location": {"address": "322 Crow Rd", "admin_region": "Scotland", "country": "GB", "cross_street": "", "formatted_address": "322 Crow Rd, Glasgow, Glasgow City, G11 7HS", "locality": "Glasgow", "post_town": "Glasgow", "postcode": "G11 7HS", "region": "Glasgow City"}, "name": "Cafe Circa", "related_places": {}, "timezone": "Europe/London"}, {"fsq_id": "57ff424738fa621fceda6354", "categories": [{"id": 13035, "name": "Coffee Shop", "short_name": "Coffee Shop", "plural_name": "Coffee Shops", "icon": {"prefix": "https://ss3.4sqi.net/img/categories_v2/food/coffeeshop_", "suffix": ".png"}}, {"id": 13065, "name": "Restaurant", "short_name": "Restaurant", "plural_name": "Restaurants", "icon": {"prefix": "https://ss3.4sqi.net/img/categories_v2/food/default_", "suffix": ".png"}}], "chains": [], "closed_bucket": "LikelyOpen", "distance": 913, "geocodes": {"drop_off": {"latitude": 55.870798, "longitude": -4.307859}, "main": {"latitude": 55.8707, "longitude": -4.307858}, "roof": {"latitude": 55.8707, "longitude": -4.307858}}, "link": "/v3/places/57ff424738fa621fceda6354", "location": {"address": "381 Dumbarton Rd", "admin_region": "Scotland", "country": "GB", "cross_street": "Vine Street", "formatted_address": "381 Dumbarton Rd (Vine Street), Glasgow, Glasgow City, G11 6BA", "locality": "Glasgow", "post_town": "Glasgow", "postcode": "G11 6BA", "region": "Glasgow City"}, "name": "Caffe Monza", "related_places": {}, "timezone": "Europe/London"}, {"fsq_id": "4b8135e7f964a520949a30e3", "categories": [{"id": 13031, "name": "Burger Joint", "short_name": "Burgers", "plural_name": "Burger Joints", "icon": {"prefix": "https://ss3.4sqi.net/img/categories_v2/food/burger_", "suffix": ".png"}}, {"id": 13145, "name": "Fast Food Restaurant", "short_name": "Fast Food", "plural_name": "Fast Food Restaurants", "icon": {"prefix": "https://ss3.4sqi.net/img/categories_v2/food/fastfood_", "suffix": ".png"}}], "chains": [{"id": "ab4a3530-d68a-012e-5619-003048cad9da", "name": "McDonald's"}], "closed_bucket": "VeryLikelyOpen", "distance": 569, "geocodes": {"main": {"latitude": 55.872141, "longitude": -4.313057}, "roof": {"latitude": 55.872141, "longitude": -4.313057}}, "link": "/v3/places/4b8135e7f964a520949a30e3", "location": {"address": "West End Retail Park", "admin_region": "Scotland", "country": "GB", "cross_street": "at Dumbarton Rd", "formatted_address": "West End Retail Park (at Dumbarton Rd), Glasgow, Glasgow City, G11 7RY", "locality": "Glasgow", "post_town": "Glasgow", "postcode": "G11 7RY", "region": "Glasgow City"}, "name": "McDonald's", "related_places": {}, "timezone": "Europe/London"}, {"fsq_id": "4c4ae1b5f7b49c745dc2fbc1", "categories": [{"id": 13018, "name": "Pub", "short_name": "Pub", "plural_name": "Pubs", "icon": {"prefix": "https://ss3.4sqi.net/img/categories_v2/nightlife/pub_", "suffix": ".png"}}, {"id": 13065, "name": "Restaurant", "short_name": "Restaurant", "plural_name": "Restaurants", "icon": {"prefix": "https://ss3.4sqi.net/img/categories_v2/food/default_", "suffix": ".png"}}], "chains": [], "closed_bucket": "LikelyOpen", "distance": 650, "geocodes": {"main": {"latitude": 55.882133, "longitude": -4.327119}, "roof": {"latitude": 55.882133, "longitude": -4.327119}}, "link": "/v3/places/4c4ae1b5f7b49c745dc2fbc1", "location": {"address": "501 Crow Rd", "admin_region": "Scotland", "country": "GB", "cross_street": "", "formatted_address": "501 Crow Rd, Glasgow, Glasgow City, G11 7DN", "locality": "Glasgow", "post_town": "Glasgow", "postcode": "G11 7DN", "region": "Glasgow City"}, "name": "The Three Craws", "related_places": {}, "timezone": "Europe/London"}, {"fsq_id": "529f473d11d244431bf81587", "categories": [{"id": 13003, "name": "Bar", "short_name": "Bar", "plural_name": "Bars", "icon": {"prefix": "https://ss3.4sqi.net/img/categories_v2/nightlife/pub_", "suffix": ".png"}}, {"id": 13057, "name": "Gastropub", "short_name": "Gastropub", "plural_name": "Gastropubs", "icon": {"prefix": "https://ss3.4sqi.net/img/categories_v2/food/gastropub_", "suffix": ".png"}}], "chains": [], "closed_bucket": "LikelyOpen", "distance": 831, "geocodes": {"main": {"latitude": 55.870641, "longitude": -4.309819}, "roof": {"latitude": 55.870641, "longitude": -4.309819}}, "link": "/v3/places/529f473d11d244431bf81587", "location": {"address": "427-429 Dumbarton Rd", "admin_region": "Scotland", "country": "GB", "cross_street": "", "formatted_address": "427-429 Dumbarton Rd, Glasgow, G11 6DD", "locality": "Glasgow", "post_town": "Glasgow", "postcode": "G11 6DD"}, "name": "Deoch an Dorus", "related_places": {}, "timezone": "Europe/London"}, {"fsq_id": "6099a89a11da3c06ff5190a6", "categories": [{"id": 13148, "name": "French Restaurant", "short_name": "French", "plural_name": "French Restaurants", "icon": {"prefix": "https://ss3.4sqi.net/img/categories_v2/food/french_", "suffix": ".png"}}], "chains": [], "closed_bucket": "VeryLikelyOpen", "distance": 21, "geocodes": {"main": {"latitude": 55.875936, "longitude": -4.319453}, "roof": {"latitude": 55.875936, "longitude": -4.319453}}, "link": "/v3/places/6099a89a11da3c06ff5190a6", "location": {"admin_region": "Scotland", "country": "GB", "cross_street": "", "formatted_address": "Glasgow, Glasgow City, G11 7LA", "locality": "Glasgow", "post_town": "Glasgow", "postcode": "G11 7LA", "region": "Glasgow City"}, "name": "Wee Paree", "related_places": {}, "timezone": "Europe/London"}, {"fsq_id": "2dd17e751ad94b9584161442", "categories": [{"id": 13034, "name": "Caf\u00e9", "short_name": "Caf\u00e9", "plural_name": "Caf\u00e9s", "icon": {"prefix": "https://ss3.4sqi.net/img/categories_v2/food/cafe_", "suffix": ".png"}}, {"id": 13065, "name": "Restaurant", "short_name": "Restaurant", "plural_name": "Restaurants", "icon": {"prefix": "https://ss3.4sqi.net/img/categories_v2/food/default_", "suffix": ".png"}}], "chains": [], "closed_bucket": "Unsure", "distance": 34, "geocodes": {"main": {"latitude": 55.875559, "longitude": -4.319581}, "roof": {"latitude": 55.875559, "longitude": -4.319581}}, "link": "/v3/places/2dd17e751ad94b9584161442", "location": {"address": "231 Crow Rd", "admin_region": "Scotland", "country": "GB", "formatted_address": "231 Crow Rd, Glasgow, G11 7PZ", "locality": "Glasgow", "post_town": "Glasgow", "postcode": "G11 7PZ"}, "name": "Deli 1901", "related_places": {}, "timezone": "Europe/London"}, {"fsq_id": "4e95db3282310e913f62c63b", "categories": [{"id": 13051, "name": "Fish and Chips Shop", "short_name": "Fish and Chips Shop", "plural_name": "Fish and Chips Shops", "icon": {"prefix": "https://ss3.4sqi.net/img/categories_v2/food/fishandchips_", "suffix": ".png"}}], "chains": [], "closed_bucket": "VeryLikelyOpen", "distance": 230, "geocodes": {"main": {"latitude": 55.873691, "longitude": -4.320013}, "roof": {"latitude": 55.873691, "longitude": -4.320013}}, "link": "/v3/places/4e95db3282310e913f62c63b", "location": {"country": "GB", "cross_street": "", "formatted_address": ""}, "name": "Harry's Fish & Chips", "related_places": {}, "timezone": "Europe/London"}, {"fsq_id": "fd6a516f755246ba45422891", "categories": [{"id": 13065, "name": "Restaurant", "short_name": "Restaurant", "plural_name": "Restaurants", "icon": {"prefix": "https://ss3.4sqi.net/img/categories_v2/food/default_", "suffix": ".png"}}], "chains": [], "closed_bucket": "VeryLikelyOpen", "distance": 258, "geocodes": {"main": {"latitude": 55.876204, "longitude": -4.32395}, "roof": {"latitude": 55.876204, "longitude": -4.32395}}, "link": "/v3/places/fd6a516f755246ba45422891", "location": {"address": "6-8 Norby Rd", "admin_region": "Scotland", "country": "GB", "formatted_address": "6-8 Norby Rd, Glasgow, Glasgow City, G11 7BN", "locality": "Glasgow", "post_town": "Glasgow", "postcode": "G11 7BN", "region": "Glasgow City"}, "name": "Sapore Di Italia Glasgow", "related_places": {}, "timezone": "Europe/London"}, {"fsq_id": "5a62109fda5ede79a333129f", "categories": [{"id": 13148, "name": "French Restaurant", "short_name": "French", "plural_name": "French Restaurants", "icon": {"prefix": "https://ss3.4sqi.net/img/categories_v2/food/french_", "suffix": ".png"}}, {"id": 13139, "name": "Eastern European Restaurant", "short_name": "Eastern European", "plural_name": "Eastern European Restaurants", "icon": {"prefix": "https://ss3.4sqi.net/img/categories_v2/food/default_", "suffix": ".png"}}], "chains": [], "closed_bucket": "VeryLikelyOpen", "distance": 263, "geocodes": {"main": {"latitude": 55.876204, "longitude": -4.32395}, "roof": {"latitude": 55.876204, "longitude": -4.32395}}, "link": "/v3/places/5a62109fda5ede79a333129f", "location": {"address": "6-8 Norby Rd", "admin_region": "Scotland", "country": "GB", "cross_street": "", "formatted_address": "6-8 Norby Rd, Glasgow, G11 7BN", "locality": "Glasgow", "post_town": "Glasgow", "postcode": "G11 7BN"}, "name": "The Square Bar & Restaurant", "related_places": {}, "timezone": "Europe/London"}, {"fsq_id": "54f63007498e13fd557255f3", "categories": [{"id": 13303, "name": "Mexican Restaurant", "short_name": "Mexican", "plural_name": "Mexican Restaurants", "icon": {"prefix": "https://ss3.4sqi.net/img/categories_v2/food/mexican_", "suffix": ".png"}}], "chains": [], "closed_bucket": "VeryLikelyOpen", "distance": 265, "geocodes": {"main": {"latitude": 55.873969, "longitude": -4.317006}, "roof": {"latitude": 55.873969, "longitude": -4.317006}}, "link": "/v3/places/54f63007498e13fd557255f3", "location": {"address": "184 Dumbarton Rd", "admin_region": "Scotland", "country": "GB", "cross_street": "Dowanhill Street", "formatted_address": "184 Dumbarton Rd (Dowanhill Street), Glasgow, Glasgow City, G11 6UN", "locality": "Glasgow", "post_town": "Glasgow", "postcode": "G11 6UN", "region": "Glasgow City"}, "name": "Salsa Restaurante Mexicano", "related_places": {}, "timezone": "Europe/London"}, {"fsq_id": "5595cbf15d01449367b1659e", "categories": [{"id": 13065, "name": "Restaurant", "short_name": "Restaurant", "plural_name": "Restaurants", "icon": {"prefix": "https://ss3.4sqi.net/img/categories_v2/food/default_", "suffix": ".png"}}], "chains": [], "closed_bucket": "LikelyOpen", "distance": 281, "geocodes": {"main": {"latitude": 55.876144, "longitude": -4.324088}, "roof": {"latitude": 55.876144, "longitude": -4.324088}}, "link": "/v3/places/5595cbf15d01449367b1659e", "location": {"address": "6 - 8 Norby Rd", "admin_region": "Scotland", "country": "GB", "formatted_address": "6 - 8 Norby Rd, Glasgow, Glasgow City, G11 7BN", "locality": "Glasgow", "post_town": "Glasgow", "postcode": "G11 7BN", "region": "Glasgow City"}, "name": "Burger Stakk", "related_places": {}, "timezone": "Europe/London"}, {"fsq_id": "4d6af34cc147721e68363cf5", "categories": [{"id": 13018, "name": "Pub", "short_name": "Pub", "plural_name": "Pubs", "icon": {"prefix": "https://ss3.4sqi.net/img/categories_v2/nightlife/pub_", "suffix": ".png"}}], "chains": [], "closed_bucket": "VeryLikelyOpen", "distance": 481, "geocodes": {"main": {"latitude": 55.871088, "longitude": -4.321298}, "roof": {"latitude": 55.871088, "longitude": -4.321298}}, "link": "/v3/places/4d6af34cc147721e68363cf5", "location": {"address": "724 Dumbarton Rd", "admin_region": "Scotland", "country": "GB", "cross_street": "Thornwood Drive", "formatted_address": "724 Dumbarton Rd (Thornwood Drive), Glasgow, G11 6RB", "locality": "Glasgow", "post_town": "Glasgow", "postcode": "G11 6RB"}, "name": "Thornwood", "related_places": {}, "timezone": "Europe/London"}, {"fsq_id": "4f303304e4b07ca31819aac3", "categories": [{"id": 13051, "name": "Fish and Chips Shop", "short_name": "Fish and Chips Shop", "plural_name": "Fish and Chips Shops", "icon": {"prefix": "https://ss3.4sqi.net/img/categories_v2/food/fishandchips_", "suffix": ".png"}}], "chains": [], "closed_bucket": "VeryLikelyOpen", "distance": 544, "geocodes": {"main": {"latitude": 55.877097, "longitude": -4.311144}, "roof": {"latitude": 55.877097, "longitude": -4.311144}}, "link": "/v3/places/4f303304e4b07ca31819aac3", "location": {"country": "GB", "cross_street": "", "formatted_address": ""}, "name": "paolo's Fish Bar", "related_places": {}, "timezone": "Europe/London"}, {"fsq_id": "4fcd0dcde4b03a5761a21a0a", "categories": [{"id": 13051, "name": "Fish and Chips Shop", "short_name": "Fish and Chips Shop", "plural_name": "Fish and Chips Shops", "icon": {"prefix": "https://ss3.4sqi.net/img/categories_v2/food/fishandchips_", "suffix": ".png"}}, {"id": 13145, "name": "Fast Food Restaurant", "short_name": "Fast Food", "plural_name": "Fast Food Restaurants", "icon": {"prefix": "https://ss3.4sqi.net/img/categories_v2/food/fastfood_", "suffix": ".png"}}, {"id": 13199, "name": "Indian Restaurant", "short_name": "Indian", "plural_name": "Indian Restaurants", "icon": {"prefix": "https://ss3.4sqi.net/img/categories_v2/food/indian_", "suffix": ".png"}}], "chains": [], "closed_bucket": "LikelyOpen", "distance": 560, "geocodes": {"main": {"latitude": 55.871003, "longitude": -4.320945}, "roof": {"latitude": 55.871003, "longitude": -4.320945}}, "link": "/v3/places/4fcd0dcde4b03a5761a21a0a", "location": {"address": "692 Dumbarton Rd", "admin_region": "Scotland", "country": "GB", "cross_street": "", "formatted_address": "692 Dumbarton Rd, Glasgow, G11 6RB", "locality": "Glasgow", "post_town": "Glasgow", "postcode": "G11 6RB"}, "name": "Ceqwa", "related_places": {}, "timezone": "Europe/London"}, {"fsq_id": "4fc7b1c1e4b0a81931b9eb89", "categories": [{"id": 13099, "name": "Chinese Restaurant", "short_name": "Chinese", "plural_name": "Chinese Restaurants", "icon": {"prefix": "https://ss3.4sqi.net/img/categories_v2/food/asian_", "suffix": ".png"}}], "chains": [], "closed_bucket": "VeryLikelyOpen", "distance": 582, "geocodes": {"main": {"latitude": 55.871001, "longitude": -4.316387}, "roof": {"latitude": 55.871001, "longitude": -4.316387}}, "link": "/v3/places/4fc7b1c1e4b0a81931b9eb89", "location": {"address": "4 Exeter Dr", "admin_region": "Scotland", "country": "GB", "cross_street": "", "formatted_address": "4 Exeter Dr, Glasgow, G11 7UX", "locality": "Glasgow", "post_town": "Glasgow", "postcode": "G11 7UX"}, "name": "Ruby Chinese Takeaway", "related_places": {}, "timezone": "Europe/London"}, {"fsq_id": "4c0d44d5c700c9b60b27a2dd", "categories": [{"id": 13099, "name": "Chinese Restaurant", "short_name": "Chinese", "plural_name": "Chinese Restaurants", "icon": {"prefix": "https://ss3.4sqi.net/img/categories_v2/food/asian_", "suffix": ".png"}}], "chains": [], "closed_bucket": "VeryLikelyOpen", "distance": 589, "geocodes": {"main": {"latitude": 55.870838, "longitude": -4.317398}, "roof": {"latitude": 55.870838, "longitude": -4.317398}}, "link": "/v3/places/4c0d44d5c700c9b60b27a2dd", "location": {"country": "GB", "cross_street": "", "formatted_address": ""}, "name": "The Regent", "related_places": {}, "timezone": "Europe/London"}, {"fsq_id": "61ca1bfa080fc2113fb98fba", "categories": [{"id": 13003, "name": "Bar", "short_name": "Bar", "plural_name": "Bars", "icon": {"prefix": "https://ss3.4sqi.net/img/categories_v2/nightlife/pub_", "suffix": ".png"}}, {"id": 13299, "name": "Malay Restaurant", "short_name": "Malay", "plural_name": "Malay Restaurants", "icon": {"prefix": "https://ss3.4sqi.net/img/categories_v2/food/malaysian_", "suffix": ".png"}}], "chains": [], "closed_bucket": "LikelyOpen", "distance": 616, "geocodes": {"drop_off": {"latitude": 55.87071, "longitude": -4.315574}, "main": {"latitude": 55.870837, "longitude": -4.315575}, "roof": {"latitude": 55.870837, "longitude": -4.315575}}, "link": "/v3/places/61ca1bfa080fc2113fb98fba", "location": {"address": "566-568 Dumbarton Rd", "admin_region": "Scotland", "country": "GB", "cross_street": "", "formatted_address": "566-568 Dumbarton Rd, Glasgow, Glasgow City, G11 6RH", "locality": "Glasgow", "post_town": "Glasgow", "postcode": "G11 6RH", "region": "Glasgow City"}, "name": "Ga Ga Kitchen & Bar", "related_places": {}, "timezone": "Europe/London"}, {"fsq_id": "5b575074c0af57002c9c737c", "categories": [{"id": 13072, "name": "Asian Restaurant", "short_name": "Asian", "plural_name": "Asian Restaurants", "icon": {"prefix": "https://ss3.4sqi.net/img/categories_v2/food/asian_", "suffix": ".png"}}], "chains": [], "closed_bucket": "LikelyOpen", "distance": 619, "geocodes": {"drop_off": {"latitude": 55.870712, "longitude": -4.315398}, "main": {"latitude": 55.870795, "longitude": -4.315399}, "roof": {"latitude": 55.870795, "longitude": -4.315399}}, "link": "/v3/places/5b575074c0af57002c9c737c", "location": {"address": "562 Dumbarton Rd", "admin_region": "Scotland", "country": "GB", "cross_street": "", "formatted_address": "562 Dumbarton Rd, Glasgow, Glasgow City, G11 6RH", "locality": "Glasgow", "post_town": "Glasgow", "postcode": "G11 6RH", "region": "Glasgow City"}, "name": "Honu", "related_places": {}, "timezone": "Europe/London"}, {"fsq_id": "572ce8ef498ee9624b42882e", "categories": [{"id": 13099, "name": "Chinese Restaurant", "short_name": "Chinese", "plural_name": "Chinese Restaurants", "icon": {"prefix": "https://ss3.4sqi.net/img/categories_v2/food/asian_", "suffix": ".png"}}], "chains": [], "closed_bucket": "VeryLikelyOpen", "distance": 619, "geocodes": {"main": {"latitude": 55.87094, "longitude": -4.314702}, "roof": {"latitude": 55.87094, "longitude": -4.314702}}, "link": "/v3/places/572ce8ef498ee9624b42882e", "location": {"country": "GB", "cross_street": "", "formatted_address": ""}, "name": "Shangri-La", "related_places": {}, "timezone": "Europe/London"}, {"fsq_id": "529dd1aa11d20cb767e437be", "categories": [{"id": 13145, "name": "Fast Food Restaurant", "short_name": "Fast Food", "plural_name": "Fast Food Restaurants", "icon": {"prefix": "https://ss3.4sqi.net/img/categories_v2/food/fastfood_", "suffix": ".png"}}, {"id": 13334, "name": "Sandwich Spot", "short_name": "Sandwich Spot", "plural_name": "Sandwich Spots", "icon": {"prefix": "https://ss3.4sqi.net/img/categories_v2/food/deli_", "suffix": ".png"}}], "chains": [], "closed_bucket": "LikelyOpen", "distance": 621, "geocodes": {"main": {"latitude": 55.871812, "longitude": -4.327036}, "roof": {"latitude": 55.871812, "longitude": -4.327036}}, "link": "/v3/places/529dd1aa11d20cb767e437be", "location": {"address": "781-783 Dumbarton Rd", "admin_region": "Scotland", "country": "GB", "cross_street": "", "formatted_address": "781-783 Dumbarton Rd, Glasgow, G11 6NA", "locality": "Glasgow", "post_town": "Glasgow", "postcode": "G11 6NA"}, "name": "Panini Express", "related_places": {}, "timezone": "Europe/London"}, {"fsq_id": "60de067516c30b5af78d0fc3", "categories": [{"id": 13025, "name": "Wine Bar", "short_name": "Wine Bar", "plural_name": "Wine Bars", "icon": {"prefix": "https://ss3.4sqi.net/img/categories_v2/food/winery_", "suffix": ".png"}}, {"id": 17057, "name": "Food and Beverage Retail", "short_name": "Food & Beverage", "plural_name": "Food and Beverage Retail", "icon": {"prefix": "https://ss3.4sqi.net/img/categories_v2/shops/foodanddrink_", "suffix": ".png"}}], "chains": [], "closed_bucket": "VeryLikelyOpen", "distance": 626, "geocodes": {"drop_off": {"latitude": 55.870712, "longitude": -4.315398}, "main": {"latitude": 55.870795, "longitude": -4.315399}, "roof": {"latitude": 55.870795, "longitude": -4.315399}}, "link": "/v3/places/60de067516c30b5af78d0fc3", "location": {"admin_region": "Scotland", "country": "GB", "cross_street": "", "formatted_address": "Glasgow, Glasgow City, G11 6RH", "locality": "Glasgow", "post_town": "Glasgow", "postcode": "G11 6RH", "region": "Glasgow City"}, "name": "Fl\u00f9r", "related_places": {}, "timezone": "Europe/London"}, {"fsq_id": "88c9be1f92544fa60b77c200", "categories": [{"id": 13199, "name": "Indian Restaurant", "short_name": "Indian", "plural_name": "Indian Restaurants", "icon": {"prefix": "https://ss3.4sqi.net/img/categories_v2/food/indian_", "suffix": ".png"}}, {"id": 13265, "name": "Japanese Curry Restaurant", "short_name": "Japanese Curry", "plural_name": "Japanese Curry Restaurants", "icon": {"prefix": "https://ss3.4sqi.net/img/categories_v2/food/default_", "suffix": ".png"}}], "chains": [], "closed_bucket": "LikelyOpen", "distance": 626, "geocodes": {"drop_off": {"latitude": 55.871598, "longitude": -4.313029}, "main": {"latitude": 55.871498, "longitude": -4.313247}, "roof": {"latitude": 55.871498, "longitude": -4.313247}}, "link": "/v3/places/88c9be1f92544fa60b77c200", "location": {"address": "23 Crow Rd", "admin_region": "Scotland", "country": "GB", "formatted_address": "23 Crow Rd, Glasgow, G11 7RT", "locality": "Glasgow", "post_town": "Glasgow", "postcode": "G11 7RT"}, "name": "Harlequin Restaurants", "related_places": {}, "timezone": "Europe/London"}, {"fsq_id": "4d1a69cbc5f5b1f7a197d336", "categories": [{"id": 13099, "name": "Chinese Restaurant", "short_name": "Chinese", "plural_name": "Chinese Restaurants", "icon": {"prefix": "https://ss3.4sqi.net/img/categories_v2/food/asian_", "suffix": ".png"}}], "chains": [], "closed_bucket": "VeryLikelyOpen", "distance": 637, "geocodes": {"main": {"latitude": 55.870916, "longitude": -4.315122}, "roof": {"latitude": 55.870916, "longitude": -4.315122}}, "link": "/v3/places/4d1a69cbc5f5b1f7a197d336", "location": {"address": "1B Apsley St", "admin_region": "Scotland", "country": "GB", "cross_street": "", "formatted_address": "1B Apsley St, Glasgow, Glasgow City, G11 7SZ", "locality": "Glasgow", "post_town": "Glasgow", "postcode": "G11 7SZ", "region": "Glasgow City"}, "name": "China Red", "related_places": {}, "timezone": "Europe/London"}, {"fsq_id": "b97fc338db784f3afed623f4", "categories": [{"id": 13035, "name": "Coffee Shop", "short_name": "Coffee Shop", "plural_name": "Coffee Shops", "icon": {"prefix": "https://ss3.4sqi.net/img/categories_v2/food/coffeeshop_", "suffix": ".png"}}, {"id": 13065, "name": "Restaurant", "short_name": "Restaurant", "plural_name": "Restaurants", "icon": {"prefix": "https://ss3.4sqi.net/img/categories_v2/food/default_", "suffix": ".png"}}], "chains": [], "closed_bucket": "Unsure", "distance": 640, "geocodes": {"main": {"latitude": 55.870576, "longitude": -4.315532}, "roof": {"latitude": 55.870576, "longitude": -4.315532}}, "link": "/v3/places/b97fc338db784f3afed623f4", "location": {"address": "561 Dumbarton Rd, Partick", "country": "GB", "formatted_address": "561 Dumbarton Rd, Partick, Glasgow, Glasgow City", "locality": "Glasgow", "post_town": "Glasgow", "region": "Glasgow City"}, "name": "Dr Jimmy's", "related_places": {}, "timezone": "Europe/London"}, {"fsq_id": "4c13c0f6b7b9c9289414aa37", "categories": [{"id": 11053, "name": "Financial Planner", "short_name": "Financial Planner", "plural_name": "Financial Planners", "icon": {"prefix": "https://ss3.4sqi.net/img/categories_v2/building/default_", "suffix": ".png"}}, {"id": 13099, "name": "Chinese Restaurant", "short_name": "Chinese", "plural_name": "Chinese Restaurants", "icon": {"prefix": "https://ss3.4sqi.net/img/categories_v2/food/asian_", "suffix": ".png"}}, {"id": 13145, "name": "Fast Food Restaurant", "short_name": "Fast Food", "plural_name": "Fast Food Restaurants", "icon": {"prefix": "https://ss3.4sqi.net/img/categories_v2/food/fastfood_", "suffix": ".png"}}], "chains": [], "closed_bucket": "Unsure", "distance": 655, "geocodes": {"main": {"latitude": 55.880919, "longitude": -4.325327}, "roof": {"latitude": 55.880919, "longitude": -4.325327}}, "link": "/v3/places/4c13c0f6b7b9c9289414aa37", "location": {"address": "Crow Rd", "admin_region": "Scotland", "country": "GB", "cross_street": "", "formatted_address": "Crow Rd, Glasgow, Glasgow City", "locality": "Glasgow", "post_town": "Glasgow", "region": "Glasgow City"}, "name": "Blue Sky", "related_places": {}, "timezone": "Europe/London"}, {"fsq_id": "63f8a4cb4aa3dd22e714bf8a", "categories": [{"id": 13031, "name": "Burger Joint", "short_name": "Burgers", "plural_name": "Burger Joints", "icon": {"prefix": "https://ss3.4sqi.net/img/categories_v2/food/burger_", "suffix": ".png"}}, {"id": 13145, "name": "Fast Food Restaurant", "short_name": "Fast Food", "plural_name": "Fast Food Restaurants", "icon": {"prefix": "https://ss3.4sqi.net/img/categories_v2/food/fastfood_", "suffix": ".png"}}], "chains": [{"id": "ab4a9b10-d68a-012e-5619-003048cad9da", "name": "Burger King"}], "closed_bucket": "VeryLikelyOpen", "distance": 656, "geocodes": {"drop_off": {"latitude": 55.87053, "longitude": -4.321701}, "main": {"latitude": 55.870215, "longitude": -4.321831}, "roof": {"latitude": 55.870215, "longitude": -4.321831}}, "link": "/v3/places/63f8a4cb4aa3dd22e714bf8a", "location": {"address": "Clydeside Expressway", "country": "GB", "cross_street": "", "formatted_address": "Clydeside Expressway, Glasgow, Glasgow City", "locality": "Glasgow", "post_town": "Glasgow", "region": "Glasgow City"}, "name": "Burger King", "related_places": {}, "timezone": "Europe/London"}, {"fsq_id": "5adf40c64acb196e9768faf4", "categories": [{"id": 13035, "name": "Coffee Shop", "short_name": "Coffee Shop", "plural_name": "Coffee Shops", "icon": {"prefix": "https://ss3.4sqi.net/img/categories_v2/food/coffeeshop_", "suffix": ".png"}}, {"id": 13065, "name": "Restaurant", "short_name": "Restaurant", "plural_name": "Restaurants", "icon": {"prefix": "https://ss3.4sqi.net/img/categories_v2/food/default_", "suffix": ".png"}}], "chains": [], "closed_bucket": "VeryLikelyOpen", "distance": 658, "geocodes": {"drop_off": {"latitude": 55.870719, "longitude": -4.314662}, "main": {"latitude": 55.870837, "longitude": -4.314664}, "roof": {"latitude": 55.870837, "longitude": -4.314664}}, "link": "/v3/places/5adf40c64acb196e9768faf4", "location": {"address": "540 Dumbarton Rd", "admin_region": "Scotland", "country": "GB", "cross_street": "", "formatted_address": "540 Dumbarton Rd, Glasgow, Glasgow City", "locality": "Glasgow", "post_town": "Glasgow", "region": "Glasgow City"}, "name": "Space Speciality Coffee House", "related_places": {}, "timezone": "Europe/London"}, {"fsq_id": "4e65ddcc1f6ef7d07c25997a", "categories": [{"id": 13034, "name": "Caf\u00e9", "short_name": "Caf\u00e9", "plural_name": "Caf\u00e9s", "icon": {"prefix": "https://ss3.4sqi.net/img/categories_v2/food/cafe_", "suffix": ".png"}}, {"id": 13065, "name": "Restaurant", "short_name": "Restaurant", "plural_name": "Restaurants", "icon": {"prefix": "https://ss3.4sqi.net/img/categories_v2/food/default_", "suffix": ".png"}}], "chains": [], "closed_bucket": "VeryLikelyOpen", "distance": 683, "geocodes": {"drop_off": {"latitude": 55.872348, "longitude": -4.32868}, "main": {"latitude": 55.872244, "longitude": -4.328698}, "roof": {"latitude": 55.872244, "longitude": -4.328698}}, "link": "/v3/places/4e65ddcc1f6ef7d07c25997a", "location": {"address": "935 Dumbarton Rd", "admin_region": "Scotland", "country": "GB", "cross_street": "", "formatted_address": "935 Dumbarton Rd, Glasgow, Glasgow City", "locality": "Glasgow", "post_town": "Glasgow", "region": "Glasgow City"}, "name": "How We Roll", "related_places": {}, "timezone": "Europe/London"}, {"fsq_id": "cb4fbcd0c84248b3a38056c7", "categories": [{"id": 13002, "name": "Bakery", "short_name": "Bakery", "plural_name": "Bakeries", "icon": {"prefix": "https://ss3.4sqi.net/img/categories_v2/food/bakery_", "suffix": ".png"}}, {"id": 13035, "name": "Coffee Shop", "short_name": "Coffee Shop", "plural_name": "Coffee Shops", "icon": {"prefix": "https://ss3.4sqi.net/img/categories_v2/food/coffeeshop_", "suffix": ".png"}}, {"id": 13065, "name": "Restaurant", "short_name": "Restaurant", "plural_name": "Restaurants", "icon": {"prefix": "https://ss3.4sqi.net/img/categories_v2/food/default_", "suffix": ".png"}}], "chains": [], "closed_bucket": "Unsure", "distance": 685, "geocodes": {"drop_off": {"latitude": 55.87766, "longitude": -4.308856}, "main": {"latitude": 55.877605, "longitude": -4.308706}, "roof": {"latitude": 55.877605, "longitude": -4.308706}}, "link": "/v3/places/cb4fbcd0c84248b3a38056c7", "location": {"address": "79 Lauderdale Gardens", "admin_region": "Scotland", "country": "GB", "formatted_address": "79 Lauderdale Gardens, Glasgow, Glasgow City", "locality": "Glasgow", "post_town": "Glasgow", "region": "Glasgow City"}, "name": "The Bakery by Zique", "related_places": {}, "timezone": "Europe/London"}, {"fsq_id": "57cb0ed5498ec51d0b10af25", "categories": [{"id": 13072, "name": "Asian Restaurant", "short_name": "Asian", "plural_name": "Asian Restaurants", "icon": {"prefix": "https://ss3.4sqi.net/img/categories_v2/food/asian_", "suffix": ".png"}}], "chains": [], "closed_bucket": "Unsure", "distance": 692, "geocodes": {"main": {"latitude": 55.871115, "longitude": -4.312569}, "roof": {"latitude": 55.871115, "longitude": -4.312569}}, "link": "/v3/places/57cb0ed5498ec51d0b10af25", "location": {"address": "16 Crow Rd", "admin_region": "Scotland", "country": "GB", "cross_street": "", "formatted_address": "16 Crow Rd, Glasgow, Glasgow City, G11 7RT", "locality": "Glasgow", "post_town": "Glasgow", "postcode": "G11 7RT", "region": "Glasgow City"}, "name": "The Best Curry", "related_places": {}, "timezone": "Europe/London"}, {"fsq_id": "52645b6411d2a03227a9752a", "categories": [{"id": 13199, "name": "Indian Restaurant", "short_name": "Indian", "plural_name": "Indian Restaurants", "icon": {"prefix": "https://ss3.4sqi.net/img/categories_v2/food/indian_", "suffix": ".png"}}], "chains": [], "closed_bucket": "LikelyOpen", "distance": 705, "geocodes": {"main": {"latitude": 55.870623, "longitude": -4.311957}, "roof": {"latitude": 55.870623, "longitude": -4.311957}}, "link": "/v3/places/52645b6411d2a03227a9752a", "location": {"address": "477 Dumbarton Rd", "admin_region": "Scotland", "country": "GB", "cross_street": "", "formatted_address": "477 Dumbarton Rd, Glasgow, G11 6EJ", "locality": "Glasgow", "post_town": "Glasgow", "postcode": "G11 6EJ"}, "name": "Bollywood Spice", "related_places": {}, "timezone": "Europe/London"}, {"fsq_id": "5813a56a38fac24bb098d729", "categories": [{"id": 13051, "name": "Fish and Chips Shop", "short_name": "Fish and Chips Shop", "plural_name": "Fish and Chips Shops", "icon": {"prefix": "https://ss3.4sqi.net/img/categories_v2/food/fishandchips_", "suffix": ".png"}}], "chains": [], "closed_bucket": "VeryLikelyOpen", "distance": 707, "geocodes": {"drop_off": {"latitude": 55.877216, "longitude": -4.308498}, "main": {"latitude": 55.877089, "longitude": -4.308514}, "roof": {"latitude": 55.877089, "longitude": -4.308514}}, "link": "/v3/places/5813a56a38fac24bb098d729", "location": {"address": "31 Clarence Dr", "admin_region": "Scotland", "country": "GB", "cross_street": "", "formatted_address": "31 Clarence Dr, Glasgow, Glasgow City, G12 9QN", "locality": "Glasgow", "post_town": "Glasgow", "postcode": "G12 9QN", "region": "Glasgow City"}, "name": "Paulo's", "related_places": {}, "timezone": "Europe/London"}, {"fsq_id": "4e65fbc6c65b2dc8a11b6a2b", "categories": [{"id": 13031, "name": "Burger Joint", "short_name": "Burgers", "plural_name": "Burger Joints", "icon": {"prefix": "https://ss3.4sqi.net/img/categories_v2/food/burger_", "suffix": ".png"}}, {"id": 13145, "name": "Fast Food Restaurant", "short_name": "Fast Food", "plural_name": "Fast Food Restaurants", "icon": {"prefix": "https://ss3.4sqi.net/img/categories_v2/food/fastfood_", "suffix": ".png"}}, {"id": 13236, "name": "Italian Restaurant", "short_name": "Italian", "plural_name": "Italian Restaurants", "icon": {"prefix": "https://ss3.4sqi.net/img/categories_v2/food/italian_", "suffix": ".png"}}], "chains": [], "closed_bucket": "LikelyOpen", "distance": 713, "geocodes": {"main": {"latitude": 55.877126, "longitude": -4.308796}, "roof": {"latitude": 55.877126, "longitude": -4.308796}}, "link": "/v3/places/4e65fbc6c65b2dc8a11b6a2b", "location": {"address": "35 Clarence Driver", "admin_region": "Scotland", "country": "GB", "cross_street": "", "formatted_address": "35 Clarence Driver, Glasgow, Glasgow City", "locality": "Glasgow", "post_town": "Glasgow", "region": "Glasgow City"}, "name": "Casablanca", "related_places": {}, "timezone": "Europe/London"}, {"fsq_id": "b7101df2dec34a82c7aea965", "categories": [{"id": 13035, "name": "Coffee Shop", "short_name": "Coffee Shop", "plural_name": "Coffee Shops", "icon": {"prefix": "https://ss3.4sqi.net/img/categories_v2/food/coffeeshop_", "suffix": ".png"}}, {"id": 13039, "name": "Deli", "short_name": "Deli", "plural_name": "Delis", "icon": {"prefix": "https://ss3.4sqi.net/img/categories_v2/food/deli_", "suffix": ".png"}}], "chains": [], "closed_bucket": "LikelyOpen", "distance": 714, "geocodes": {"drop_off": {"latitude": 55.877194, "longitude": -4.308319}, "main": {"latitude": 55.877047, "longitude": -4.308338}, "roof": {"latitude": 55.877047, "longitude": -4.308338}}, "link": "/v3/places/b7101df2dec34a82c7aea965", "location": {"address": "23 Clarence Dr", "admin_region": "Scotland", "country": "GB", "formatted_address": "23 Clarence Dr, Glasgow, Glasgow City, G12 9QN", "locality": "Glasgow", "post_town": "Glasgow", "postcode": "G12 9QN", "region": "Glasgow City"}, "name": "Roscoe's Deli Bar Hyndland", "related_places": {}, "timezone": "Europe/London"}, {"fsq_id": "4d974bab2bd6f04d7eb04b50", "categories": [{"id": 13051, "name": "Fish and Chips Shop", "short_name": "Fish and Chips Shop", "plural_name": "Fish and Chips Shops", "icon": {"prefix": "https://ss3.4sqi.net/img/categories_v2/food/fishandchips_", "suffix": ".png"}}], "chains": [], "closed_bucket": "VeryLikelyOpen", "distance": 717, "geocodes": {"main": {"latitude": 55.877047, "longitude": -4.308338}, "roof": {"latitude": 55.877047, "longitude": -4.308338}}, "link": "/v3/places/4d974bab2bd6f04d7eb04b50", "location": {"address": "31 Clarence Dr", "admin_region": "Scotland", "country": "GB", "cross_street": "", "formatted_address": "31 Clarence Dr, Glasgow, G12 9QN", "locality": "Glasgow", "post_town": "Glasgow", "postcode": "G12 9QN"}, "name": "Paolos", "related_places": {}, "timezone": "Europe/London"}, {"fsq_id": "4dc6f85b52b1e8f9f7fa4354", "categories": [{"id": 13018, "name": "Pub", "short_name": "Pub", "plural_name": "Pubs", "icon": {"prefix": "https://ss3.4sqi.net/img/categories_v2/nightlife/pub_", "suffix": ".png"}}], "chains": [], "closed_bucket": "VeryLikelyOpen", "distance": 733, "geocodes": {"main": {"latitude": 55.870611, "longitude": -4.312167}, "roof": {"latitude": 55.870611, "longitude": -4.312167}}, "link": "/v3/places/4dc6f85b52b1e8f9f7fa4354", "location": {"address": "483 Dumbarton Rd", "admin_region": "Scotland", "country": "GB", "cross_street": "", "formatted_address": "483 Dumbarton Rd, Glasgow, Glasgow City, G11 6EJ", "locality": "Glasgow", "post_town": "Glasgow", "postcode": "G11 6EJ", "region": "Glasgow City"}, "name": "The Rosevale Tavern", "related_places": {}, "timezone": "Europe/London"}, {"fsq_id": "53075776498e758f8d7d5687", "categories": [{"id": 13039, "name": "Deli", "short_name": "Deli", "plural_name": "Delis", "icon": {"prefix": "https://ss3.4sqi.net/img/categories_v2/food/deli_", "suffix": ".png"}}], "chains": [], "closed_bucket": "VeryLikelyOpen", "distance": 733, "geocodes": {"main": {"latitude": 55.877016, "longitude": -4.307951}, "roof": {"latitude": 55.877016, "longitude": -4.307951}}, "link": "/v3/places/53075776498e758f8d7d5687", "location": {"country": "GB", "cross_street": "", "formatted_address": ""}, "name": "Roscoe's", "related_places": {}, "timezone": "Europe/London"}, {"fsq_id": "5bb89aaacd441c002cd35e60", "categories": [{"id": 13034, "name": "Caf\u00e9", "short_name": "Caf\u00e9", "plural_name": "Caf\u00e9s", "icon": {"prefix": "https://ss3.4sqi.net/img/categories_v2/food/cafe_", "suffix": ".png"}}, {"id": 13035, "name": "Coffee Shop", "short_name": "Coffee Shop", "plural_name": "Coffee Shops", "icon": {"prefix": "https://ss3.4sqi.net/img/categories_v2/food/coffeeshop_", "suffix": ".png"}}, {"id": 13236, "name": "Italian Restaurant", "short_name": "Italian", "plural_name": "Italian Restaurants", "icon": {"prefix": "https://ss3.4sqi.net/img/categories_v2/food/italian_", "suffix": ".png"}}], "chains": [], "closed_bucket": "LikelyOpen", "distance": 750, "geocodes": {"main": {"latitude": 55.881411, "longitude": -4.325939}, "roof": {"latitude": 55.881411, "longitude": -4.325939}}, "link": "/v3/places/5bb89aaacd441c002cd35e60", "location": {"address": "470 Crow Rd", "admin_region": "Scotland", "country": "GB", "cross_street": "", "formatted_address": "470 Crow Rd, Glasgow, Glasgow City, G11 7DR", "locality": "Glasgow", "post_town": "Glasgow", "postcode": "G11 7DR", "region": "Glasgow City"}, "name": "Caffe Pieno", "related_places": {}, "timezone": "Europe/London"}, {"fsq_id": "5deaade92361ea00081b554d", "categories": [{"id": 13377, "name": "Vegan and Vegetarian Restaurant", "short_name": "Vegan and Vegetarian Restaurant", "plural_name": "Vegan and Vegetarian Restaurants", "icon": {"prefix": "https://ss3.4sqi.net/img/categories_v2/food/vegetarian_", "suffix": ".png"}}], "chains": [], "closed_bucket": "VeryLikelyOpen", "distance": 758, "geocodes": {"drop_off": {"latitude": 55.870754, "longitude": -4.311508}, "main": {"latitude": 55.87086, "longitude": -4.311509}, "roof": {"latitude": 55.87086, "longitude": -4.311509}}, "link": "/v3/places/5deaade92361ea00081b554d", "location": {"address": "494 Dumbarton Rd", "admin_region": "Scotland", "country": "GB", "cross_street": "", "formatted_address": "494 Dumbarton Rd, Glasgow, Glasgow City, G11 6SL", "locality": "Glasgow", "post_town": "Glasgow", "postcode": "G11 6SL", "region": "Glasgow City"}, "name": "Suissi Vegan Kitchen", "related_places": {}, "timezone": "Europe/London"}, {"fsq_id": "4be1afa3edbb0f47e852a615", "categories": [{"id": 13018, "name": "Pub", "short_name": "Pub", "plural_name": "Pubs", "icon": {"prefix": "https://ss3.4sqi.net/img/categories_v2/nightlife/pub_", "suffix": ".png"}}], "chains": [], "closed_bucket": "LikelyOpen", "distance": 877, "geocodes": {"main": {"latitude": 55.870962, "longitude": -4.309724}, "roof": {"latitude": 55.870962, "longitude": -4.309724}}, "link": "/v3/places/4be1afa3edbb0f47e852a615", "location": {"address": "7 Peel St", "admin_region": "Scotland", "country": "GB", "formatted_address": "7 Peel St, Glasgow, G11 5LL", "locality": "Glasgow", "post_town": "Glasgow", "postcode": "G11 5LL"}, "name": "Stumps Bar", "related_places": {}, "timezone": "Europe/London"}, {"fsq_id": "606873ebf9f8281db6d0d7fb", "categories": [{"id": 13032, "name": "Cafe, Coffee, and Tea House", "short_name": "Cafe, Coffee, and Tea House", "plural_name": "Cafes, Coffee, and Tea Houses", "icon": {"prefix": "https://ss3.4sqi.net/img/categories_v2/food/coffeeshop_", "suffix": ".png"}}, {"id": 13379, "name": "Vietnamese Restaurant", "short_name": "Vietnamese", "plural_name": "Vietnamese Restaurants", "icon": {"prefix": "https://ss3.4sqi.net/img/categories_v2/food/vietnamese_", "suffix": ".png"}}], "chains": [], "closed_bucket": "LikelyOpen", "distance": 889, "geocodes": {"drop_off": {"latitude": 55.870789, "longitude": -4.308699}, "main": {"latitude": 55.870652, "longitude": -4.308698}, "roof": {"latitude": 55.870652, "longitude": -4.308698}}, "link": "/v3/places/606873ebf9f8281db6d0d7fb", "location": {"address": "401 Dumbarton Rd", "admin_region": "Scotland", "country": "GB", "cross_street": "", "formatted_address": "401 Dumbarton Rd, Glasgow, Glasgow City, G11 6BE", "locality": "Glasgow", "post_town": "Glasgow", "postcode": "G11 6BE", "region": "Glasgow City"}, "name": "Banh Mi & Tea", "related_places": {}, "timezone": "Europe/London"}, {"fsq_id": "4d3c215e05b8721e279c8937", "categories": [{"id": 13034, "name": "Caf\u00e9", "short_name": "Caf\u00e9", "plural_name": "Caf\u00e9s", "icon": {"prefix": "https://ss3.4sqi.net/img/categories_v2/food/cafe_", "suffix": ".png"}}, {"id": 13035, "name": "Coffee Shop", "short_name": "Coffee Shop", "plural_name": "Coffee Shops", "icon": {"prefix": "https://ss3.4sqi.net/img/categories_v2/food/coffeeshop_", "suffix": ".png"}}, {"id": 13051, "name": "Fish and Chips Shop", "short_name": "Fish and Chips Shop", "plural_name": "Fish and Chips Shops", "icon": {"prefix": "https://ss3.4sqi.net/img/categories_v2/food/fishandchips_", "suffix": ".png"}}], "chains": [], "closed_bucket": "LikelyOpen", "distance": 910, "geocodes": {"main": {"latitude": 55.870161, "longitude": -4.308998}, "roof": {"latitude": 55.870161, "longitude": -4.308998}}, "link": "/v3/places/4d3c215e05b8721e279c8937", "location": {"address": "24-26 Merkland St", "admin_region": "Scotland", "country": "GB", "cross_street": "", "formatted_address": "24-26 Merkland St, Glasgow, G11 6DB", "locality": "Glasgow", "post_town": "Glasgow", "postcode": "G11 6DB"}, "name": "Cafe Avanti", "related_places": {}, "timezone": "Europe/London"}, {"fsq_id": "4e21af0be4cdf685918790c8", "categories": [{"id": 10000, "name": "Arts and Entertainment", "short_name": "Arts & Entertainment", "plural_name": "Arts and Entertainment", "icon": {"prefix": "https://ss3.4sqi.net/img/categories_v2/arts_entertainment/default_", "suffix": ".png"}}, {"id": 13003, "name": "Bar", "short_name": "Bar", "plural_name": "Bars", "icon": {"prefix": "https://ss3.4sqi.net/img/categories_v2/nightlife/pub_", "suffix": ".png"}}], "chains": [], "closed_bucket": "VeryLikelyOpen", "distance": 917, "geocodes": {"main": {"latitude": 55.870537, "longitude": -4.309781}, "roof": {"latitude": 55.870537, "longitude": -4.309781}}, "link": "/v3/places/4e21af0be4cdf685918790c8", "location": {"address": "427-429 Dumbarton Rd", "admin_region": "Scotland", "country": "GB", "cross_street": "", "formatted_address": "427-429 Dumbarton Rd, Glasgow, Glasgow City, G11 6DD", "locality": "Glasgow", "post_town": "Glasgow", "postcode": "G11 6DD", "region": "Glasgow City"}, "name": "Hayburn Vaults", "related_places": {}, "timezone": "Europe/London"}, {"fsq_id": "4fa99500e4b0c8ba1f3ab10a", "categories": [{"id": 13032, "name": "Cafe, Coffee, and Tea House", "short_name": "Cafe, Coffee, and Tea House", "plural_name": "Cafes, Coffee, and Tea Houses", "icon": {"prefix": "https://ss3.4sqi.net/img/categories_v2/food/coffeeshop_", "suffix": ".png"}}, {"id": 13099, "name": "Chinese Restaurant", "short_name": "Chinese", "plural_name": "Chinese Restaurants", "icon": {"prefix": "https://ss3.4sqi.net/img/categories_v2/food/asian_", "suffix": ".png"}}, {"id": 13145, "name": "Fast Food Restaurant", "short_name": "Fast Food", "plural_name": "Fast Food Restaurants", "icon": {"prefix": "https://ss3.4sqi.net/img/categories_v2/food/fastfood_", "suffix": ".png"}}], "chains": [], "closed_bucket": "LikelyOpen", "distance": 947, "geocodes": {"main": {"latitude": 55.870161, "longitude": -4.308998}, "roof": {"latitude": 55.870161, "longitude": -4.308998}}, "link": "/v3/places/4fa99500e4b0c8ba1f3ab10a", "location": {"address": "34 Merkland St", "admin_region": "Scotland", "country": "GB", "cross_street": "", "formatted_address": "34 Merkland St, Glasgow, G11 6DB", "locality": "Glasgow", "post_town": "Glasgow", "postcode": "G11 6DB"}, "name": "Station Wok", "related_places": {}, "timezone": "Europe/London"}, {"fsq_id": "59356f80724750442f2c6442", "categories": [{"id": 13034, "name": "Caf\u00e9", "short_name": "Caf\u00e9", "plural_name": "Caf\u00e9s", "icon": {"prefix": "https://ss3.4sqi.net/img/categories_v2/food/cafe_", "suffix": ".png"}}, {"id": 13065, "name": "Restaurant", "short_name": "Restaurant", "plural_name": "Restaurants", "icon": {"prefix": "https://ss3.4sqi.net/img/categories_v2/food/default_", "suffix": ".png"}}], "chains": [], "closed_bucket": "VeryLikelyOpen", "distance": 958, "geocodes": {"drop_off": {"latitude": 55.870804, "longitude": -4.307157}, "main": {"latitude": 55.870688, "longitude": -4.307156}, "roof": {"latitude": 55.870688, "longitude": -4.307156}}, "link": "/v3/places/59356f80724750442f2c6442", "location": {"address": "351 Dumbarton Rd", "admin_region": "Scotland", "country": "GB", "cross_street": "", "formatted_address": "351 Dumbarton Rd, Glasgow, Glasgow City, G11 6AL", "locality": "Glasgow", "post_town": "Glasgow", "postcode": "G11 6AL", "region": "Glasgow City"}, "name": "Down to Earth Glasgow", "related_places": {}, "timezone": "Europe/London"}], "context": {"geo_bounds": {"circle": {"center": {"latitude": 55.875865, "longitude": -4.319601}, "radius": 1000}}}}