{"results": [{"fsq_id": "59db8f289b0473324995f784", "categories": [{"id": 13298, "name": "Lebanese Restaurant", "short_name": "Lebanese", "plural_name": "Lebanese Restaurants", "icon": {"prefix": "https://ss3.4sqi.net/img/categories_v2/food/middleeastern_", "suffix": ".png"}}], "chains": [], "closed_bucket": "VeryLikelyOpen", "distance": 187, "geocodes": {"main": {"latitude": 55.851521, "longitude": -4.298705}, "roof": {"latitude": 55.851521, "longitude": -4.298705}}, "link": "/v3/places/59db8f289b0473324995f784", "location": {"address": "450 Paisley Rd West", "admin_region": "Scotland", "country": "GB", "cross_street": "", "formatted_address": "450 Paisley Rd West, Glasgow, Glasgow City, G51 1PX", "locality": "Glasgow", "post_town": "Glasgow", "postcode": "G51 1PX", "region": "Glasgow City"}, "name": "Beirut Star", "related_places": {}, "timezone": "Europe/London"}, {"fsq_id": "4cea7de2948f224b84bffb5d", "categories": [{"id": 13145, "name": "Fast Food Restaurant", "short_name": "Fast Food", "plural_name": "Fast Food Restaurants", "icon": {"prefix": "https://ss3.4sqi.net/img/categories_v2/food/fastfood_", "suffix": ".png"}}, {"id": 13334, "name": "Sandwich Spot", "short_name": "Sandwich Spot", "plural_name": "Sandwich Spots", "icon": {"prefix": "https://ss3.4sqi.net/img/categories_v2/food/deli_", "suffix": ".png"}}], "chains": [], "closed_bucket": "LikelyOpen", "distance": 478, "geocodes": {"main": {"latitude": 55.851731, "longitude": -4.294121}, "roof": {"latitude": 55.851731, "longitude": -4.294121}}, "link": "/v3/places/4cea7de2948f224b84bffb5d", "location": {"address": "383 Paisley Rd West", "admin_region": "Scotland", "country": "GB", "cross_street": "", "formatted_address": "383 Paisley Rd West, Glasgow, Glasgow City, G51 1LR", "locality": "Glasgow", "post_town": "Glasgow", "postcode": "G51 1LR", "region": "Glasgow City"}, "name": "Bite Me Sandwich Bar", "related_places": {}, "timezone": "Europe/London"}, {"fsq_id": "4d876a90651041bddd329b30", "categories": [{"id": 13039, "name": "Deli", "short_name": "Deli", "plural_name": "Delis", "icon": {"prefix": "https://ss3.4sqi.net/img/categories_v2/food/deli_", "suffix": ".png"}}, {"id": 13145, "name": "Fast Food Restaurant", "short_name": "Fast Food", "plural_name": "Fast Food Restaurants", "icon": {"prefix": "https://ss3.4sqi.net/img/categories_v2/food/fastfood_", "suffix": ".png"}}, {"id": 13334, "name": "Sandwich Spot", "short_name": "Sandwich Spot", "plural_name": "Sandwich Spots", "icon": {"prefix": "https://ss3.4sqi.net/img/categories_v2/food/deli_", "suffix": ".png"}}], "chains": [{"id": "ab4bee40-d68a-012e-5619-003048cad9da", "name": "Subway"}], "closed_bucket": "VeryLikelyOpen", "distance": 140, "geocodes": {"main": {"latitude": 55.851375, "longitude": -4.299401}, "roof": {"latitude": 55.851375, "longitude": -4.299401}}, "link": "/v3/places/4d876a90651041bddd329b30", "location": {"address": "468/470 Paisley Rd West", "admin_region": "Scotland", "country": "GB", "formatted_address": "468/470 Paisley Rd West, Glasgow, G51 1PX", "locality": "Glasgow", "post_town": "Glasgow", "postcode": "G51 1PX"}, "name": "Subway", "related_places": {}, "timezone": "Europe/London"}, {"fsq_id": "4f6f44c2e4b08a0bbbd5164a", "categories": [{"id": 10000, "name": "Arts and Entertainment", "short_name": "Arts & Entertainment", "plural_name": "Arts and Entertainment", "icon": {"prefix": "https://ss3.4sqi.net/img/categories_v2/arts_entertainment/default_", "suffix": ".png"}}, {"id": 13003, "name": "Bar", "short_name": "Bar", "plural_name": "Bars", "icon": {"prefix": "https://ss3.4sqi.net/img/categories_v2/nightlife/pub_", "suffix": ".png"}}, {"id": 13065, "name": "Restaurant", "short_name": "Restaurant", "plural_name": "Restaurants", "icon": {"prefix": "https://ss3.4sqi.net/img/categories_v2/food/default_", "suffix": ".png"}}], "chains": [], "closed_bucket": "Unsure", "distance": 423, "geocodes": {"main": {"latitude": 55.854485, "longitude": -4.303984}, "roof": {"latitude": 55.854485, "longitude": -4.303984}}, "link": "/v3/places/4f6f44c2e4b08a0bbbd5164a", "location": {"address": "111 Copland Rd", "admin_region": "Scotland", "country": "GB", "cross_street": "at Woodville St", "formatted_address": "111 Copland Rd (at Woodville St), Glasgow, Glasgow City, G51 2SL", "locality": "Glasgow", "post_town": "Glasgow", "postcode": "G51 2SL", "region": "Glasgow City"}, "name": "The Louden Tavern", "related_places": {}, "timezone": "Europe/London"}, {"fsq_id": "269f129e3c0b4b536b228725", "categories": [{"id": 11024, "name": "Chemicals and Gasses Manufacturer", "short_name": "Chemicals and Gasses Manufacturer", "plural_name": "Chemicals and Gasses Manufacturers", "icon": {"prefix": "https://ss3.4sqi.net/img/categories_v2/building/default_", "suffix": ".png"}}, {"id": 13065, "name": "Restaurant", "short_name": "Restaurant", "plural_name": "Restaurants", "icon": {"prefix": "https://ss3.4sqi.net/img/categories_v2/food/default_", "suffix": ".png"}}, {"id": 17035, "name": "Drugstore", "short_name": "Drugstore", "plural_name": "Drugstores", "icon": {"prefix": "https://ss3.4sqi.net/img/categories_v2/shops/pharmacy_", "suffix": ".png"}}], "chains": [], "closed_bucket": "LikelyOpen", "distance": 134, "geocodes": {"drop_off": {"latitude": 55.851181, "longitude": -4.29937}, "main": {"latitude": 55.851375, "longitude": -4.299401}, "roof": {"latitude": 55.851375, "longitude": -4.299401}}, "link": "/v3/places/269f129e3c0b4b536b228725", "location": {"address": "456 Paisley Rd West", "admin_region": "Scotland", "country": "GB", "formatted_address": "456 Paisley Rd West, Glasgow, G51 1PX", "locality": "Glasgow", "post_town": "Glasgow", "postcode": "G51 1PX"}, "name": "Rowlands Pharmacy Paisley Road West", "related_places": {}, "timezone": "Europe/London"}, {"fsq_id": "4c822652d34ca1435b062980", "categories": [{"id": 13034, "name": "Caf\u00e9", "short_name": "Caf\u00e9", "plural_name": "Caf\u00e9s", "icon": {"prefix": "https://ss3.4sqi.net/img/categories_v2/food/cafe_", "suffix": ".png"}}, {"id": 13065, "name": "Restaurant", "short_name": "Restaurant", "plural_name": "Restaurants", "icon": {"prefix": "https://ss3.4sqi.net/img/categories_v2/food/default_", "suffix": ".png"}}], "chains": [], "closed_bucket": "VeryLikelyOpen", "distance": 247, "geocodes": {"main": {"latitude": 55.851696, "longitude": -4.297484}, "roof": {"latitude": 55.851696, "longitude": -4.297484}}, "link": "/v3/places/4c822652d34ca1435b062980", "location": {"address": "424 Paisley Rd West", "admin_region": "Scotland", "country": "GB", "cross_street": "", "formatted_address": "424 Paisley Rd West, Glasgow, G51 1BE", "locality": "Glasgow", "post_town": "Glasgow", "postcode": "G51 1BE"}, "name": "Copper Pot", "related_places": {}, "timezone": "Europe/London"}, {"fsq_id": "4b55ab5bf964a52025eb27e3", "categories": [{"id": 13034, "name": "Caf\u00e9", "short_name": "Caf\u00e9", "plural_name": "Caf\u00e9s", "icon": {"prefix": "https://ss3.4sqi.net/img/categories_v2/food/cafe_", "suffix": ".png"}}, {"id": 13039, "name": "Deli", "short_name": "Deli", "plural_name": "Delis", "icon": {"prefix": "https://ss3.4sqi.net/img/categories_v2/food/deli_", "suffix": ".png"}}, {"id": 13145, "name": "Fast Food Restaurant", "short_name": "Fast Food", "plural_name": "Fast Food Restaurants", "icon": {"prefix": "https://ss3.4sqi.net/img/categories_v2/food/fastfood_", "suffix": ".png"}}], "chains": [], "closed_bucket": "LikelyOpen", "distance": 256, "geocodes": {"main": {"latitude": 55.851277, "longitude": -4.297436}, "roof": {"latitude": 55.851277, "longitude": -4.297436}}, "link": "/v3/places/4b55ab5bf964a52025eb27e3", "location": {"address": "7 North Gower St", "admin_region": "Scotland", "country": "GB", "formatted_address": "7 North Gower St, Glasgow, Glasgow City, G51 1PW", "locality": "Glasgow", "post_town": "Glasgow", "postcode": "G51 1PW", "region": "Glasgow City"}, "name": "Cherry & Heather Fine Foods", "related_places": {}, "timezone": "Europe/London"}, {"fsq_id": "4b805f91f964a520826c30e3", "categories": [{"id": 13145, "name": "Fast Food Restaurant", "short_name": "Fast Food", "plural_name": "Fast Food Restaurants", "icon": {"prefix": "https://ss3.4sqi.net/img/categories_v2/food/fastfood_", "suffix": ".png"}}, {"id": 13199, "name": "Indian Restaurant", "short_name": "Indian", "plural_name": "Indian Restaurants", "icon": {"prefix": "https://ss3.4sqi.net/img/categories_v2/food/indian_", "suffix": ".png"}}], "chains": [], "closed_bucket": "LikelyOpen", "distance": 263, "geocodes": {"main": {"latitude": 55.851751, "longitude": -4.29745}, "roof": {"latitude": 55.851751, "longitude": -4.29745}}, "link": "/v3/places/4b805f91f964a520826c30e3", "location": {"address": "404-406 Paisley Rd West", "admin_region": "Scotland", "country": "GB", "formatted_address": "404-406 Paisley Rd West, Glasgow, Glasgow City, G51 1BE", "locality": "Glasgow", "post_town": "Glasgow", "postcode": "G51 1BE", "region": "Glasgow City"}, "name": "Chilli Cottage", "related_places": {}, "timezone": "Europe/London"}, {"fsq_id": "4c1be0bab306c928abf062b7", "categories": [{"id": 13025, "name": "Wine Bar", "short_name": "Wine Bar", "plural_name": "Wine Bars", "icon": {"prefix": "https://ss3.4sqi.net/img/categories_v2/food/winery_", "suffix": ".png"}}], "chains": [], "closed_bucket": "LikelyOpen", "distance": 294, "geocodes": {"main": {"latitude": 55.851769, "longitude": -4.297136}, "roof": {"latitude": 55.851769, "longitude": -4.297136}}, "link": "/v3/places/4c1be0bab306c928abf062b7", "location": {"address": "408 Paisley Rd West", "admin_region": "Scotland", "country": "GB", "cross_street": "", "formatted_address": "408 Paisley Rd West, Glasgow, Glasgow City, G51 1BE", "locality": "Glasgow", "post_town": "Glasgow", "postcode": "G51 1BE", "region": "Glasgow City"}, "name": "Kensington Bar", "related_places": {}, "timezone": "Europe/London"}, {"fsq_id": "4eeb75b5775b1d481314a2df", "categories": [{"id": 13051, "name": "Fish and Chips Shop", "short_name": "Fish and Chips Shop", "plural_name": "Fish and Chips Shops", "icon": {"prefix": "https://ss3.4sqi.net/img/categories_v2/food/fishandchips_", "suffix": ".png"}}], "chains": [], "closed_bucket": "VeryLikelyOpen", "distance": 303, "geocodes": {"drop_off": {"latitude": 55.851625, "longitude": -4.306535}, "main": {"latitude": 55.851506, "longitude": -4.306309}, "roof": {"latitude": 55.851506, "longitude": -4.306309}}, "link": "/v3/places/4eeb75b5775b1d481314a2df", "location": {"address": "Caldon Rd", "country": "GB", "cross_street": "", "formatted_address": "Caldon Rd, Irvine, North Ayrshire", "locality": "Irvine", "post_town": "Irvine", "region": "North Ayrshire"}, "name": "Marcos Chippy Caldon Road", "related_places": {}, "timezone": "Europe/London"}, {"fsq_id": "5da2e7bdde8f3c0008bb83b6", "categories": [{"id": 13034, "name": "Caf\u00e9", "short_name": "Caf\u00e9", "plural_name": "Caf\u00e9s", "icon": {"prefix": "https://ss3.4sqi.net/img/categories_v2/food/cafe_", "suffix": ".png"}}, {"id": 13145, "name": "Fast Food Restaurant", "short_name": "Fast Food", "plural_name": "Fast Food Restaurants", "icon": {"prefix": "https://ss3.4sqi.net/img/categories_v2/food/fastfood_", "suffix": ".png"}}], "chains": [], "closed_bucket": "LikelyOpen", "distance": 367, "geocodes": {"main": {"latitude": 55.850554, "longitude": -4.307295}, "roof": {"latitude": 55.850554, "longitude": -4.307295}}, "link": "/v3/places/5da2e7bdde8f3c0008bb83b6", "location": {"address": "208 Copland Rd", "admin_region": "Scotland", "country": "GB", "cross_street": "", "formatted_address": "208 Copland Rd, Glasgow, Glasgow City, G51 2LB", "locality": "Glasgow", "post_town": "Glasgow", "postcode": "G51 2LB", "region": "Glasgow City"}, "name": "Good Times Roll", "related_places": {}, "timezone": "Europe/London"}, {"fsq_id": "4eff47430aaffcf6f3e9a876", "categories": [{"id": 13099, "name": "Chinese Restaurant", "short_name": "Chinese", "plural_name": "Chinese Restaurants", "icon": {"prefix": "https://ss3.4sqi.net/img/categories_v2/food/asian_", "suffix": ".png"}}], "chains": [], "closed_bucket": "LikelyOpen", "distance": 385, "geocodes": {"main": {"latitude": 55.851913, "longitude": -4.295528}, "roof": {"latitude": 55.851913, "longitude": -4.295528}}, "link": "/v3/places/4eff47430aaffcf6f3e9a876", "location": {"address": "376 Paisley Rd", "admin_region": "Scotland", "country": "GB", "cross_street": "", "formatted_address": "376 Paisley Rd, Glasgow, Glasgow City, G51 1BG", "locality": "Glasgow", "post_town": "Glasgow", "postcode": "G51 1BG", "region": "Glasgow City"}, "name": "One 2 Wan", "related_places": {}, "timezone": "Europe/London"}, {"fsq_id": "989659953c664cee6b8793c6", "categories": [{"id": 13065, "name": "Restaurant", "short_name": "Restaurant", "plural_name": "Restaurants", "icon": {"prefix": "https://ss3.4sqi.net/img/categories_v2/food/default_", "suffix": ".png"}}], "chains": [], "closed_bucket": "VeryLikelyOpen", "distance": 393, "geocodes": {"drop_off": {"latitude": 55.850298, "longitude": -4.307664}, "main": {"latitude": 55.850426, "longitude": -4.307677}, "roof": {"latitude": 55.850426, "longitude": -4.307677}}, "link": "/v3/places/989659953c664cee6b8793c6", "location": {"address": "560 Paisley Rd W", "admin_region": "Scotland", "country": "GB", "formatted_address": "560 Paisley Rd W, Glasgow, Glasgow City, G51 1RF", "locality": "Glasgow", "post_town": "Glasgow", "postcode": "G51 1RF", "region": "Glasgow City"}, "name": "Indian Brasserie", "related_places": {}, "timezone": "Europe/London"}, {"fsq_id": "4e287b83fa762797e59dd6aa", "categories": [{"id": 13099, "name": "Chinese Restaurant", "short_name": "Chinese", "plural_name": "Chinese Restaurants", "icon": {"prefix": "https://ss3.4sqi.net/img/categories_v2/food/asian_", "suffix": ".png"}}], "chains": [], "closed_bucket": "LikelyOpen", "distance": 399, "geocodes": {"drop_off": {"latitude": 55.850298, "longitude": -4.307664}, "main": {"latitude": 55.850426, "longitude": -4.307677}, "roof": {"latitude": 55.850426, "longitude": -4.307677}}, "link": "/v3/places/4e287b83fa762797e59dd6aa", "location": {"address": "558 Paisley Rd West", "admin_region": "Scotland", "country": "GB", "cross_street": "Copland Road", "formatted_address": "558 Paisley Rd West (Copland Road), Glasgow, Glasgow City, G51 1RF", "locality": "Glasgow", "post_town": "Glasgow", "postcode": "G51 1RF", "region": "Glasgow City"}, "name": "Sunflower", "related_places": {}, "timezone": "Europe/London"}, {"fsq_id": "4dc82fda18387d1bd5816e2c", "categories": [{"id": 13199, "name": "Indian Restaurant", "short_name": "Indian", "plural_name": "Indian Restaurants", "icon": {"prefix": "https://ss3.4sqi.net/img/categories_v2/food/indian_", "suffix": ".png"}}], "chains": [], "closed_bucket": "VeryLikelyOpen", "distance": 401, "geocodes": {"drop_off": {"latitude": 55.850288, "longitude": -4.307769}, "main": {"latitude": 55.85042, "longitude": -4.307782}, "roof": {"latitude": 55.85042, "longitude": -4.307782}}, "link": "/v3/places/4dc82fda18387d1bd5816e2c", "location": {"address": "560 Paisley Rd West", "admin_region": "Scotland", "country": "GB", "cross_street": "Copland Rd.", "formatted_address": "560 Paisley Rd West (Copland Rd.), Glasgow, Glasgow City, G51 1RF", "locality": "Glasgow", "post_town": "Glasgow", "postcode": "G51 1RF", "region": "Glasgow City"}, "name": "Modern Punjabi", "related_places": {}, "timezone": "Europe/London"}, {"fsq_id": "c23b591bc7ca4f43c1f0c9be", "categories": [{"id": 13051, "name": "Fish and Chips Shop", "short_name": "Fish and Chips Shop", "plural_name": "Fish and Chips Shops", "icon": {"prefix": "https://ss3.4sqi.net/img/categories_v2/food/fishandchips_", "suffix": ".png"}}], "chains": [], "closed_bucket": "Unsure", "distance": 412, "geocodes": {"drop_off": {"latitude": 55.851792, "longitude": -4.295029}, "main": {"latitude": 55.851889, "longitude": -4.295037}, "roof": {"latitude": 55.851889, "longitude": -4.295037}}, "link": "/v3/places/c23b591bc7ca4f43c1f0c9be", "location": {"address": "352 Paisley Rd West", "admin_region": "Scotland", "country": "GB", "formatted_address": "352 Paisley Rd West, Glasgow, G51 1BG", "locality": "Glasgow", "post_town": "Glasgow", "postcode": "G51 1BG"}, "name": "Zezo Ramsay", "related_places": {}, "timezone": "Europe/London"}, {"fsq_id": "21466194e85a4db25323f2ec", "categories": [{"id": 13199, "name": "Indian Restaurant", "short_name": "Indian", "plural_name": "Indian Restaurants", "icon": {"prefix": "https://ss3.4sqi.net/img/categories_v2/food/indian_", "suffix": ".png"}}], "chains": [], "closed_bucket": "VeryLikelyOpen", "distance": 413, "geocodes": {"main": {"latitude": 55.850408, "longitude": -4.307992}, "roof": {"latitude": 55.850408, "longitude": -4.307992}}, "link": "/v3/places/21466194e85a4db25323f2ec", "location": {"address": "Paisley Rd West", "admin_region": "Scotland", "country": "GB", "formatted_address": "Paisley Rd West, Glasgow, G51 1RF", "locality": "Glasgow", "post_town": "Glasgow", "postcode": "G51 1RF"}, "name": "Punjab Indian Restaurant", "related_places": {}, "timezone": "Europe/London"}, {"fsq_id": "4bc08624461576b087397a32", "categories": [{"id": 13003, "name": "Bar", "short_name": "Bar", "plural_name": "Bars", "icon": {"prefix": "https://ss3.4sqi.net/img/categories_v2/nightlife/pub_", "suffix": ".png"}}], "chains": [], "closed_bucket": "VeryLikelyOpen", "distance": 418, "geocodes": {"main": {"latitude": 55.854424, "longitude": -4.304122}, "roof": {"latitude": 55.854424, "longitude": -4.304122}}, "link": "/v3/places/4bc08624461576b087397a32", "location": {"country": "GB", "cross_street": "", "formatted_address": ""}, "name": "Stadium Bar", "related_places": {}, "timezone": "Europe/London"}, {"fsq_id": "4cddcfa1db12548120a72cce", "categories": [{"id": 13199, "name": "Indian Restaurant", "short_name": "Indian", "plural_name": "Indian Restaurants", "icon": {"prefix": "https://ss3.4sqi.net/img/categories_v2/food/indian_", "suffix": ".png"}}], "chains": [], "closed_bucket": "VeryLikelyOpen", "distance": 422, "geocodes": {"drop_off": {"latitude": 55.851801, "longitude": -4.294924}, "main": {"latitude": 55.851895, "longitude": -4.294932}, "roof": {"latitude": 55.851895, "longitude": -4.294932}}, "link": "/v3/places/4cddcfa1db12548120a72cce", "location": {"address": "354 Paisley Rd West", "country": "GB", "cross_street": "", "formatted_address": "354 Paisley Rd West, Glasgow, Glasgow City", "locality": "Glasgow", "post_town": "Glasgow", "region": "Glasgow City"}, "name": "Chapati5", "related_places": {}, "timezone": "Europe/London"}, {"fsq_id": "51b2316a498e35b9867a8d77", "categories": [{"id": 13199, "name": "Indian Restaurant", "short_name": "Indian", "plural_name": "Indian Restaurants", "icon": {"prefix": "https://ss3.4sqi.net/img/categories_v2/food/indian_", "suffix": ".png"}}], "chains": [], "closed_bucket": "VeryLikelyOpen", "distance": 429, "geocodes": {"drop_off": {"latitude": 55.85181, "longitude": -4.294819}, "main": {"latitude": 55.851901, "longitude": -4.294827}, "roof": {"latitude": 55.851901, "longitude": -4.294827}}, "link": "/v3/places/51b2316a498e35b9867a8d77", "location": {"admin_region": "Scotland", "country": "GB", "cross_street": "", "formatted_address": "", "post_town": "Glasgow"}, "name": "Pakora Junction", "related_places": {}, "timezone": "Europe/London"}, {"fsq_id": "32420a2768db4fd7dee93498", "categories": [{"id": 13068, "name": "American Restaurant", "short_name": "American", "plural_name": "American Restaurants", "icon": {"prefix": "https://ss3.4sqi.net/img/categories_v2/food/default_", "suffix": ".png"}}], "chains": [], "closed_bucket": "Unsure", "distance": 459, "geocodes": {"main": {"latitude": 55.853686, "longitude": -4.295864}, "roof": {"latitude": 55.853686, "longitude": -4.295864}}, "link": "/v3/places/32420a2768db4fd7dee93498", "location": {"address": "Xscape, Braehead Shopping Centre", "admin_region": "Scotland", "country": "GB", "formatted_address": "Xscape, Braehead Shopping Centre, Glasgow, Glasgow City, G51 1DJ", "locality": "Glasgow", "post_town": "Glasgow", "postcode": "G51 1DJ", "region": "Glasgow City"}, "name": "TGI Fridays", "related_places": {}, "timezone": "Europe/London"}, {"fsq_id": "5bbcfcef811045002c628760", "categories": [{"id": 13099, "name": "Chinese Restaurant", "short_name": "Chinese", "plural_name": "Chinese Restaurants", "icon": {"prefix": "https://ss3.4sqi.net/img/categories_v2/food/asian_", "suffix": ".png"}}], "chains": [], "closed_bucket": "VeryLikelyOpen", "distance": 465, "geocodes": {"main": {"latitude": 55.851731, "longitude": -4.294121}, "roof": {"latitude": 55.851731, "longitude": -4.294121}}, "link": "/v3/places/5bbcfcef811045002c628760", "location": {"address": "387 Paisley Rd West", "admin_region": "Scotland", "country": "GB", "cross_street": "", "formatted_address": "387 Paisley Rd West, Glasgow, Glasgow City, G51 1LB", "locality": "Glasgow", "post_town": "Glasgow", "postcode": "G51 1LB", "region": "Glasgow City"}, "name": "New Star", "related_places": {}, "timezone": "Europe/London"}, {"fsq_id": "4b7ecbf0f964a5202e0030e3", "categories": [{"id": 13065, "name": "Restaurant", "short_name": "Restaurant", "plural_name": "Restaurants", "icon": {"prefix": "https://ss3.4sqi.net/img/categories_v2/food/default_", "suffix": ".png"}}], "chains": [], "closed_bucket": "VeryLikelyOpen", "distance": 467, "geocodes": {"main": {"latitude": 55.852083, "longitude": -4.294412}, "roof": {"latitude": 55.852083, "longitude": -4.294412}}, "link": "/v3/places/4b7ecbf0f964a5202e0030e3", "location": {"address": "1 Cessnock St", "admin_region": "Scotland", "country": "GB", "formatted_address": "1 Cessnock St, Glasgow, Glasgow City, G51 1AS", "locality": "Glasgow", "post_town": "Glasgow", "postcode": "G51 1AS", "region": "Glasgow City"}, "name": "Cessnock Subway", "related_places": {}, "timezone": "Europe/London"}, {"fsq_id": "5cfa4a4ee679bc002c8cfeb5", "categories": [{"id": 13002, "name": "Bakery", "short_name": "Bakery", "plural_name": "Bakeries", "icon": {"prefix": "https://ss3.4sqi.net/img/categories_v2/food/bakery_", "suffix": ".png"}}, {"id": 13046, "name": "Ice Cream Parlor", "short_name": "Ice Cream", "plural_name": "Ice Cream Parlors", "icon": {"prefix": "https://ss3.4sqi.net/img/categories_v2/food/icecream_", "suffix": ".png"}}, {"id": 13065, "name": "Restaurant", "short_name": "Restaurant", "plural_name": "Restaurants", "icon": {"prefix": "https://ss3.4sqi.net/img/categories_v2/food/default_", "suffix": ".png"}}], "chains": [], "closed_bucket": "LikelyOpen", "distance": 476, "geocodes": {"main": {"latitude": 55.849911, "longitude": -4.308397}, "roof": {"latitude": 55.849911, "longitude": -4.308397}}, "link": "/v3/places/5cfa4a4ee679bc002c8cfeb5", "location": {"address": "675 Paisley Rd West", "admin_region": "Scotland", "country": "GB", "cross_street": "", "formatted_address": "675 Paisley Rd West, Glasgow, Glasgow City, G51 1RP", "locality": "Glasgow", "post_town": "Glasgow", "postcode": "G51 1RP", "region": "Glasgow City"}, "name": "Tubbees Desserts", "related_places": {}, "timezone": "Europe/London"}, {"fsq_id": "4d977232c19fb60c67139765", "categories": [{"id": 13003, "name": "Bar", "short_name": "Bar", "plural_name": "Bars", "icon": {"prefix": "https://ss3.4sqi.net/img/categories_v2/nightlife/pub_", "suffix": ".png"}}], "chains": [], "closed_bucket": "VeryLikelyOpen", "distance": 486, "geocodes": {"main": {"latitude": 55.849359, "longitude": -4.308835}}, "link": "/v3/places/4d977232c19fb60c67139765", "location": {"country": "GB", "cross_street": "", "formatted_address": ""}, "name": "The Fairfield Club", "related_places": {}, "timezone": "Europe/London"}, {"fsq_id": "f0e58649f1cf440dbbc73aad", "categories": [{"id": 13046, "name": "Ice Cream Parlor", "short_name": "Ice Cream", "plural_name": "Ice Cream Parlors", "icon": {"prefix": "https://ss3.4sqi.net/img/categories_v2/food/icecream_", "suffix": ".png"}}, {"id": 13065, "name": "Restaurant", "short_name": "Restaurant", "plural_name": "Restaurants", "icon": {"prefix": "https://ss3.4sqi.net/img/categories_v2/food/default_", "suffix": ".png"}}], "chains": [], "closed_bucket": "LikelyOpen", "distance": 503, "geocodes": {"main": {"latitude": 55.851767, "longitude": -4.293491}, "roof": {"latitude": 55.851767, "longitude": -4.293491}}, "link": "/v3/places/f0e58649f1cf440dbbc73aad", "location": {"address": "375 Paisley Rd West", "admin_region": "Scotland", "country": "GB", "formatted_address": "375 Paisley Rd West, Glasgow, Glasgow City, G51 1LX", "locality": "Glasgow", "post_town": "Glasgow", "postcode": "G51 1LX", "region": "Glasgow City"}, "name": "Royal Desserts", "related_places": {}, "timezone": "Europe/London"}, {"fsq_id": "4d206977756e8cfa030d6c54", "categories": [{"id": 13022, "name": "Sports Bar", "short_name": "Sports Bar", "plural_name": "Sports Bars", "icon": {"prefix": "https://ss3.4sqi.net/img/categories_v2/nightlife/sportsbar_", "suffix": ".png"}}], "chains": [], "closed_bucket": "VeryLikelyOpen", "distance": 530, "geocodes": {"main": {"latitude": 55.853922, "longitude": -4.308277}, "roof": {"latitude": 55.853922, "longitude": -4.308277}}, "link": "/v3/places/4d206977756e8cfa030d6c54", "location": {"country": "GB", "cross_street": "", "formatted_address": "Glasgow, Glasgow City", "locality": "Glasgow", "post_town": "Glasgow", "region": "Glasgow City"}, "name": "Bar 72", "related_places": {}, "timezone": "Europe/London"}, {"fsq_id": "5cc48d2379f6c7002b7294d9", "categories": [{"id": 13065, "name": "Restaurant", "short_name": "Restaurant", "plural_name": "Restaurants", "icon": {"prefix": "https://ss3.4sqi.net/img/categories_v2/food/default_", "suffix": ".png"}}, {"id": 14013, "name": "Street Food Gathering", "short_name": "Street Food Gathering", "plural_name": "Street Food Gatherings", "icon": {"prefix": "https://ss3.4sqi.net/img/categories_v2/food/streetfood_", "suffix": ".png"}}], "chains": [], "closed_bucket": "LikelyOpen", "distance": 541, "geocodes": {"drop_off": {"latitude": 55.855223, "longitude": -4.296982}, "main": {"latitude": 55.854991, "longitude": -4.296991}, "roof": {"latitude": 55.854991, "longitude": -4.296991}}, "link": "/v3/places/5cc48d2379f6c7002b7294d9", "location": {"address": "249 Govan Rd", "admin_region": "Scotland", "country": "GB", "cross_street": "", "formatted_address": "249 Govan Rd, Glasgow, Glasgow City, G51 1HJ", "locality": "Glasgow", "post_town": "Glasgow", "postcode": "G51 1HJ", "region": "Glasgow City"}, "name": "Big Feed Street Food Social", "related_places": {}, "timezone": "Europe/London"}, {"fsq_id": "527f81cc498e7b9abc909a09", "categories": [{"id": 13065, "name": "Restaurant", "short_name": "Restaurant", "plural_name": "Restaurants", "icon": {"prefix": "https://ss3.4sqi.net/img/categories_v2/food/default_", "suffix": ".png"}}], "chains": [], "closed_bucket": "VeryLikelyOpen", "distance": 544, "geocodes": {"main": {"latitude": 55.853995, "longitude": -4.30884}, "roof": {"latitude": 55.853995, "longitude": -4.30884}}, "link": "/v3/places/527f81cc498e7b9abc909a09", "location": {"address": "150 Edmiston Dr", "admin_region": "Scotland", "country": "GB", "cross_street": "", "formatted_address": "150 Edmiston Dr, Glasgow, G51 2XD", "locality": "Glasgow", "post_town": "Glasgow", "postcode": "G51 2XD"}, "name": "Argyle House Restaurant", "related_places": {}, "timezone": "Europe/London"}, {"fsq_id": "5c1ce80c1c9e2e00250606e4", "categories": [{"id": 13309, "name": "Middle Eastern Restaurant", "short_name": "Middle Eastern", "plural_name": "Middle Eastern Restaurants", "icon": {"prefix": "https://ss3.4sqi.net/img/categories_v2/food/middleeastern_", "suffix": ".png"}}], "chains": [], "closed_bucket": "VeryLikelyOpen", "distance": 550, "geocodes": {"drop_off": {"latitude": 55.851991, "longitude": -4.292666}, "main": {"latitude": 55.851815, "longitude": -4.292651}, "roof": {"latitude": 55.851815, "longitude": -4.292651}}, "link": "/v3/places/5c1ce80c1c9e2e00250606e4", "location": {"admin_region": "Scotland", "country": "GB", "cross_street": "", "formatted_address": "Glasgow, Glasgow City, G51 1LX", "locality": "Glasgow", "post_town": "Glasgow", "postcode": "G51 1LX", "region": "Glasgow City"}, "name": "Shawarma Grill", "related_places": {}, "timezone": "Europe/London"}, {"fsq_id": "4fbfdf85e4b099ce168b3f65", "categories": [{"id": 13145, "name": "Fast Food Restaurant", "short_name": "Fast Food", "plural_name": "Fast Food Restaurants", "icon": {"prefix": "https://ss3.4sqi.net/img/categories_v2/food/fastfood_", "suffix": ".png"}}], "chains": [], "closed_bucket": "VeryLikelyOpen", "distance": 558, "geocodes": {"drop_off": {"latitude": 55.851986, "longitude": -4.292733}, "main": {"latitude": 55.851863, "longitude": -4.292723}, "roof": {"latitude": 55.851863, "longitude": -4.292723}}, "link": "/v3/places/4fbfdf85e4b099ce168b3f65", "location": {"address": "351 Paisley Rd West", "admin_region": "Scotland", "country": "GB", "cross_street": "", "formatted_address": "351 Paisley Rd West, Glasgow, Glasgow City, G51 1LX", "locality": "Glasgow", "post_town": "Glasgow", "postcode": "G51 1LX", "region": "Glasgow City"}, "name": "Lisbon, the Home of Peri Peri Chicken", "related_places": {}, "timezone": "Europe/London"}, {"fsq_id": "5cf432ea3ba767002c80dc9e", "categories": [{"id": 13064, "name": "Pizzeria", "short_name": "Pizza", "plural_name": "Pizzerias", "icon": {"prefix": "https://ss3.4sqi.net/img/categories_v2/food/pizza_", "suffix": ".png"}}, {"id": 13145, "name": "Fast Food Restaurant", "short_name": "Fast Food", "plural_name": "Fast Food Restaurants", "icon": {"prefix": "https://ss3.4sqi.net/img/categories_v2/food/fastfood_", "suffix": ".png"}}], "chains": [], "closed_bucket": "LikelyOpen", "distance": 581, "geocodes": {"drop_off": {"latitude": 55.85202, "longitude": -4.292314}, "main": {"latitude": 55.851887, "longitude": -4.292303}, "roof": {"latitude": 55.851887, "longitude": -4.292303}}, "link": "/v3/places/5cf432ea3ba767002c80dc9e", "location": {"address": "337 Paisley Rd West", "admin_region": "Scotland", "country": "GB", "cross_street": "", "formatted_address": "337 Paisley Rd West, Glasgow, Glasgow City, G51 1LU", "locality": "Glasgow", "post_town": "Glasgow", "postcode": "G51 1LU", "region": "Glasgow City"}, "name": "Boston Burgers & Pizzeria", "related_places": {}, "timezone": "Europe/London"}, {"fsq_id": "531f79b9498ef8bf7eb56496", "categories": [{"id": 13072, "name": "Asian Restaurant", "short_name": "Asian", "plural_name": "Asian Restaurants", "icon": {"prefix": "https://ss3.4sqi.net/img/categories_v2/food/asian_", "suffix": ".png"}}], "chains": [], "closed_bucket": "VeryLikelyOpen", "distance": 585, "geocodes": {"main": {"latitude": 55.849454, "longitude": -4.292473}, "roof": {"latitude": 55.849454, "longitude": -4.292473}}, "link": "/v3/places/531f79b9498ef8bf7eb56496", "location": {"address": "562 Dumbarton Rd", "country": "GB", "cross_street": "", "formatted_address": "562 Dumbarton Rd, Glasgow, Glasgow City", "locality": "Glasgow", "post_town": "Glasgow", "region": "Glasgow City"}, "name": "The Pacific Bar & Kitsch Inn", "related_places": {}, "timezone": "Europe/London"}, {"fsq_id": "4b0fc30bf964a520a56423e3", "categories": [{"id": 10024, "name": "Movie Theater", "short_name": "Movie Theater", "plural_name": "Movie Theaters", "icon": {"prefix": "https://ss3.4sqi.net/img/categories_v2/arts_entertainment/movietheater_", "suffix": ".png"}}, {"id": 13065, "name": "Restaurant", "short_name": "Restaurant", "plural_name": "Restaurants", "icon": {"prefix": "https://ss3.4sqi.net/img/categories_v2/food/default_", "suffix": ".png"}}], "chains": [], "closed_bucket": "LikelyOpen", "distance": 675, "geocodes": {"main": {"latitude": 55.856082, "longitude": -4.295413}, "roof": {"latitude": 55.856082, "longitude": -4.295413}}, "link": "/v3/places/4b0fc30bf964a520a56423e3", "location": {"address": "70 Pacific Quay", "admin_region": "Scotland", "country": "GB", "formatted_address": "70 Pacific Quay, Glasgow, Glasgow City, G51 1EA", "locality": "Glasgow", "post_town": "Glasgow", "postcode": "G51 1EA", "region": "Glasgow City"}, "name": "The Hub", "related_places": {"children": [{"fsq_id": "5908bd70a2a6ce785dc70416", "categories": [{"id": 11140, "name": "Photography Studio", "short_name": "Photo Studio", "plural_name": "Photography Studios", "icon": {"prefix": "https://ss3.4sqi.net/img/categories_v2/shops/camerastore_", "suffix": ".png"}}, {"id": 17096, "name": "Miscellaneous Store", "short_name": "Store", "plural_name": "Miscellaneous Stores", "icon": {"prefix": "https://ss3.4sqi.net/img/categories_v2/shops/default_", "suffix": ".png"}}], "name": "CineStore"}]}, "timezone": "Europe/London"}, {"fsq_id": "4cb44e701168a093a1764723", "categories": [{"id": 13072, "name": "Asian Restaurant", "short_name": "Asian", "plural_name": "Asian Restaurants", "icon": {"prefix": "https://ss3.4sqi.net/img/categories_v2/food/asian_", "suffix": ".png"}}], "chains": [], "closed_bucket": "VeryLikelyOpen", "distance": 707, "geocodes": {"drop_off": {"latitude": 55.849754, "longitude": -4.29029}, "main": {"latitude": 55.84958, "longitude": -4.290269}, "roof": {"latitude": 55.84958, "longitude": -4.290269}}, "link": "/v3/places/4cb44e701168a093a1764723", "location": {"address": "MacLellan St", "admin_region": "Scotland", "country": "GB", "cross_street": "maclellan st", "formatted_address": "MacLellan St (maclellan st), Kinning Park, Glasgow City, G41 1RR", "locality": "Kinning Park", "post_town": "Glasgow", "postcode": "G41 1RR", "region": "Glasgow City"}, "name": "Pakora Junction Snack Bar", "related_places": {}, "timezone": "Europe/London"}, {"fsq_id": "4be1ccf04283c9b6808954f8", "categories": [{"id": 13010, "name": "Dive Bar", "short_name": "Dive Bar", "plural_name": "Dive Bars", "icon": {"prefix": "https://ss3.4sqi.net/img/categories_v2/nightlife/divebar_", "suffix": ".png"}}], "chains": [], "closed_bucket": "LikelyOpen", "distance": 765, "geocodes": {"main": {"latitude": 55.85242, "longitude": -4.289446}, "roof": {"latitude": 55.85242, "longitude": -4.289446}}, "link": "/v3/places/4be1ccf04283c9b6808954f8", "location": {"address": "252 Paisley Rd West", "admin_region": "Scotland", "country": "GB", "cross_street": "", "formatted_address": "252 Paisley Rd West, Glasgow, Glasgow City, G51 1BS", "locality": "Glasgow", "post_town": "Glasgow", "postcode": "G51 1BS", "region": "Glasgow City"}, "name": "District Bar", "related_places": {}, "timezone": "Europe/London"}, {"fsq_id": "4dc3d3c218387d1bd512867f", "categories": [{"id": 13034, "name": "Caf\u00e9", "short_name": "Caf\u00e9", "plural_name": "Caf\u00e9s", "icon": {"prefix": "https://ss3.4sqi.net/img/categories_v2/food/cafe_", "suffix": ".png"}}, {"id": 13035, "name": "Coffee Shop", "short_name": "Coffee Shop", "plural_name": "Coffee Shops", "icon": {"prefix": "https://ss3.4sqi.net/img/categories_v2/food/coffeeshop_", "suffix": ".png"}}, {"id": 13065, "name": "Restaurant", "short_name": "Restaurant", "plural_name": "Restaurants", "icon": {"prefix": "https://ss3.4sqi.net/img/categories_v2/food/default_", "suffix": ".png"}}], "chains": [], "closed_bucket": "VeryLikelyOpen", "distance": 767, "geocodes": {"main": {"latitude": 55.85242, "longitude": -4.289446}, "roof": {"latitude": 55.85242, "longitude": -4.289446}}, "link": "/v3/places/4dc3d3c218387d1bd512867f", "location": {"address": "4-8 Harvie St", "admin_region": "Scotland", "country": "GB", "formatted_address": "4-8 Harvie St, Glasgow, Glasgow City, G51 1BW", "locality": "Glasgow", "post_town": "Glasgow", "postcode": "G51 1BW", "region": "Glasgow City"}, "name": "Kinning Perk", "related_places": {}, "timezone": "Europe/London"}, {"fsq_id": "4d076b26e350b60cb84e9242", "categories": [{"id": 13145, "name": "Fast Food Restaurant", "short_name": "Fast Food", "plural_name": "Fast Food Restaurants", "icon": {"prefix": "https://ss3.4sqi.net/img/categories_v2/food/fastfood_", "suffix": ".png"}}], "chains": [], "closed_bucket": "VeryLikelyOpen", "distance": 811, "geocodes": {"main": {"latitude": 55.858193, "longitude": -4.304556}, "roof": {"latitude": 55.858193, "longitude": -4.304556}}, "link": "/v3/places/4d076b26e350b60cb84e9242", "location": {"country": "GB", "cross_street": "", "formatted_address": "Glasgow, Glasgow City", "locality": "Glasgow", "post_town": "Glasgow", "region": "Glasgow City"}, "name": "Lonas Cafe", "related_places": {}, "timezone": "Europe/London"}, {"fsq_id": "4bc0799f2a89ef3b8689f088", "categories": [{"id": 10000, "name": "Arts and Entertainment", "short_name": "Arts & Entertainment", "plural_name": "Arts and Entertainment", "icon": {"prefix": "https://ss3.4sqi.net/img/categories_v2/arts_entertainment/default_", "suffix": ".png"}}, {"id": 13010, "name": "Dive Bar", "short_name": "Dive Bar", "plural_name": "Dive Bars", "icon": {"prefix": "https://ss3.4sqi.net/img/categories_v2/nightlife/divebar_", "suffix": ".png"}}, {"id": 13022, "name": "Sports Bar", "short_name": "Sports Bar", "plural_name": "Sports Bars", "icon": {"prefix": "https://ss3.4sqi.net/img/categories_v2/nightlife/sportsbar_", "suffix": ".png"}}], "chains": [], "closed_bucket": "LikelyOpen", "distance": 816, "geocodes": {"main": {"latitude": 55.853106, "longitude": -4.289433}, "roof": {"latitude": 55.853106, "longitude": -4.289433}}, "link": "/v3/places/4bc0799f2a89ef3b8689f088", "location": {"address": "22 Harvie St", "admin_region": "Scotland", "country": "GB", "formatted_address": "22 Harvie St, Govan, Glasgow City, G51 1BW", "locality": "Govan", "post_town": "Glasgow", "postcode": "G51 1BW", "region": "Glasgow City"}, "name": "Louden Tavern", "related_places": {}, "timezone": "Europe/London"}, {"fsq_id": "4f846259e4b0422a017948aa", "categories": [{"id": 13145, "name": "Fast Food Restaurant", "short_name": "Fast Food", "plural_name": "Fast Food Restaurants", "icon": {"prefix": "https://ss3.4sqi.net/img/categories_v2/food/fastfood_", "suffix": ".png"}}], "chains": [], "closed_bucket": "LikelyOpen", "distance": 832, "geocodes": {"main": {"latitude": 55.852486, "longitude": -4.288292}, "roof": {"latitude": 55.852486, "longitude": -4.288292}}, "link": "/v3/places/4f846259e4b0422a017948aa", "location": {"address": "240-242 Paisley Rd West", "admin_region": "Scotland", "country": "GB", "cross_street": "", "formatted_address": "240-242 Paisley Rd West, Glasgow, G51 1BU", "locality": "Glasgow", "post_town": "Glasgow", "postcode": "G51 1BU"}, "name": "Chicken Choice", "related_places": {}, "timezone": "Europe/London"}, {"fsq_id": "376e88c8c554702816cfd2e5", "categories": [{"id": 13324, "name": "Polish Restaurant", "short_name": "Polish", "plural_name": "Polish Restaurants", "icon": {"prefix": "https://ss3.4sqi.net/img/categories_v2/food/default_", "suffix": ".png"}}], "chains": [], "closed_bucket": "VeryLikelyOpen", "distance": 847, "geocodes": {"drop_off": {"latitude": 55.852573, "longitude": -4.288494}, "main": {"latitude": 55.852547, "longitude": -4.288154}, "roof": {"latitude": 55.852547, "longitude": -4.288154}}, "link": "/v3/places/376e88c8c554702816cfd2e5", "location": {"address": "8 Lorne St", "country": "GB", "formatted_address": "8 Lorne St, Glasgow, Glasgow City", "locality": "Glasgow", "post_town": "Glasgow", "region": "Glasgow City"}, "name": "U Piecyka Calisia Food", "related_places": {}, "timezone": "Europe/London"}, {"fsq_id": "4eff394ac2ee2cc870ce8727", "categories": [{"id": 13099, "name": "Chinese Restaurant", "short_name": "Chinese", "plural_name": "Chinese Restaurants", "icon": {"prefix": "https://ss3.4sqi.net/img/categories_v2/food/asian_", "suffix": ".png"}}, {"id": 13145, "name": "Fast Food Restaurant", "short_name": "Fast Food", "plural_name": "Fast Food Restaurants", "icon": {"prefix": "https://ss3.4sqi.net/img/categories_v2/food/fastfood_", "suffix": ".png"}}], "chains": [], "closed_bucket": "Unsure", "distance": 849, "geocodes": {"main": {"latitude": 55.852801, "longitude": -4.288302}, "roof": {"latitude": 55.852801, "longitude": -4.288302}}, "link": "/v3/places/4eff394ac2ee2cc870ce8727", "location": {"address": "12 Lorne St", "admin_region": "Scotland", "country": "GB", "formatted_address": "12 Lorne St, Glasgow, Glasgow City, G51 1DP", "locality": "Glasgow", "post_town": "Glasgow", "postcode": "G51 1DP", "region": "Glasgow City"}, "name": "Golden City", "related_places": {}, "timezone": "Europe/London"}, {"fsq_id": "5638ff7e60b2753ece75b7f3", "categories": [{"id": 13046, "name": "Ice Cream Parlor", "short_name": "Ice Cream", "plural_name": "Ice Cream Parlors", "icon": {"prefix": "https://ss3.4sqi.net/img/categories_v2/food/icecream_", "suffix": ".png"}}, {"id": 13065, "name": "Restaurant", "short_name": "Restaurant", "plural_name": "Restaurants", "icon": {"prefix": "https://ss3.4sqi.net/img/categories_v2/food/default_", "suffix": ".png"}}], "chains": [], "closed_bucket": "LikelyOpen", "distance": 870, "geocodes": {"main": {"latitude": 55.852231, "longitude": -4.288144}, "roof": {"latitude": 55.852231, "longitude": -4.288144}}, "link": "/v3/places/5638ff7e60b2753ece75b7f3", "location": {"address": "239 Paisley Rd West", "admin_region": "Scotland", "country": "GB", "formatted_address": "239 Paisley Rd West, Glasgow, G51 1NE", "locality": "Glasgow", "post_town": "Glasgow", "postcode": "G51 1NE"}, "name": "Adams Ice Cream Parlour", "related_places": {}, "timezone": "Europe/London"}, {"fsq_id": "4cc33346c844721e649ce101", "categories": [{"id": 13018, "name": "Pub", "short_name": "Pub", "plural_name": "Pubs", "icon": {"prefix": "https://ss3.4sqi.net/img/categories_v2/nightlife/pub_", "suffix": ".png"}}], "chains": [], "closed_bucket": "LikelyOpen", "distance": 890, "geocodes": {"main": {"latitude": 55.852528, "longitude": -4.287558}, "roof": {"latitude": 55.852528, "longitude": -4.287558}}, "link": "/v3/places/4cc33346c844721e649ce101", "location": {"address": "218 Paisley Rd West", "admin_region": "Scotland", "country": "GB", "cross_street": "", "formatted_address": "218 Paisley Rd West, Glasgow, G51 1BU", "locality": "Glasgow", "post_town": "Glasgow", "postcode": "G51 1BU"}, "name": "The Grapes Bar", "related_places": {}, "timezone": "Europe/London"}, {"fsq_id": "4bc070def8219c74008bb110", "categories": [{"id": 13003, "name": "Bar", "short_name": "Bar", "plural_name": "Bars", "icon": {"prefix": "https://ss3.4sqi.net/img/categories_v2/nightlife/pub_", "suffix": ".png"}}], "chains": [], "closed_bucket": "VeryLikelyOpen", "distance": 906, "geocodes": {"main": {"latitude": 55.852279, "longitude": -4.287304}, "roof": {"latitude": 55.852279, "longitude": -4.287304}}, "link": "/v3/places/4bc070def8219c74008bb110", "location": {"country": "GB", "cross_street": "", "formatted_address": ""}, "name": "Bellrock", "related_places": {}, "timezone": "Europe/London"}, {"fsq_id": "5defe9dfe7ffb000089f41f5", "categories": [{"id": 13003, "name": "Bar", "short_name": "Bar", "plural_name": "Bars", "icon": {"prefix": "https://ss3.4sqi.net/img/categories_v2/nightlife/pub_", "suffix": ".png"}}], "chains": [], "closed_bucket": "VeryLikelyOpen", "distance": 923, "geocodes": {"main": {"latitude": 55.855794, "longitude": -4.289411}}, "link": "/v3/places/5defe9dfe7ffb000089f41f5", "location": {"admin_region": "Scotland", "country": "GB", "cross_street": "", "formatted_address": "G51 1TJ", "post_town": "Glasgow", "postcode": "G51 1TJ"}, "name": "Bar at the Village", "related_places": {}, "timezone": "Europe/London"}, {"fsq_id": "40ca72ac987b4d4d0e03b3c7", "categories": [{"id": 13145, "name": "Fast Food Restaurant", "short_name": "Fast Food", "plural_name": "Fast Food Restaurants", "icon": {"prefix": "https://ss3.4sqi.net/img/categories_v2/food/fastfood_", "suffix": ".png"}}], "chains": [{"id": "2fcee510-9c63-0132-6632-3c15c2dde6c8", "name": "Chicken Cottage"}], "closed_bucket": "Unsure", "distance": 313, "geocodes": {"drop_off": {"latitude": 55.851636, "longitude": -4.296513}, "main": {"latitude": 55.851489, "longitude": -4.296496}, "roof": {"latitude": 55.851489, "longitude": -4.296496}}, "link": "/v3/places/40ca72ac987b4d4d0e03b3c7", "location": {"address": "404-406 Paisley Rd West", "admin_region": "Scotland", "country": "GB", "formatted_address": "404-406 Paisley Rd West, Glasgow, G51 1BE", "locality": "Glasgow", "post_town": "Glasgow", "postcode": "G51 1BE"}, "name": "Chicken Cottage", "related_places": {}}, {"fsq_id": "3603220ad39840e17b3ae177", "categories": [{"id": 13051, "name": "Fish and Chips Shop", "short_name": "Fish and Chips Shop", "plural_name": "Fish and Chips Shops", "icon": {"prefix": "https://ss3.4sqi.net/img/categories_v2/food/fishandchips_", "suffix": ".png"}}], "chains": [], "closed_bucket": "LikelyOpen", "distance": 328, "geocodes": {"drop_off": {"latitude": 55.852237, "longitude": -4.296916}, "main": {"latitude": 55.852217, "longitude": -4.296659}, "roof": {"latitude": 55.852217, "longitude": -4.296659}}, "link": "/v3/places/3603220ad39840e17b3ae177", "location": {"address": "352 Paisley Rd West", "admin_region": "Scotland", "country": "GB", "formatted_address": "352 Paisley Rd West, Glasgow, G51 1BG", "locality": "Glasgow", "post_town": "Glasgow", "postcode": "G51 1BG"}, "name": "Tartan", "related_places": {}}, {"fsq_id": "a8dc5352234344e9ee01a5cc", "categories": [{"id": 13051, "name": "Fish and Chips Shop", "short_name": "Fish and Chips Shop", "plural_name": "Fish and Chips Shops", "icon": {"prefix": "https://ss3.4sqi.net/img/categories_v2/food/fishandchips_", "suffix": ".png"}}], "chains": [], "closed_bucket": "Unsure", "distance": 395, "geocodes": {"drop_off": {"latitude": 55.854455, "longitude": -4.300446}, "main": {"latitude": 55.854519, "longitude": -4.300621}, "roof": {"latitude": 55.854519, "longitude": -4.300621}}, "link": "/v3/places/a8dc5352234344e9ee01a5cc", "location": {"address": "105 Whitefield Rd", "admin_region": "Scotland", "country": "GB", "formatted_address": "105 Whitefield Rd, Glasgow, G51 2SD", "locality": "Glasgow", "post_town": "Glasgow", "postcode": "G51 2SD"}, "name": "P & E Mcconnachie", "related_places": {}}, {"fsq_id": "92e0f28cde9147e2ab219a20", "categories": [{"id": 13022, "name": "Sports Bar", "short_name": "Sports Bar", "plural_name": "Sports Bars", "icon": {"prefix": "https://ss3.4sqi.net/img/categories_v2/nightlife/sportsbar_", "suffix": ".png"}}], "chains": [], "closed_bucket": "LikelyOpen", "distance": 421, "geocodes": {"drop_off": {"latitude": 55.854631, "longitude": -4.304287}, "main": {"latitude": 55.854479, "longitude": -4.304089}, "roof": {"latitude": 55.854479, "longitude": -4.304089}}, "link": "/v3/places/92e0f28cde9147e2ab219a20", "location": {"address": "111 Copland Rd", "admin_region": "Scotland", "country": "GB", "formatted_address": "111 Copland Rd, Glasgow, G51 2SL", "locality": "Glasgow", "post_town": "Glasgow", "postcode": "G51 2SL"}, "name": "Ibrox Stadium - More Than a Pub", "related_places": {}}], "context": {"geo_bounds": {"circle": {"center": {"latitude": 55.850987, "longitude": -4.301448}, "radius": 1000}}}}