{"results": [{"fsq_id": "511548c6e4b042c2675e0e49", "categories": [{"id": 13064, "name": "Pizzeria", "short_name": "Pizza", "plural_name": "Pizzerias", "icon": {"prefix": "https://ss3.4sqi.net/img/categories_v2/food/pizza_", "suffix": ".png"}}, {"id": 13236, "name": "Italian Restaurant", "short_name": "Italian", "plural_name": "Italian Restaurants", "icon": {"prefix": "https://ss3.4sqi.net/img/categories_v2/food/italian_", "suffix": ".png"}}], "chains": [], "closed_bucket": "LikelyOpen", "distance": 120, "geocodes": {"main": {"latitude": 55.84584, "longitude": -4.334272}, "roof": {"latitude": 55.84584, "longitude": -4.334272}}, "link": "/v3/places/511548c6e4b042c2675e0e49", "location": {"address": "597 Mosspark Boulevard", "admin_region": "Scotland", "country": "GB", "cross_street": "", "formatted_address": "597 Mosspark Boulevard, Glasgow, G52 1SB", "locality": "Glasgow", "post_town": "Glasgow", "postcode": "G52 1SB"}, "name": "Bella Vita", "related_places": {}, "timezone": "Europe/London"}, {"fsq_id": "4bd2bc469854d13a5940fc4d", "categories": [{"id": 13064, "name": "Pizzeria", "short_name": "Pizza", "plural_name": "Pizzerias", "icon": {"prefix": "https://ss3.4sqi.net/img/categories_v2/food/pizza_", "suffix": ".png"}}, {"id": 13145, "name": "Fast Food Restaurant", "short_name": "Fast Food", "plural_name": "Fast Food Restaurants", "icon": {"prefix": "https://ss3.4sqi.net/img/categories_v2/food/fastfood_", "suffix": ".png"}}], "chains": [{"id": "ab4afc60-d68a-012e-5619-003048cad9da", "name": "Domino's Pizza"}], "closed_bucket": "VeryLikelyOpen", "distance": 920, "geocodes": {"main": {"latitude": 55.854816, "longitude": -4.331229}, "roof": {"latitude": 55.854816, "longitude": -4.331229}}, "link": "/v3/places/4bd2bc469854d13a5940fc4d", "location": {"address": "250 Drumoyne Rd", "address_extended": "Unit 3", "admin_region": "Scotland", "country": "GB", "cross_street": "147 - 163 Shieldhall Rd", "formatted_address": "250 Drumoyne Rd (147 - 163 Shieldhall Rd), Glasgow, Glasgow City, G51 4BH", "locality": "Glasgow", "post_town": "Glasgow", "postcode": "G51 4BH", "region": "Glasgow City"}, "name": "Domino's Pizza", "related_places": {}, "timezone": "Europe/London"}, {"fsq_id": "4c4c1b04c668e21eb95305fb", "categories": [{"id": 13039, "name": "Deli", "short_name": "Deli", "plural_name": "Delis", "icon": {"prefix": "https://ss3.4sqi.net/img/categories_v2/food/deli_", "suffix": ".png"}}, {"id": 13145, "name": "Fast Food Restaurant", "short_name": "Fast Food", "plural_name": "Fast Food Restaurants", "icon": {"prefix": "https://ss3.4sqi.net/img/categories_v2/food/fastfood_", "suffix": ".png"}}, {"id": 13334, "name": "Sandwich Spot", "short_name": "Sandwich Spot", "plural_name": "Sandwich Spots", "icon": {"prefix": "https://ss3.4sqi.net/img/categories_v2/food/deli_", "suffix": ".png"}}], "chains": [{"id": "ab4bee40-d68a-012e-5619-003048cad9da", "name": "Subway"}], "closed_bucket": "VeryLikelyOpen", "distance": 707, "geocodes": {"main": {"latitude": 55.845696, "longitude": -4.344082}, "roof": {"latitude": 55.845696, "longitude": -4.344082}}, "link": "/v3/places/4c4c1b04c668e21eb95305fb", "location": {"address": "1832 Paisley Rd West", "admin_region": "Scotland", "country": "GB", "formatted_address": "1832 Paisley Rd West, Glasgow, G52 3TW", "locality": "Glasgow", "post_town": "Glasgow", "postcode": "G52 3TW"}, "name": "Subway", "related_places": {}, "timezone": "Europe/London"}, {"fsq_id": "4daed0710cb65a8b0d21844b", "categories": [{"id": 13051, "name": "Fish and Chips Shop", "short_name": "Fish and Chips Shop", "plural_name": "Fish and Chips Shops", "icon": {"prefix": "https://ss3.4sqi.net/img/categories_v2/food/fishandchips_", "suffix": ".png"}}, {"id": 13145, "name": "Fast Food Restaurant", "short_name": "Fast Food", "plural_name": "Fast Food Restaurants", "icon": {"prefix": "https://ss3.4sqi.net/img/categories_v2/food/fastfood_", "suffix": ".png"}}], "chains": [], "closed_bucket": "LikelyOpen", "distance": 83, "geocodes": {"main": {"latitude": 55.845889, "longitude": -4.334344}, "roof": {"latitude": 55.845889, "longitude": -4.334344}}, "link": "/v3/places/4daed0710cb65a8b0d21844b", "location": {"address": "595 Mosspark Boulevard", "admin_region": "Scotland", "country": "GB", "cross_street": "", "formatted_address": "595 Mosspark Boulevard, Glasgow, G52 1SB", "locality": "Glasgow", "post_town": "Glasgow", "postcode": "G52 1SB"}, "name": "Boulevard Fish Bar", "related_places": {}, "timezone": "Europe/London"}, {"fsq_id": "511d3cd2e4b0732c16476fb9", "categories": [{"id": 13099, "name": "Chinese Restaurant", "short_name": "Chinese", "plural_name": "Chinese Restaurants", "icon": {"prefix": "https://ss3.4sqi.net/img/categories_v2/food/asian_", "suffix": ".png"}}], "chains": [], "closed_bucket": "LikelyOpen", "distance": 84, "geocodes": {"main": {"latitude": 55.846386, "longitude": -4.331205}, "roof": {"latitude": 55.846386, "longitude": -4.331205}}, "link": "/v3/places/511d3cd2e4b0732c16476fb9", "location": {"address": "1471 Paisley Rd West", "admin_region": "Scotland", "country": "GB", "cross_street": "", "formatted_address": "1471 Paisley Rd West, Glasgow, G52 1SH", "locality": "Glasgow", "post_town": "Glasgow", "postcode": "G52 1SH"}, "name": "Yeeman", "related_places": {}, "timezone": "Europe/London"}, {"fsq_id": "6a73bcf1ce524af79db82d6a", "categories": [{"id": 13068, "name": "American Restaurant", "short_name": "American", "plural_name": "American Restaurants", "icon": {"prefix": "https://ss3.4sqi.net/img/categories_v2/food/default_", "suffix": ".png"}}, {"id": 13145, "name": "Fast Food Restaurant", "short_name": "Fast Food", "plural_name": "Fast Food Restaurants", "icon": {"prefix": "https://ss3.4sqi.net/img/categories_v2/food/fastfood_", "suffix": ".png"}}, {"id": 13199, "name": "Indian Restaurant", "short_name": "Indian", "plural_name": "Indian Restaurants", "icon": {"prefix": "https://ss3.4sqi.net/img/categories_v2/food/indian_", "suffix": ".png"}}], "chains": [], "closed_bucket": "LikelyOpen", "distance": 106, "geocodes": {"drop_off": {"latitude": 55.84663, "longitude": -4.331098}, "main": {"latitude": 55.846707, "longitude": -4.331111}, "roof": {"latitude": 55.846707, "longitude": -4.331111}}, "link": "/v3/places/6a73bcf1ce524af79db82d6a", "location": {"address": "1456 Paisley Rd West", "admin_region": "Scotland", "country": "GB", "formatted_address": "1456 Paisley Rd West, Glasgow, G52 1SR", "locality": "Glasgow", "post_town": "Glasgow", "postcode": "G52 1SR"}, "name": "Khan Babas", "related_places": {}, "timezone": "Europe/London"}, {"fsq_id": "7bda4ebdd0344894b1487649", "categories": [{"id": 13199, "name": "Indian Restaurant", "short_name": "Indian", "plural_name": "Indian Restaurants", "icon": {"prefix": "https://ss3.4sqi.net/img/categories_v2/food/indian_", "suffix": ".png"}}], "chains": [], "closed_bucket": "LikelyOpen", "distance": 106, "geocodes": {"drop_off": {"latitude": 55.84663, "longitude": -4.331098}, "main": {"latitude": 55.846707, "longitude": -4.331111}, "roof": {"latitude": 55.846707, "longitude": -4.331111}}, "link": "/v3/places/7bda4ebdd0344894b1487649", "location": {"address": "1456 Paisley Rd West", "admin_region": "Scotland", "country": "GB", "formatted_address": "1456 Paisley Rd West, Glasgow, Glasgow City, G52 1SR", "locality": "Glasgow", "post_town": "Glasgow", "postcode": "G52 1SR", "region": "Glasgow City"}, "name": "Ayaan's", "related_places": {}, "timezone": "Europe/London"}, {"fsq_id": "5b9665fb033693002ca5d117", "categories": [{"id": 13027, "name": "Bistro", "short_name": "Bistro", "plural_name": "Bistros", "icon": {"prefix": "https://ss3.4sqi.net/img/categories_v2/food/default_", "suffix": ".png"}}, {"id": 13034, "name": "Caf\u00e9", "short_name": "Caf\u00e9", "plural_name": "Caf\u00e9s", "icon": {"prefix": "https://ss3.4sqi.net/img/categories_v2/food/cafe_", "suffix": ".png"}}, {"id": 13035, "name": "Coffee Shop", "short_name": "Coffee Shop", "plural_name": "Coffee Shops", "icon": {"prefix": "https://ss3.4sqi.net/img/categories_v2/food/coffeeshop_", "suffix": ".png"}}], "chains": [], "closed_bucket": "VeryLikelyOpen", "distance": 107, "geocodes": {"main": {"latitude": 55.845646, "longitude": -4.333986}, "roof": {"latitude": 55.845646, "longitude": -4.333986}}, "link": "/v3/places/5b9665fb033693002ca5d117", "location": {"address": "583 Mosspark Boulevard", "admin_region": "Scotland", "country": "GB", "cross_street": "", "formatted_address": "583 Mosspark Boulevard, Glasgow, Glasgow City, G52 1SB", "locality": "Glasgow", "post_town": "Glasgow", "postcode": "G52 1SB", "region": "Glasgow City"}, "name": "Rawlings - love to eat", "related_places": {}, "timezone": "Europe/London"}, {"fsq_id": "50a75c7ae4b00340960871f1", "categories": [{"id": 13039, "name": "Deli", "short_name": "Deli", "plural_name": "Delis", "icon": {"prefix": "https://ss3.4sqi.net/img/categories_v2/food/deli_", "suffix": ".png"}}], "chains": [], "closed_bucket": "VeryLikelyOpen", "distance": 526, "geocodes": {"main": {"latitude": 55.848758, "longitude": -4.325708}, "roof": {"latitude": 55.848758, "longitude": -4.325708}}, "link": "/v3/places/50a75c7ae4b00340960871f1", "location": {"country": "GB", "cross_street": "", "formatted_address": ""}, "name": "Macphee's Sandwich Bar & Deli", "related_places": {}, "timezone": "Europe/London"}, {"fsq_id": "951563b5a45a42b1a2f08fa4", "categories": [{"id": 13065, "name": "Restaurant", "short_name": "Restaurant", "plural_name": "Restaurants", "icon": {"prefix": "https://ss3.4sqi.net/img/categories_v2/food/default_", "suffix": ".png"}}], "chains": [], "closed_bucket": "VeryLikelyOpen", "distance": 587, "geocodes": {"drop_off": {"latitude": 55.84559, "longitude": -4.342016}, "main": {"latitude": 55.845447, "longitude": -4.342006}, "roof": {"latitude": 55.845447, "longitude": -4.342006}}, "link": "/v3/places/951563b5a45a42b1a2f08fa4", "location": {"address": "1781 Paisley Rd West", "admin_region": "Scotland", "country": "GB", "formatted_address": "1781 Paisley Rd West, Glasgow, Glasgow City, G52 3SS", "locality": "Glasgow", "post_town": "Glasgow", "postcode": "G52 3SS", "region": "Glasgow City"}, "name": "Golden House", "related_places": {}, "timezone": "Europe/London"}, {"fsq_id": "a59d7d7a149343bff5fc4fc9", "categories": [{"id": 13145, "name": "Fast Food Restaurant", "short_name": "Fast Food", "plural_name": "Fast Food Restaurants", "icon": {"prefix": "https://ss3.4sqi.net/img/categories_v2/food/fastfood_", "suffix": ".png"}}], "chains": [], "closed_bucket": "Unsure", "distance": 594, "geocodes": {"main": {"latitude": 55.845441, "longitude": -4.342111}, "roof": {"latitude": 55.845441, "longitude": -4.342111}}, "link": "/v3/places/a59d7d7a149343bff5fc4fc9", "location": {"address": "1783 Paisley Rd West", "admin_region": "Scotland", "country": "GB", "formatted_address": "1783 Paisley Rd West, Glasgow, G52 3SS", "locality": "Glasgow", "post_town": "Glasgow", "postcode": "G52 3SS"}, "name": "Chilli's", "related_places": {}, "timezone": "Europe/London"}, {"fsq_id": "58811efe266c11339c59bb55", "categories": [{"id": 13065, "name": "Restaurant", "short_name": "Restaurant", "plural_name": "Restaurants", "icon": {"prefix": "https://ss3.4sqi.net/img/categories_v2/food/default_", "suffix": ".png"}}], "chains": [], "closed_bucket": "VeryLikelyOpen", "distance": 709, "geocodes": {"main": {"latitude": 55.845386, "longitude": -4.343966}, "roof": {"latitude": 55.845386, "longitude": -4.343966}}, "link": "/v3/places/58811efe266c11339c59bb55", "location": {"address": "1835 Paisley Rd West", "admin_region": "Scotland", "country": "GB", "cross_street": "", "formatted_address": "1835 Paisley Rd West, Glasgow, G52 3SX", "locality": "Glasgow", "post_town": "Glasgow", "postcode": "G52 3SX"}, "name": "Jist Misto", "related_places": {}, "timezone": "Europe/London"}, {"fsq_id": "4e7901d9c65b010445926757", "categories": [{"id": 13051, "name": "Fish and Chips Shop", "short_name": "Fish and Chips Shop", "plural_name": "Fish and Chips Shops", "icon": {"prefix": "https://ss3.4sqi.net/img/categories_v2/food/fishandchips_", "suffix": ".png"}}, {"id": 13145, "name": "Fast Food Restaurant", "short_name": "Fast Food", "plural_name": "Fast Food Restaurants", "icon": {"prefix": "https://ss3.4sqi.net/img/categories_v2/food/fastfood_", "suffix": ".png"}}], "chains": [], "closed_bucket": "VeryLikelyOpen", "distance": 729, "geocodes": {"main": {"latitude": 55.845374, "longitude": -4.344176}, "roof": {"latitude": 55.845374, "longitude": -4.344176}}, "link": "/v3/places/4e7901d9c65b010445926757", "location": {"address": "1839 Paisley Rd West", "admin_region": "Scotland", "country": "GB", "formatted_address": "1839 Paisley Rd West, Glasgow, G52 3SX", "locality": "Glasgow", "post_town": "Glasgow", "postcode": "G52 3SX"}, "name": "Sammie's", "related_places": {}, "timezone": "Europe/London"}, {"fsq_id": "4c812d772f1c236a573a2d43", "categories": [{"id": 13145, "name": "Fast Food Restaurant", "short_name": "Fast Food", "plural_name": "Fast Food Restaurants", "icon": {"prefix": "https://ss3.4sqi.net/img/categories_v2/food/fastfood_", "suffix": ".png"}}, {"id": 13199, "name": "Indian Restaurant", "short_name": "Indian", "plural_name": "Indian Restaurants", "icon": {"prefix": "https://ss3.4sqi.net/img/categories_v2/food/indian_", "suffix": ".png"}}], "chains": [], "closed_bucket": "VeryLikelyOpen", "distance": 734, "geocodes": {"main": {"latitude": 55.845368, "longitude": -4.344281}, "roof": {"latitude": 55.845368, "longitude": -4.344281}}, "link": "/v3/places/4c812d772f1c236a573a2d43", "location": {"address": "1847 Paisley Rd West", "admin_region": "Scotland", "country": "GB", "cross_street": "Cardonald", "formatted_address": "1847 Paisley Rd West (Cardonald), Glasgow, Glasgow City, G52 3SX", "locality": "Glasgow", "post_town": "Glasgow", "postcode": "G52 3SX", "region": "Glasgow City"}, "name": "Spicey Hut", "related_places": {}, "timezone": "Europe/London"}, {"fsq_id": "09a4c1ddb34d61f1e46f77f4", "categories": [{"id": 13065, "name": "Restaurant", "short_name": "Restaurant", "plural_name": "Restaurants", "icon": {"prefix": "https://ss3.4sqi.net/img/categories_v2/food/default_", "suffix": ".png"}}], "chains": [], "closed_bucket": "LikelyOpen", "distance": 735, "geocodes": {"drop_off": {"latitude": 55.84546, "longitude": -4.344323}, "main": {"latitude": 55.845156, "longitude": -4.34431}, "roof": {"latitude": 55.845156, "longitude": -4.34431}}, "link": "/v3/places/09a4c1ddb34d61f1e46f77f4", "location": {"address": "1861 Paisley Rd West", "admin_region": "Scotland", "country": "GB", "formatted_address": "1861 Paisley Rd West, Glasgow, Glasgow City, G52 3SX", "locality": "Glasgow", "post_town": "Glasgow", "postcode": "G52 3SX", "region": "Glasgow City"}, "name": "Premier - the Sidhu Family", "related_places": {}, "timezone": "Europe/London"}, {"fsq_id": "550480ff498e7c6aa589b348", "categories": [{"id": 13027, "name": "Bistro", "short_name": "Bistro", "plural_name": "Bistros", "icon": {"prefix": "https://ss3.4sqi.net/img/categories_v2/food/default_", "suffix": ".png"}}, {"id": 13142, "name": "English Restaurant", "short_name": "English", "plural_name": "English Restaurants", "icon": {"prefix": "https://ss3.4sqi.net/img/categories_v2/food/default_", "suffix": ".png"}}], "chains": [], "closed_bucket": "VeryLikelyOpen", "distance": 761, "geocodes": {"main": {"latitude": 55.844925, "longitude": -4.344653}, "roof": {"latitude": 55.844925, "longitude": -4.344653}}, "link": "/v3/places/550480ff498e7c6aa589b348", "location": {"address": "1835 Paisley Rd West", "admin_region": "Scotland", "country": "GB", "cross_street": "", "formatted_address": "1835 Paisley Rd West, Glasgow, Glasgow City, G52 3SX", "locality": "Glasgow", "post_town": "Glasgow", "postcode": "G52 3SX", "region": "Glasgow City"}, "name": "The P R", "related_places": {}, "timezone": "Europe/London"}, {"fsq_id": "4b7b2087f964a520fb522fe3", "categories": [{"id": 13003, "name": "Bar", "short_name": "Bar", "plural_name": "Bars", "icon": {"prefix": "https://ss3.4sqi.net/img/categories_v2/nightlife/pub_", "suffix": ".png"}}, {"id": 13065, "name": "Restaurant", "short_name": "Restaurant", "plural_name": "Restaurants", "icon": {"prefix": "https://ss3.4sqi.net/img/categories_v2/food/default_", "suffix": ".png"}}], "chains": [], "closed_bucket": "LikelyOpen", "distance": 803, "geocodes": {"main": {"latitude": 55.845654, "longitude": -4.345728}, "roof": {"latitude": 55.845654, "longitude": -4.345728}}, "link": "/v3/places/4b7b2087f964a520fb522fe3", "location": {"address": "1860 Paisley Rd West", "admin_region": "Scotland", "country": "GB", "cross_street": "Cardonald", "formatted_address": "1860 Paisley Rd West (Cardonald), Glasgow, Glasgow City, G52 3TN", "locality": "Glasgow", "post_town": "Glasgow", "postcode": "G52 3TN", "region": "Glasgow City"}, "name": "Quo Vadis", "related_places": {}, "timezone": "Europe/London"}, {"fsq_id": "5126654ee4b0b973c8e1b159", "categories": [{"id": 13199, "name": "Indian Restaurant", "short_name": "Indian", "plural_name": "Indian Restaurants", "icon": {"prefix": "https://ss3.4sqi.net/img/categories_v2/food/indian_", "suffix": ".png"}}], "chains": [], "closed_bucket": "VeryLikelyOpen", "distance": 838, "geocodes": {"main": {"latitude": 55.84569, "longitude": -4.346009}, "roof": {"latitude": 55.84569, "longitude": -4.346009}}, "link": "/v3/places/5126654ee4b0b973c8e1b159", "location": {"address": "1878 Paisley Rd West", "admin_region": "Scotland", "country": "GB", "cross_street": "", "formatted_address": "1878 Paisley Rd West, Glasgow, G52 3TN", "locality": "Glasgow", "post_town": "Glasgow", "postcode": "G52 3TN"}, "name": "Himalaya Tandoori", "related_places": {}, "timezone": "Europe/London"}, {"fsq_id": "5ce09e0980ea489381a7f0b2", "categories": [{"id": 13145, "name": "Fast Food Restaurant", "short_name": "Fast Food", "plural_name": "Fast Food Restaurants", "icon": {"prefix": "https://ss3.4sqi.net/img/categories_v2/food/fastfood_", "suffix": ".png"}}], "chains": [], "closed_bucket": "LikelyOpen", "distance": 893, "geocodes": {"main": {"latitude": 55.838623, "longitude": -4.335128}, "roof": {"latitude": 55.838623, "longitude": -4.335128}}, "link": "/v3/places/5ce09e0980ea489381a7f0b2", "location": {"address": "290 Corkerhill Rd", "admin_region": "Scotland", "country": "GB", "formatted_address": "290 Corkerhill Rd, Glasgow, G52 1TQ", "locality": "Glasgow", "post_town": "Glasgow", "postcode": "G52 1TQ"}, "name": "Aliyans Takeaway", "related_places": {}, "timezone": "Europe/London"}, {"fsq_id": "4fe49fc8e4b05cb8d2c2e129", "categories": [{"id": 13145, "name": "Fast Food Restaurant", "short_name": "Fast Food", "plural_name": "Fast Food Restaurants", "icon": {"prefix": "https://ss3.4sqi.net/img/categories_v2/food/fastfood_", "suffix": ".png"}}, {"id": 13199, "name": "Indian Restaurant", "short_name": "Indian", "plural_name": "Indian Restaurants", "icon": {"prefix": "https://ss3.4sqi.net/img/categories_v2/food/indian_", "suffix": ".png"}}], "chains": [], "closed_bucket": "VeryLikelyOpen", "distance": 918, "geocodes": {"main": {"latitude": 55.854816, "longitude": -4.331229}, "roof": {"latitude": 55.854816, "longitude": -4.331229}}, "link": "/v3/places/4fe49fc8e4b05cb8d2c2e129", "location": {"address": "147 Shieldhall Rd", "admin_region": "Scotland", "country": "GB", "cross_street": "", "formatted_address": "147 Shieldhall Rd, Glasgow, Glasgow City, G51 4EH", "locality": "Glasgow", "post_town": "Glasgow", "postcode": "G51 4EH", "region": "Glasgow City"}, "name": "Papa Ali", "related_places": {}, "timezone": "Europe/London"}, {"fsq_id": "4bb770e3941ad13a43aa20e3", "categories": [{"id": 13199, "name": "Indian Restaurant", "short_name": "Indian", "plural_name": "Indian Restaurants", "icon": {"prefix": "https://ss3.4sqi.net/img/categories_v2/food/indian_", "suffix": ".png"}}], "chains": [], "closed_bucket": "VeryLikelyOpen", "distance": 927, "geocodes": {"main": {"latitude": 55.848215, "longitude": -4.317735}, "roof": {"latitude": 55.848215, "longitude": -4.317735}}, "link": "/v3/places/4bb770e3941ad13a43aa20e3", "location": {"address": "Bellahouston Cottage", "admin_region": "Scotland", "country": "GB", "formatted_address": "Bellahouston Cottage, Glasgow, Glasgow City, G52 1EQ", "locality": "Glasgow", "post_town": "Glasgow", "postcode": "G52 1EQ", "region": "Glasgow City"}, "name": "Village in the Park", "related_places": {}, "timezone": "Europe/London"}, {"fsq_id": "7e7a78024ab2471e5fb848e9", "categories": [{"id": 13065, "name": "Restaurant", "short_name": "Restaurant", "plural_name": "Restaurants", "icon": {"prefix": "https://ss3.4sqi.net/img/categories_v2/food/default_", "suffix": ".png"}}], "chains": [], "closed_bucket": "VeryLikelyOpen", "distance": 928, "geocodes": {"main": {"latitude": 55.854931, "longitude": -4.331057}, "roof": {"latitude": 55.854931, "longitude": -4.331057}}, "link": "/v3/places/7e7a78024ab2471e5fb848e9", "location": {"address": "250 Drumoyne Rd Govan", "admin_region": "Scotland", "country": "GB", "formatted_address": "250 Drumoyne Rd Govan, Glasgow, Glasgow City", "locality": "Glasgow", "post_town": "Glasgow", "region": "Glasgow City"}, "name": "Black Rooster - Govan", "related_places": {}, "timezone": "Europe/London"}, {"fsq_id": "509d40c6e4b0c4d83b5c3cab", "categories": [{"id": 13099, "name": "Chinese Restaurant", "short_name": "Chinese", "plural_name": "Chinese Restaurants", "icon": {"prefix": "https://ss3.4sqi.net/img/categories_v2/food/asian_", "suffix": ".png"}}, {"id": 13145, "name": "Fast Food Restaurant", "short_name": "Fast Food", "plural_name": "Fast Food Restaurants", "icon": {"prefix": "https://ss3.4sqi.net/img/categories_v2/food/fastfood_", "suffix": ".png"}}], "chains": [], "closed_bucket": "LikelyOpen", "distance": 929, "geocodes": {"main": {"latitude": 55.85481, "longitude": -4.331334}, "roof": {"latitude": 55.85481, "longitude": -4.331334}}, "link": "/v3/places/509d40c6e4b0c4d83b5c3cab", "location": {"address": "163 Shieldhall Rd", "admin_region": "Scotland", "country": "GB", "formatted_address": "163 Shieldhall Rd, Glasgow, G51 4DJ", "locality": "Glasgow", "post_town": "Glasgow", "postcode": "G51 4DJ"}, "name": "Wok N Chef", "related_places": {}, "timezone": "Europe/London"}, {"fsq_id": "fcca4f1e49b045c3a3052d92", "categories": [{"id": 13065, "name": "Restaurant", "short_name": "Restaurant", "plural_name": "Restaurants", "icon": {"prefix": "https://ss3.4sqi.net/img/categories_v2/food/default_", "suffix": ".png"}}], "chains": [], "closed_bucket": "LikelyOpen", "distance": 584, "geocodes": {"drop_off": {"latitude": 55.845593, "longitude": -4.341979}, "main": {"latitude": 55.845501, "longitude": -4.341972}, "roof": {"latitude": 55.845501, "longitude": -4.341972}}, "link": "/v3/places/fcca4f1e49b045c3a3052d92", "location": {"address": "1781 Paisley Rd West", "admin_region": "Scotland", "country": "GB", "formatted_address": "1781 Paisley Rd West, Glasgow", "locality": "Glasgow", "post_town": "Glasgow"}, "name": "178 Chinese takeaway", "related_places": {}}, {"fsq_id": "036383a499314fddcbf8751b", "categories": [{"id": 13035, "name": "Coffee Shop", "short_name": "Coffee Shop", "plural_name": "Coffee Shops", "icon": {"prefix": "https://ss3.4sqi.net/img/categories_v2/food/coffeeshop_", "suffix": ".png"}}, {"id": 13065, "name": "Restaurant", "short_name": "Restaurant", "plural_name": "Restaurants", "icon": {"prefix": "https://ss3.4sqi.net/img/categories_v2/food/default_", "suffix": ".png"}}], "chains": [], "closed_bucket": "LikelyOpen", "distance": 916, "geocodes": {"drop_off": {"latitude": 55.848484, "longitude": -4.318563}, "main": {"latitude": 55.84864, "longitude": -4.31859}, "roof": {"latitude": 55.84864, "longitude": -4.31859}}, "link": "/v3/places/036383a499314fddcbf8751b", "location": {"address": "1005 Paisley Rd West", "admin_region": "Scotland", "country": "GB", "formatted_address": "1005 Paisley Rd West, Glasgow, G52 1EQ", "locality": "Glasgow", "post_town": "Glasgow", "postcode": "G52 1EQ"}, "name": "Exhale Launch", "related_places": {}}, {"fsq_id": "3a40a459ebbb481cea1fffb9", "categories": [{"id": 13031, "name": "Burger Joint", "short_name": "Burgers", "plural_name": "Burger Joints", "icon": {"prefix": "https://ss3.4sqi.net/img/categories_v2/food/burger_", "suffix": ".png"}}, {"id": 13145, "name": "Fast Food Restaurant", "short_name": "Fast Food", "plural_name": "Fast Food Restaurants", "icon": {"prefix": "https://ss3.4sqi.net/img/categories_v2/food/fastfood_", "suffix": ".png"}}], "chains": [{"id": "ab4a3530-d68a-012e-5619-003048cad9da", "name": "McDonald's"}], "closed_bucket": "VeryLikelyOpen", "distance": 984, "geocodes": {"main": {"latitude": 55.851426, "longitude": -4.319624}, "roof": {"latitude": 55.851426, "longitude": -4.319624}}, "link": "/v3/places/3a40a459ebbb481cea1fffb9", "location": {"address": "530 Helen St", "admin_region": "Scotland", "country": "GB", "formatted_address": "530 Helen St, Glasgow, G51 3HR", "locality": "Glasgow", "post_town": "Glasgow", "postcode": "G51 3HR"}, "name": "McDonald's", "related_places": {}}], "context": {"geo_bounds": {"circle": {"center": {"latitude": 55.846552, "longitude": -4.332797}, "radius": 1000}}}}