{"results": [{"fsq_id": "4b58d626f964a520d56d28e3", "categories": [{"id": 13003, "name": "Bar", "short_name": "Bar", "plural_name": "Bars", "icon": {"prefix": "https://ss3.4sqi.net/img/categories_v2/nightlife/pub_", "suffix": ".png"}}, {"id": 13337, "name": "Scottish Restaurant", "short_name": "Scottish", "plural_name": "Scottish Restaurants", "icon": {"prefix": "https://ss3.4sqi.net/img/categories_v2/food/default_", "suffix": ".png"}}], "chains": [], "closed_bucket": "Unsure", "distance": 855, "geocodes": {"main": {"latitude": 55.874909, "longitude": -4.29323}, "roof": {"latitude": 55.874909, "longitude": -4.29323}}, "link": "/v3/places/4b58d626f964a520d56d28e3", "location": {"address": "12 Ashton Lane", "admin_region": "Scotland", "country": "GB", "cross_street": "", "formatted_address": "12 Ashton Lane, Glasgow, Glasgow City, G12 8SJ", "locality": "Glasgow", "post_town": "Glasgow", "postcode": "G12 8SJ", "region": "Glasgow City"}, "name": "Ubiquitous Chip", "related_places": {}, "timezone": "Europe/London"}, {"fsq_id": "4b742075f964a52017c92de3", "categories": [{"id": 13035, "name": "Coffee Shop", "short_name": "Coffee Shop", "plural_name": "Coffee Shops", "icon": {"prefix": "https://ss3.4sqi.net/img/categories_v2/food/coffeeshop_", "suffix": ".png"}}, {"id": 13039, "name": "Deli", "short_name": "Deli", "plural_name": "Delis", "icon": {"prefix": "https://ss3.4sqi.net/img/categories_v2/food/deli_", "suffix": ".png"}}], "chains": [], "closed_bucket": "Unsure", "distance": 765, "geocodes": {"main": {"latitude": 55.87369, "longitude": -4.29519}, "roof": {"latitude": 55.87369, "longitude": -4.29519}}, "link": "/v3/places/4b742075f964a52017c92de3", "location": {"address": "134 Byres Rd", "admin_region": "Scotland", "country": "GB", "cross_street": "", "formatted_address": "134 Byres Rd, Glasgow, Glasgow City, G12 8TD", "locality": "Glasgow", "post_town": "Glasgow", "postcode": "G12 8TD", "region": "Glasgow City"}, "name": "Kember & Jones", "related_places": {}, "timezone": "Europe/London"}, {"fsq_id": "54c61ff3498ec3e20f6a64b2", "categories": [{"id": 13035, "name": "Coffee Shop", "short_name": "Coffee Shop", "plural_name": "Coffee Shops", "icon": {"prefix": "https://ss3.4sqi.net/img/categories_v2/food/coffeeshop_", "suffix": ".png"}}, {"id": 13065, "name": "Restaurant", "short_name": "Restaurant", "plural_name": "Restaurants", "icon": {"prefix": "https://ss3.4sqi.net/img/categories_v2/food/default_", "suffix": ".png"}}], "chains": [], "closed_bucket": "LikelyOpen", "distance": 959, "geocodes": {"main": {"latitude": 55.870559, "longitude": -4.316758}, "roof": {"latitude": 55.870559, "longitude": -4.316758}}, "link": "/v3/places/54c61ff3498ec3e20f6a64b2", "location": {"address": "579 Dumbarton Rd", "admin_region": "Scotland", "country": "GB", "cross_street": "Meadow Rd", "formatted_address": "579 Dumbarton Rd (Meadow Rd), Glasgow, Glasgow City, G11 6HY", "locality": "Glasgow", "post_town": "Glasgow", "postcode": "G11 6HY", "region": "Glasgow City"}, "name": "Meadow Road Coffee", "related_places": {}, "timezone": "Europe/London"}, {"fsq_id": "5e3b37ed1c6a1c0008af933c", "categories": [{"id": 13072, "name": "Asian Restaurant", "short_name": "Asian", "plural_name": "Asian Restaurants", "icon": {"prefix": "https://ss3.4sqi.net/img/categories_v2/food/asian_", "suffix": ".png"}}], "chains": [], "closed_bucket": "VeryLikelyOpen", "distance": 984, "geocodes": {"drop_off": {"latitude": 55.877296, "longitude": -4.290347}, "main": {"latitude": 55.877133, "longitude": -4.290249}, "roof": {"latitude": 55.877133, "longitude": -4.290249}}, "link": "/v3/places/5e3b37ed1c6a1c0008af933c", "location": {"address": "Botanic Gardens Garage", "admin_region": "Scotland", "country": "GB", "cross_street": "", "formatted_address": "Botanic Gardens Garage, Glasgow, Glasgow City, G12 8BE", "locality": "Glasgow", "post_town": "Glasgow", "postcode": "G12 8BE", "region": "Glasgow City"}, "name": "Ka Pao", "related_places": {}, "timezone": "Europe/London"}, {"fsq_id": "4bae7badf964a520feb73be3", "categories": [{"id": 13065, "name": "Restaurant", "short_name": "Restaurant", "plural_name": "Restaurants", "icon": {"prefix": "https://ss3.4sqi.net/img/categories_v2/food/default_", "suffix": ".png"}}], "chains": [], "closed_bucket": "Unsure", "distance": 759, "geocodes": {"main": {"latitude": 55.875279, "longitude": -4.294118}, "roof": {"latitude": 55.875279, "longitude": -4.294118}}, "link": "/v3/places/4bae7badf964a520feb73be3", "location": {"address": "11 Ruthven Lane", "admin_region": "Scotland", "country": "GB", "cross_street": "Hillhead", "formatted_address": "11 Ruthven Lane (Hillhead), Glasgow, Glasgow City, G12 9BG", "locality": "Glasgow", "post_town": "Glasgow", "postcode": "G12 9BG", "region": "Glasgow City"}, "name": "The Bothy", "related_places": {}, "timezone": "Europe/London"}, {"fsq_id": "5635275a498e569169b27825", "categories": [{"id": 13145, "name": "Fast Food Restaurant", "short_name": "Fast Food", "plural_name": "Fast Food Restaurants", "icon": {"prefix": "https://ss3.4sqi.net/img/categories_v2/food/fastfood_", "suffix": ".png"}}, {"id": 13289, "name": "Korean Restaurant", "short_name": "Korean", "plural_name": "Korean Restaurants", "icon": {"prefix": "https://ss3.4sqi.net/img/categories_v2/food/korean_", "suffix": ".png"}}], "chains": [], "closed_bucket": "Unsure", "distance": 764, "geocodes": {"main": {"latitude": 55.871878, "longitude": -4.298324}, "roof": {"latitude": 55.871878, "longitude": -4.298324}}, "link": "/v3/places/5635275a498e569169b27825", "location": {"address": "14 Chancellor St", "admin_region": "Scotland", "country": "GB", "cross_street": "", "formatted_address": "14 Chancellor St, Glasgow, Glasgow City, G11 5RQ", "locality": "Glasgow", "post_town": "Glasgow", "postcode": "G11 5RQ", "region": "Glasgow City"}, "name": "Kimchi Cult", "related_places": {}, "timezone": "Europe/London"}, {"fsq_id": "50d20bc9e4b029fc6804c7a9", "categories": [{"id": 13003, "name": "Bar", "short_name": "Bar", "plural_name": "Bars", "icon": {"prefix": "https://ss3.4sqi.net/img/categories_v2/nightlife/pub_", "suffix": ".png"}}, {"id": 13065, "name": "Restaurant", "short_name": "Restaurant", "plural_name": "Restaurants", "icon": {"prefix": "https://ss3.4sqi.net/img/categories_v2/food/default_", "suffix": ".png"}}], "chains": [], "closed_bucket": "Unsure", "distance": 716, "geocodes": {"main": {"latitude": 55.871394, "longitude": -4.300342}, "roof": {"latitude": 55.871394, "longitude": -4.300342}}, "link": "/v3/places/50d20bc9e4b029fc6804c7a9", "location": {"address": "16 Dowanhill St", "admin_region": "Scotland", "country": "GB", "cross_street": "Dalcross Street", "formatted_address": "16 Dowanhill St (Dalcross Street), Glasgow, G11 5QS", "locality": "Glasgow", "post_town": "Glasgow", "postcode": "G11 5QS"}, "name": "The Sparkle Horse", "related_places": {}, "timezone": "Europe/London"}, {"fsq_id": "4c8bd7bfc37a6dcb39a4f17a", "categories": [{"id": 13199, "name": "Indian Restaurant", "short_name": "Indian", "plural_name": "Indian Restaurants", "icon": {"prefix": "https://ss3.4sqi.net/img/categories_v2/food/indian_", "suffix": ".png"}}], "chains": [], "closed_bucket": "LikelyOpen", "distance": 864, "geocodes": {"main": {"latitude": 55.87472, "longitude": -4.292838}, "roof": {"latitude": 55.87472, "longitude": -4.292838}}, "link": "/v3/places/4c8bd7bfc37a6dcb39a4f17a", "location": {"address": "29 Ashton Lane", "admin_region": "Scotland", "country": "GB", "cross_street": "", "formatted_address": "29 Ashton Lane, Glasgow, Glasgow City, G12 8SJ", "locality": "Glasgow", "post_town": "Glasgow", "postcode": "G12 8SJ", "region": "Glasgow City"}, "name": "The Wee Curry Shop", "related_places": {}, "timezone": "Europe/London"}, {"fsq_id": "540c340d498e77fa8257b91e", "categories": [{"id": 13051, "name": "Fish and Chips Shop", "short_name": "Fish and Chips Shop", "plural_name": "Fish and Chips Shops", "icon": {"prefix": "https://ss3.4sqi.net/img/categories_v2/food/fishandchips_", "suffix": ".png"}}], "chains": [], "closed_bucket": "Unsure", "distance": 888, "geocodes": {"main": {"latitude": 55.876801, "longitude": -4.292377}, "roof": {"latitude": 55.876801, "longitude": -4.292377}}, "link": "/v3/places/540c340d498e77fa8257b91e", "location": {"address": "337 Byres Rd", "admin_region": "Scotland", "country": "GB", "cross_street": "", "formatted_address": "337 Byres Rd, Glasgow, Glasgow City, G12 8UQ", "locality": "Glasgow", "post_town": "Glasgow", "postcode": "G12 8UQ", "region": "Glasgow City"}, "name": "Old Salty's", "related_places": {}, "timezone": "Europe/London"}, {"fsq_id": "4b6c0e77f964a520aa212ce3", "categories": [{"id": 13034, "name": "Caf\u00e9", "short_name": "Caf\u00e9", "plural_name": "Caf\u00e9s", "icon": {"prefix": "https://ss3.4sqi.net/img/categories_v2/food/cafe_", "suffix": ".png"}}, {"id": 13334, "name": "Sandwich Spot", "short_name": "Sandwich Spot", "plural_name": "Sandwich Spots", "icon": {"prefix": "https://ss3.4sqi.net/img/categories_v2/food/deli_", "suffix": ".png"}}], "chains": [], "closed_bucket": "Unsure", "distance": 389, "geocodes": {"main": {"latitude": 55.877819, "longitude": -4.312324}, "roof": {"latitude": 55.877819, "longitude": -4.312324}}, "link": "/v3/places/4b6c0e77f964a520aa212ce3", "location": {"address": "96 Clarence Dr", "admin_region": "Scotland", "country": "GB", "cross_street": "", "formatted_address": "96 Clarence Dr, Glasgow, Glasgow City, G12 9RN", "locality": "Glasgow", "post_town": "Glasgow", "postcode": "G12 9RN", "region": "Glasgow City"}, "name": "The Hyndland Cafe", "related_places": {}, "timezone": "Europe/London"}, {"fsq_id": "4c2deb7476a7ef3bf5e1deb8", "categories": [{"id": 13018, "name": "Pub", "short_name": "Pub", "plural_name": "Pubs", "icon": {"prefix": "https://ss3.4sqi.net/img/categories_v2/nightlife/pub_", "suffix": ".png"}}, {"id": 13065, "name": "Restaurant", "short_name": "Restaurant", "plural_name": "Restaurants", "icon": {"prefix": "https://ss3.4sqi.net/img/categories_v2/food/default_", "suffix": ".png"}}], "chains": [], "closed_bucket": "Unsure", "distance": 776, "geocodes": {"main": {"latitude": 55.874273, "longitude": -4.295138}, "roof": {"latitude": 55.874273, "longitude": -4.295138}}, "link": "/v3/places/4c2deb7476a7ef3bf5e1deb8", "location": {"address": "191 Byres Rd", "admin_region": "Scotland", "country": "GB", "cross_street": "at University Ave", "formatted_address": "191 Byres Rd (at University Ave), Glasgow, G12 8TN", "locality": "Glasgow", "post_town": "Glasgow", "postcode": "G12 8TN"}, "name": "Tennents Bar", "related_places": {}, "timezone": "Europe/London"}, {"fsq_id": "4dcc081dd4c0dfa030ddf225", "categories": [{"id": 13303, "name": "Mexican Restaurant", "short_name": "Mexican", "plural_name": "Mexican Restaurants", "icon": {"prefix": "https://ss3.4sqi.net/img/categories_v2/food/mexican_", "suffix": ".png"}}], "chains": [], "closed_bucket": "LikelyOpen", "distance": 832, "geocodes": {"main": {"latitude": 55.875685, "longitude": -4.293464}, "roof": {"latitude": 55.875685, "longitude": -4.293464}}, "link": "/v3/places/4dcc081dd4c0dfa030ddf225", "location": {"address": "263 Byres Rd", "admin_region": "Scotland", "country": "GB", "cross_street": "", "formatted_address": "263 Byres Rd, Glasgow, Glasgow City, G12 8TL", "locality": "Glasgow", "post_town": "Glasgow", "postcode": "G12 8TL", "region": "Glasgow City"}, "name": "Taco Mazama", "related_places": {}, "timezone": "Europe/London"}, {"fsq_id": "4bd595d2cfa7b7135afd25da", "categories": [{"id": 13034, "name": "Caf\u00e9", "short_name": "Caf\u00e9", "plural_name": "Caf\u00e9s", "icon": {"prefix": "https://ss3.4sqi.net/img/categories_v2/food/cafe_", "suffix": ".png"}}, {"id": 13035, "name": "Coffee Shop", "short_name": "Coffee Shop", "plural_name": "Coffee Shops", "icon": {"prefix": "https://ss3.4sqi.net/img/categories_v2/food/coffeeshop_", "suffix": ".png"}}, {"id": 13145, "name": "Fast Food Restaurant", "short_name": "Fast Food", "plural_name": "Fast Food Restaurants", "icon": {"prefix": "https://ss3.4sqi.net/img/categories_v2/food/fastfood_", "suffix": ".png"}}], "chains": [], "closed_bucket": "VeryLikelyOpen", "distance": 982, "geocodes": {"main": {"latitude": 55.87769, "longitude": -4.321928}, "roof": {"latitude": 55.87769, "longitude": -4.321928}}, "link": "/v3/places/4bd595d2cfa7b7135afd25da", "location": {"address": "322 Crow Rd", "admin_region": "Scotland", "country": "GB", "cross_street": "", "formatted_address": "322 Crow Rd, Glasgow, Glasgow City, G11 7HS", "locality": "Glasgow", "post_town": "Glasgow", "postcode": "G11 7HS", "region": "Glasgow City"}, "name": "Cafe Circa", "related_places": {}, "timezone": "Europe/London"}, {"fsq_id": "4b633169f964a5208b692ae3", "categories": [{"id": 13006, "name": "Beer Bar", "short_name": "Beer Bar", "plural_name": "Beer Bars", "icon": {"prefix": "https://ss3.4sqi.net/img/categories_v2/nightlife/pub_", "suffix": ".png"}}, {"id": 13025, "name": "Wine Bar", "short_name": "Wine Bar", "plural_name": "Wine Bars", "icon": {"prefix": "https://ss3.4sqi.net/img/categories_v2/food/winery_", "suffix": ".png"}}, {"id": 13077, "name": "Belgian Restaurant", "short_name": "Belgian", "plural_name": "Belgian Restaurants", "icon": {"prefix": "https://ss3.4sqi.net/img/categories_v2/food/default_", "suffix": ".png"}}], "chains": [], "closed_bucket": "Unsure", "distance": 863, "geocodes": {"main": {"latitude": 55.874545, "longitude": -4.293148}, "roof": {"latitude": 55.874545, "longitude": -4.293148}}, "link": "/v3/places/4b633169f964a5208b692ae3", "location": {"address": "Ashton Lane", "admin_region": "Scotland", "country": "GB", "formatted_address": "Ashton Lane, Glasgow, Glasgow City, G12 8SJ", "locality": "Glasgow", "post_town": "Glasgow", "postcode": "G12 8SJ", "region": "Glasgow City"}, "name": "Brel", "related_places": {}, "timezone": "Europe/London"}, {"fsq_id": "4b0ab14bf964a520762623e3", "categories": [{"id": 13027, "name": "Bistro", "short_name": "Bistro", "plural_name": "Bistros", "icon": {"prefix": "https://ss3.4sqi.net/img/categories_v2/food/default_", "suffix": ".png"}}, {"id": 13034, "name": "Caf\u00e9", "short_name": "Caf\u00e9", "plural_name": "Caf\u00e9s", "icon": {"prefix": "https://ss3.4sqi.net/img/categories_v2/food/cafe_", "suffix": ".png"}}, {"id": 13035, "name": "Coffee Shop", "short_name": "Coffee Shop", "plural_name": "Coffee Shops", "icon": {"prefix": "https://ss3.4sqi.net/img/categories_v2/food/coffeeshop_", "suffix": ".png"}}], "chains": [], "closed_bucket": "LikelyOpen", "distance": 759, "geocodes": {"main": {"latitude": 55.873994, "longitude": -4.29541}, "roof": {"latitude": 55.873994, "longitude": -4.29541}}, "link": "/v3/places/4b0ab14bf964a520762623e3", "location": {"address": "189 Byres Rd", "admin_region": "Scotland", "country": "GB", "cross_street": "", "formatted_address": "189 Byres Rd, Glasgow, G12 8TS", "locality": "Glasgow", "post_town": "Glasgow", "postcode": "G12 8TS"}, "name": "Tinderbox", "related_places": {}, "timezone": "Europe/London"}, {"fsq_id": "58dd2a17d772f933eaaa3755", "categories": [{"id": 13018, "name": "Pub", "short_name": "Pub", "plural_name": "Pubs", "icon": {"prefix": "https://ss3.4sqi.net/img/categories_v2/nightlife/pub_", "suffix": ".png"}}, {"id": 13029, "name": "Brewery", "short_name": "Brewery", "plural_name": "Breweries", "icon": {"prefix": "https://ss3.4sqi.net/img/categories_v2/food/brewery_", "suffix": ".png"}}, {"id": 13065, "name": "Restaurant", "short_name": "Restaurant", "plural_name": "Restaurants", "icon": {"prefix": "https://ss3.4sqi.net/img/categories_v2/food/default_", "suffix": ".png"}}], "chains": [], "closed_bucket": "Unsure", "distance": 858, "geocodes": {"drop_off": {"latitude": 55.874505, "longitude": -4.293217}, "main": {"latitude": 55.874539, "longitude": -4.293253}, "roof": {"latitude": 55.874539, "longitude": -4.293253}}, "link": "/v3/places/58dd2a17d772f933eaaa3755", "location": {"address": "44-46 Ashton Ln", "admin_region": "Scotland", "country": "GB", "cross_street": "", "formatted_address": "44-46 Ashton Ln, Glasgow, Glasgow City, G12 8SJ", "locality": "Glasgow", "post_town": "Glasgow", "postcode": "G12 8SJ", "region": "Glasgow City"}, "name": "Innis & Gunn Beer Kitchen", "related_places": {}, "timezone": "Europe/London"}, {"fsq_id": "4d0263ce3fd4224b72abb677", "categories": [{"id": 13018, "name": "Pub", "short_name": "Pub", "plural_name": "Pubs", "icon": {"prefix": "https://ss3.4sqi.net/img/categories_v2/nightlife/pub_", "suffix": ".png"}}], "chains": [], "closed_bucket": "Unsure", "distance": 854, "geocodes": {"drop_off": {"latitude": 55.870369, "longitude": -4.29944}, "front_door": {"latitude": 55.870348, "longitude": -4.299355}, "main": {"latitude": 55.870348, "longitude": -4.299355}, "roof": {"latitude": 55.870338, "longitude": -4.299468}}, "link": "/v3/places/4d0263ce3fd4224b72abb677", "location": {"address": "141 Dumbarton Rd", "admin_region": "Scotland", "country": "GB", "cross_street": "Byres Road", "formatted_address": "141 Dumbarton Rd (Byres Road), Glasgow, Glasgow City, G11 6PR", "locality": "Glasgow", "post_town": "Glasgow", "postcode": "G11 6PR", "region": "Glasgow City"}, "name": "Three Judges", "related_places": {}, "timezone": "Europe/London"}, {"fsq_id": "57cf101c498e00f91f9e64cc", "categories": [{"id": 13006, "name": "Beer Bar", "short_name": "Beer Bar", "plural_name": "Beer Bars", "icon": {"prefix": "https://ss3.4sqi.net/img/categories_v2/nightlife/pub_", "suffix": ".png"}}, {"id": 13018, "name": "Pub", "short_name": "Pub", "plural_name": "Pubs", "icon": {"prefix": "https://ss3.4sqi.net/img/categories_v2/nightlife/pub_", "suffix": ".png"}}, {"id": 13065, "name": "Restaurant", "short_name": "Restaurant", "plural_name": "Restaurants", "icon": {"prefix": "https://ss3.4sqi.net/img/categories_v2/food/default_", "suffix": ".png"}}], "chains": [], "closed_bucket": "LikelyOpen", "distance": 779, "geocodes": {"drop_off": {"latitude": 55.870744, "longitude": -4.300571}, "main": {"latitude": 55.870642, "longitude": -4.300599}, "roof": {"latitude": 55.870642, "longitude": -4.300599}}, "link": "/v3/places/57cf101c498e00f91f9e64cc", "location": {"address": "165 Dumbarton Rd", "admin_region": "Scotland", "country": "GB", "cross_street": "", "formatted_address": "165 Dumbarton Rd, Glasgow, G11 6AA", "locality": "Glasgow", "post_town": "Glasgow", "postcode": "G11 6AA"}, "name": "Bag O Nails", "related_places": {}, "timezone": "Europe/London"}, {"fsq_id": "565b4d60498eb40794684b66", "categories": [{"id": 13003, "name": "Bar", "short_name": "Bar", "plural_name": "Bars", "icon": {"prefix": "https://ss3.4sqi.net/img/categories_v2/nightlife/pub_", "suffix": ".png"}}, {"id": 13065, "name": "Restaurant", "short_name": "Restaurant", "plural_name": "Restaurants", "icon": {"prefix": "https://ss3.4sqi.net/img/categories_v2/food/default_", "suffix": ".png"}}], "chains": [], "closed_bucket": "LikelyOpen", "distance": 844, "geocodes": {"main": {"latitude": 55.884151, "longitude": -4.309367}, "roof": {"latitude": 55.884151, "longitude": -4.309367}}, "link": "/v3/places/565b4d60498eb40794684b66", "location": {"address": "1051 Great Western Rd", "admin_region": "Scotland", "country": "GB", "cross_street": "", "formatted_address": "1051 Great Western Rd, Glasgow, G12 0XP", "locality": "Glasgow", "post_town": "Glasgow", "postcode": "G12 0XP"}, "name": "1051 Gwr", "related_places": {}, "timezone": "Europe/London"}, {"fsq_id": "591a0dcd81348848d830ae17", "categories": [{"id": 13065, "name": "Restaurant", "short_name": "Restaurant", "plural_name": "Restaurants", "icon": {"prefix": "https://ss3.4sqi.net/img/categories_v2/food/default_", "suffix": ".png"}}], "chains": [], "closed_bucket": "LikelyOpen", "distance": 643, "geocodes": {"drop_off": {"latitude": 55.871534, "longitude": -4.302502}, "main": {"latitude": 55.871626, "longitude": -4.302733}, "roof": {"latitude": 55.871626, "longitude": -4.302733}}, "link": "/v3/places/591a0dcd81348848d830ae17", "location": {"address": "27 Hyndland St", "admin_region": "Scotland", "country": "GB", "cross_street": "", "formatted_address": "27 Hyndland St, Glasgow, Glasgow City, G11 5QF", "locality": "Glasgow", "post_town": "Glasgow", "postcode": "G11 5QF", "region": "Glasgow City"}, "name": "Partick Duck Club", "related_places": {}, "timezone": "Europe/London"}, {"fsq_id": "4c7954da2d3ba1437cd68dd0", "categories": [{"id": 13057, "name": "Gastropub", "short_name": "Gastropub", "plural_name": "Gastropubs", "icon": {"prefix": "https://ss3.4sqi.net/img/categories_v2/food/gastropub_", "suffix": ".png"}}, {"id": 13018, "name": "Pub", "short_name": "Pub", "plural_name": "Pubs", "icon": {"prefix": "https://ss3.4sqi.net/img/categories_v2/nightlife/pub_", "suffix": ".png"}}], "chains": [], "closed_bucket": "VeryLikelyOpen", "distance": 813, "geocodes": {"drop_off": {"latitude": 55.875553, "longitude": -4.293406}, "main": {"latitude": 55.875382, "longitude": -4.293244}, "roof": {"latitude": 55.875382, "longitude": -4.293244}}, "link": "/v3/places/4c7954da2d3ba1437cd68dd0", "location": {"address": "256-260 Byres Rd", "admin_region": "Scotland", "country": "GB", "formatted_address": "256-260 Byres Rd, Glasgow, Glasgow City, G12 8SH", "locality": "Glasgow", "post_town": "Glasgow", "postcode": "G12 8SH", "region": "Glasgow City"}, "name": "The Curler's Rest", "related_places": {}, "timezone": "Europe/London"}, {"fsq_id": "57ff424738fa621fceda6354", "categories": [{"id": 13035, "name": "Coffee Shop", "short_name": "Coffee Shop", "plural_name": "Coffee Shops", "icon": {"prefix": "https://ss3.4sqi.net/img/categories_v2/food/coffeeshop_", "suffix": ".png"}}, {"id": 13065, "name": "Restaurant", "short_name": "Restaurant", "plural_name": "Restaurants", "icon": {"prefix": "https://ss3.4sqi.net/img/categories_v2/food/default_", "suffix": ".png"}}], "chains": [], "closed_bucket": "LikelyOpen", "distance": 699, "geocodes": {"drop_off": {"latitude": 55.870798, "longitude": -4.307859}, "main": {"latitude": 55.8707, "longitude": -4.307858}, "roof": {"latitude": 55.8707, "longitude": -4.307858}}, "link": "/v3/places/57ff424738fa621fceda6354", "location": {"address": "381 Dumbarton Rd", "admin_region": "Scotland", "country": "GB", "cross_street": "Vine Street", "formatted_address": "381 Dumbarton Rd (Vine Street), Glasgow, Glasgow City, G11 6BA", "locality": "Glasgow", "post_town": "Glasgow", "postcode": "G11 6BA", "region": "Glasgow City"}, "name": "Caffe Monza", "related_places": {}, "timezone": "Europe/London"}, {"fsq_id": "4b4a3ca9f964a520238026e3", "categories": [{"id": 13018, "name": "Pub", "short_name": "Pub", "plural_name": "Pubs", "icon": {"prefix": "https://ss3.4sqi.net/img/categories_v2/nightlife/pub_", "suffix": ".png"}}, {"id": 13065, "name": "Restaurant", "short_name": "Restaurant", "plural_name": "Restaurants", "icon": {"prefix": "https://ss3.4sqi.net/img/categories_v2/food/default_", "suffix": ".png"}}], "chains": [], "closed_bucket": "VeryLikelyOpen", "distance": 864, "geocodes": {"main": {"latitude": 55.874714, "longitude": -4.292943}, "roof": {"latitude": 55.874714, "longitude": -4.292943}}, "link": "/v3/places/4b4a3ca9f964a520238026e3", "location": {"address": "21/29 Ashton Lane", "admin_region": "Scotland", "country": "GB", "cross_street": "", "formatted_address": "21/29 Ashton Lane, Glasgow, Glasgow City, G12 8SJ", "locality": "Glasgow", "post_town": "Glasgow", "postcode": "G12 8SJ", "region": "Glasgow City"}, "name": "Jinty McGuinty's", "related_places": {}, "timezone": "Europe/London"}, {"fsq_id": "4d876a92651041bd10349b30", "categories": [{"id": 13039, "name": "Deli", "short_name": "Deli", "plural_name": "Delis", "icon": {"prefix": "https://ss3.4sqi.net/img/categories_v2/food/deli_", "suffix": ".png"}}, {"id": 13145, "name": "Fast Food Restaurant", "short_name": "Fast Food", "plural_name": "Fast Food Restaurants", "icon": {"prefix": "https://ss3.4sqi.net/img/categories_v2/food/fastfood_", "suffix": ".png"}}, {"id": 13334, "name": "Sandwich Spot", "short_name": "Sandwich Spot", "plural_name": "Sandwich Spots", "icon": {"prefix": "https://ss3.4sqi.net/img/categories_v2/food/deli_", "suffix": ".png"}}], "chains": [{"id": "ab4bee40-d68a-012e-5619-003048cad9da", "name": "Subway"}], "closed_bucket": "VeryLikelyOpen", "distance": 780, "geocodes": {"main": {"latitude": 55.870824, "longitude": -4.300184}, "roof": {"latitude": 55.870824, "longitude": -4.300184}}, "link": "/v3/places/4d876a92651041bd10349b30", "location": {"address": "172 Dumbarton Rd", "admin_region": "Scotland", "country": "GB", "formatted_address": "172 Dumbarton Rd, Glasgow, G11 6XE", "locality": "Glasgow", "post_town": "Glasgow", "postcode": "G11 6XE"}, "name": "Subway", "related_places": {}, "timezone": "Europe/London"}, {"fsq_id": "4b8135e7f964a520949a30e3", "categories": [{"id": 13031, "name": "Burger Joint", "short_name": "Burgers", "plural_name": "Burger Joints", "icon": {"prefix": "https://ss3.4sqi.net/img/categories_v2/food/burger_", "suffix": ".png"}}, {"id": 13145, "name": "Fast Food Restaurant", "short_name": "Fast Food", "plural_name": "Fast Food Restaurants", "icon": {"prefix": "https://ss3.4sqi.net/img/categories_v2/food/fastfood_", "suffix": ".png"}}], "chains": [{"id": "ab4a3530-d68a-012e-5619-003048cad9da", "name": "McDonald's"}], "closed_bucket": "VeryLikelyOpen", "distance": 678, "geocodes": {"main": {"latitude": 55.872141, "longitude": -4.313057}, "roof": {"latitude": 55.872141, "longitude": -4.313057}}, "link": "/v3/places/4b8135e7f964a520949a30e3", "location": {"address": "West End Retail Park", "admin_region": "Scotland", "country": "GB", "cross_street": "at Dumbarton Rd", "formatted_address": "West End Retail Park (at Dumbarton Rd), Glasgow, Glasgow City, G11 7RY", "locality": "Glasgow", "post_town": "Glasgow", "postcode": "G11 7RY", "region": "Glasgow City"}, "name": "McDonald's", "related_places": {}, "timezone": "Europe/London"}, {"fsq_id": "529f473d11d244431bf81587", "categories": [{"id": 13003, "name": "Bar", "short_name": "Bar", "plural_name": "Bars", "icon": {"prefix": "https://ss3.4sqi.net/img/categories_v2/nightlife/pub_", "suffix": ".png"}}, {"id": 13057, "name": "Gastropub", "short_name": "Gastropub", "plural_name": "Gastropubs", "icon": {"prefix": "https://ss3.4sqi.net/img/categories_v2/food/gastropub_", "suffix": ".png"}}], "chains": [], "closed_bucket": "LikelyOpen", "distance": 727, "geocodes": {"main": {"latitude": 55.870641, "longitude": -4.309819}, "roof": {"latitude": 55.870641, "longitude": -4.309819}}, "link": "/v3/places/529f473d11d244431bf81587", "location": {"address": "427-429 Dumbarton Rd", "admin_region": "Scotland", "country": "GB", "cross_street": "", "formatted_address": "427-429 Dumbarton Rd, Glasgow, G11 6DD", "locality": "Glasgow", "post_town": "Glasgow", "postcode": "G11 6DD"}, "name": "Deoch an Dorus", "related_places": {}, "timezone": "Europe/London"}, {"fsq_id": "4b83da0ff964a5208f1331e3", "categories": [{"id": 13035, "name": "Coffee Shop", "short_name": "Coffee Shop", "plural_name": "Coffee Shops", "icon": {"prefix": "https://ss3.4sqi.net/img/categories_v2/food/coffeeshop_", "suffix": ".png"}}, {"id": 13065, "name": "Restaurant", "short_name": "Restaurant", "plural_name": "Restaurants", "icon": {"prefix": "https://ss3.4sqi.net/img/categories_v2/food/default_", "suffix": ".png"}}], "chains": [], "closed_bucket": "Unsure", "distance": 901, "geocodes": {"main": {"latitude": 55.876473, "longitude": -4.291666}, "roof": {"latitude": 55.876473, "longitude": -4.291666}}, "link": "/v3/places/4b83da0ff964a5208f1331e3", "location": {"address": "58 Cresswell St", "admin_region": "Scotland", "country": "GB", "cross_street": "Cresswell Lane", "formatted_address": "58 Cresswell St (Cresswell Lane), Glasgow, Glasgow City, G12 8BY", "locality": "Glasgow", "post_town": "Glasgow", "postcode": "G12 8BY", "region": "Glasgow City"}, "name": "Atrium Coffee House", "related_places": {}, "timezone": "Europe/London"}, {"fsq_id": "4c3a2d4f2c8020a120f58d00", "categories": [{"id": 13003, "name": "Bar", "short_name": "Bar", "plural_name": "Bars", "icon": {"prefix": "https://ss3.4sqi.net/img/categories_v2/nightlife/pub_", "suffix": ".png"}}], "chains": [], "closed_bucket": "VeryLikelyOpen", "distance": 953, "geocodes": {"main": {"latitude": 55.870161, "longitude": -4.297043}, "roof": {"latitude": 55.870161, "longitude": -4.297043}}, "link": "/v3/places/4c3a2d4f2c8020a120f58d00", "location": {"address": "5-13 Thurso St", "country": "GB", "cross_street": "", "formatted_address": "5-13 Thurso St, Glasgow, Glasgow City", "locality": "Glasgow", "post_town": "Glasgow", "region": "Glasgow City"}, "name": "Gallus", "related_places": {}, "timezone": "Europe/London"}, {"fsq_id": "4d974bab2bd6f04d7eb04b50", "categories": [{"id": 13051, "name": "Fish and Chips Shop", "short_name": "Fish and Chips Shop", "plural_name": "Fish and Chips Shops", "icon": {"prefix": "https://ss3.4sqi.net/img/categories_v2/food/fishandchips_", "suffix": ".png"}}], "chains": [], "closed_bucket": "VeryLikelyOpen", "distance": 135, "geocodes": {"main": {"latitude": 55.877047, "longitude": -4.308338}, "roof": {"latitude": 55.877047, "longitude": -4.308338}}, "link": "/v3/places/4d974bab2bd6f04d7eb04b50", "location": {"address": "31 Clarence Dr", "admin_region": "Scotland", "country": "GB", "cross_street": "", "formatted_address": "31 Clarence Dr, Glasgow, G12 9QN", "locality": "Glasgow", "post_town": "Glasgow", "postcode": "G12 9QN"}, "name": "Paolos", "related_places": {}, "timezone": "Europe/London"}, {"fsq_id": "5813a56a38fac24bb098d729", "categories": [{"id": 13051, "name": "Fish and Chips Shop", "short_name": "Fish and Chips Shop", "plural_name": "Fish and Chips Shops", "icon": {"prefix": "https://ss3.4sqi.net/img/categories_v2/food/fishandchips_", "suffix": ".png"}}], "chains": [], "closed_bucket": "VeryLikelyOpen", "distance": 138, "geocodes": {"drop_off": {"latitude": 55.877216, "longitude": -4.308498}, "main": {"latitude": 55.877089, "longitude": -4.308514}, "roof": {"latitude": 55.877089, "longitude": -4.308514}}, "link": "/v3/places/5813a56a38fac24bb098d729", "location": {"address": "31 Clarence Dr", "admin_region": "Scotland", "country": "GB", "cross_street": "", "formatted_address": "31 Clarence Dr, Glasgow, Glasgow City, G12 9QN", "locality": "Glasgow", "post_town": "Glasgow", "postcode": "G12 9QN", "region": "Glasgow City"}, "name": "Paulo's", "related_places": {}, "timezone": "Europe/London"}, {"fsq_id": "c84db3dbfab32b8c816556c9", "categories": [{"id": 11056, "name": "Food and Beverage Service", "short_name": "Food Service", "plural_name": "Food and Beverage Services", "icon": {"prefix": "https://ss3.4sqi.net/img/categories_v2/shops/foodanddrink_", "suffix": ".png"}}, {"id": 13064, "name": "Pizzeria", "short_name": "Pizza", "plural_name": "Pizzerias", "icon": {"prefix": "https://ss3.4sqi.net/img/categories_v2/food/pizza_", "suffix": ".png"}}], "chains": [], "closed_bucket": "LikelyOpen", "distance": 369, "geocodes": {"drop_off": {"latitude": 55.880315, "longitude": -4.304972}, "main": {"latitude": 55.8802, "longitude": -4.30479}, "roof": {"latitude": 55.8802, "longitude": -4.30479}}, "link": "/v3/places/c84db3dbfab32b8c816556c9", "location": {"address": "72 Hyndland Rd", "admin_region": "Scotland", "country": "GB", "formatted_address": "72 Hyndland Rd, Glasgow, Glasgow City", "locality": "Glasgow", "post_town": "Glasgow", "region": "Glasgow City"}, "name": "Marco's", "related_places": {}, "timezone": "Europe/London"}, {"fsq_id": "5ad649c498fbfc02315f65dc", "categories": [{"id": 13337, "name": "Scottish Restaurant", "short_name": "Scottish", "plural_name": "Scottish Restaurants", "icon": {"prefix": "https://ss3.4sqi.net/img/categories_v2/food/default_", "suffix": ".png"}}], "chains": [], "closed_bucket": "VeryLikelyOpen", "distance": 532, "geocodes": {"drop_off": {"latitude": 55.873023, "longitude": -4.301913}, "main": {"latitude": 55.872948, "longitude": -4.301723}, "roof": {"latitude": 55.872948, "longitude": -4.301723}}, "link": "/v3/places/5ad649c498fbfc02315f65dc", "location": {"address": "70-72 Hyndland St", "admin_region": "Scotland", "country": "GB", "cross_street": "", "formatted_address": "70-72 Hyndland St, Glasgow, Glasgow City, G11 5PT", "locality": "Glasgow", "post_town": "Glasgow", "postcode": "G11 5PT", "region": "Glasgow City"}, "name": "Gather by Zique", "related_places": {}, "timezone": "Europe/London"}, {"fsq_id": "5b8adc07234724002c521848", "categories": [{"id": 13236, "name": "Italian Restaurant", "short_name": "Italian", "plural_name": "Italian Restaurants", "icon": {"prefix": "https://ss3.4sqi.net/img/categories_v2/food/italian_", "suffix": ".png"}}, {"id": 13345, "name": "Spanish Restaurant", "short_name": "Spanish", "plural_name": "Spanish Restaurants", "icon": {"prefix": "https://ss3.4sqi.net/img/categories_v2/food/spanish_", "suffix": ".png"}}], "chains": [], "closed_bucket": "LikelyOpen", "distance": 627, "geocodes": {"main": {"latitude": 55.871844, "longitude": -4.3026}, "roof": {"latitude": 55.871844, "longitude": -4.3026}}, "link": "/v3/places/5b8adc07234724002c521848", "location": {"address": "39-41 Hyndland St", "admin_region": "Scotland", "country": "GB", "cross_street": "", "formatted_address": "39-41 Hyndland St, Glasgow, Glasgow City, G11 5QF", "locality": "Glasgow", "post_town": "Glasgow", "postcode": "G11 5QF", "region": "Glasgow City"}, "name": "Rossini", "related_places": {}, "timezone": "Europe/London"}, {"fsq_id": "5dbdd88ac1e1dd0008eb14e4", "categories": [{"id": 13199, "name": "Indian Restaurant", "short_name": "Indian", "plural_name": "Indian Restaurants", "icon": {"prefix": "https://ss3.4sqi.net/img/categories_v2/food/indian_", "suffix": ".png"}}], "chains": [], "closed_bucket": "VeryLikelyOpen", "distance": 660, "geocodes": {"drop_off": {"latitude": 55.875872, "longitude": -4.295736}, "main": {"latitude": 55.876033, "longitude": -4.295684}, "roof": {"latitude": 55.876033, "longitude": -4.295684}}, "link": "/v3/places/5dbdd88ac1e1dd0008eb14e4", "location": {"address": "Ruthven Lane", "country": "GB", "cross_street": "", "formatted_address": "Ruthven Lane, Glasgow, Glasgow City", "locality": "Glasgow", "post_town": "Glasgow", "region": "Glasgow City"}, "name": "Chaakoo Bombay Cafe", "related_places": {}, "timezone": "Europe/London"}, {"fsq_id": "4dc52632c65b89d3ca6613c5", "categories": [{"id": 13034, "name": "Caf\u00e9", "short_name": "Caf\u00e9", "plural_name": "Caf\u00e9s", "icon": {"prefix": "https://ss3.4sqi.net/img/categories_v2/food/cafe_", "suffix": ".png"}}, {"id": 13035, "name": "Coffee Shop", "short_name": "Coffee Shop", "plural_name": "Coffee Shops", "icon": {"prefix": "https://ss3.4sqi.net/img/categories_v2/food/coffeeshop_", "suffix": ".png"}}, {"id": 13065, "name": "Restaurant", "short_name": "Restaurant", "plural_name": "Restaurants", "icon": {"prefix": "https://ss3.4sqi.net/img/categories_v2/food/default_", "suffix": ".png"}}], "chains": [], "closed_bucket": "LikelyOpen", "distance": 670, "geocodes": {"main": {"latitude": 55.871124, "longitude": -4.305978}, "roof": {"latitude": 55.871124, "longitude": -4.305978}}, "link": "/v3/places/4dc52632c65b89d3ca6613c5", "location": {"address": "9 Gardner St", "admin_region": "Scotland", "country": "GB", "cross_street": "", "formatted_address": "9 Gardner St, Glasgow, Glasgow City, G11 5NR", "locality": "Glasgow", "post_town": "Glasgow", "postcode": "G11 5NR", "region": "Glasgow City"}, "name": "Tea Garden", "related_places": {}, "timezone": "Europe/London"}, {"fsq_id": "6162cbbce3eba6051865dde8", "categories": [{"id": 13001, "name": "Bagel Shop", "short_name": "Bagels", "plural_name": "Bagel Shops", "icon": {"prefix": "https://ss3.4sqi.net/img/categories_v2/food/bagels_", "suffix": ".png"}}, {"id": 13145, "name": "Fast Food Restaurant", "short_name": "Fast Food", "plural_name": "Fast Food Restaurants", "icon": {"prefix": "https://ss3.4sqi.net/img/categories_v2/food/fastfood_", "suffix": ".png"}}], "chains": [], "closed_bucket": "Unsure", "distance": 679, "geocodes": {"drop_off": {"latitude": 55.870818, "longitude": -4.305165}, "main": {"latitude": 55.87096, "longitude": -4.305166}, "roof": {"latitude": 55.87096, "longitude": -4.305166}}, "link": "/v3/places/6162cbbce3eba6051865dde8", "location": {"address": "292 Dumbarton Rd Patrick", "admin_region": "Scotland", "country": "GB", "cross_street": "", "formatted_address": "292 Dumbarton Rd Patrick, Glasgow, Glasgow City, G11 6TD", "locality": "Glasgow", "post_town": "Glasgow", "postcode": "G11 6TD", "region": "Glasgow City"}, "name": "Brawsome Bagels", "related_places": {}, "timezone": "Europe/London"}, {"fsq_id": "606873ebf9f8281db6d0d7fb", "categories": [{"id": 13032, "name": "Cafe, Coffee, and Tea House", "short_name": "Cafe, Coffee, and Tea House", "plural_name": "Cafes, Coffee, and Tea Houses", "icon": {"prefix": "https://ss3.4sqi.net/img/categories_v2/food/coffeeshop_", "suffix": ".png"}}, {"id": 13379, "name": "Vietnamese Restaurant", "short_name": "Vietnamese", "plural_name": "Vietnamese Restaurants", "icon": {"prefix": "https://ss3.4sqi.net/img/categories_v2/food/vietnamese_", "suffix": ".png"}}], "chains": [], "closed_bucket": "LikelyOpen", "distance": 718, "geocodes": {"drop_off": {"latitude": 55.870789, "longitude": -4.308699}, "main": {"latitude": 55.870652, "longitude": -4.308698}, "roof": {"latitude": 55.870652, "longitude": -4.308698}}, "link": "/v3/places/606873ebf9f8281db6d0d7fb", "location": {"address": "401 Dumbarton Rd", "admin_region": "Scotland", "country": "GB", "cross_street": "", "formatted_address": "401 Dumbarton Rd, Glasgow, Glasgow City, G11 6BE", "locality": "Glasgow", "post_town": "Glasgow", "postcode": "G11 6BE", "region": "Glasgow City"}, "name": "Banh Mi & Tea", "related_places": {}, "timezone": "Europe/London"}, {"fsq_id": "4bdd742e4ffaa593ce726ff7", "categories": [{"id": 13032, "name": "Cafe, Coffee, and Tea House", "short_name": "Cafe, Coffee, and Tea House", "plural_name": "Cafes, Coffee, and Tea Houses", "icon": {"prefix": "https://ss3.4sqi.net/img/categories_v2/food/coffeeshop_", "suffix": ".png"}}, {"id": 13065, "name": "Restaurant", "short_name": "Restaurant", "plural_name": "Restaurants", "icon": {"prefix": "https://ss3.4sqi.net/img/categories_v2/food/default_", "suffix": ".png"}}], "chains": [], "closed_bucket": "LikelyOpen", "distance": 747, "geocodes": {"main": {"latitude": 55.870976, "longitude": -4.301205}, "roof": {"latitude": 55.870976, "longitude": -4.301205}}, "link": "/v3/places/4bdd742e4ffaa593ce726ff7", "location": {"address": "200 Dumbarton Rd", "admin_region": "Scotland", "country": "GB", "cross_street": "", "formatted_address": "200 Dumbarton Rd, Glasgow, Glasgow City, G11 6UN", "locality": "Glasgow", "post_town": "Glasgow", "postcode": "G11 6UN", "region": "Glasgow City"}, "name": "Cullis Cafe Diner", "related_places": {}, "timezone": "Europe/London"}, {"fsq_id": "88c9be1f92544fa60b77c200", "categories": [{"id": 13199, "name": "Indian Restaurant", "short_name": "Indian", "plural_name": "Indian Restaurants", "icon": {"prefix": "https://ss3.4sqi.net/img/categories_v2/food/indian_", "suffix": ".png"}}, {"id": 13265, "name": "Japanese Curry Restaurant", "short_name": "Japanese Curry", "plural_name": "Japanese Curry Restaurants", "icon": {"prefix": "https://ss3.4sqi.net/img/categories_v2/food/default_", "suffix": ".png"}}], "chains": [], "closed_bucket": "LikelyOpen", "distance": 749, "geocodes": {"drop_off": {"latitude": 55.871598, "longitude": -4.313029}, "main": {"latitude": 55.871498, "longitude": -4.313247}, "roof": {"latitude": 55.871498, "longitude": -4.313247}}, "link": "/v3/places/88c9be1f92544fa60b77c200", "location": {"address": "23 Crow Rd", "admin_region": "Scotland", "country": "GB", "formatted_address": "23 Crow Rd, Glasgow, G11 7RT", "locality": "Glasgow", "post_town": "Glasgow", "postcode": "G11 7RT"}, "name": "Harlequin Restaurants", "related_places": {}, "timezone": "Europe/London"}, {"fsq_id": "5deaade92361ea00081b554d", "categories": [{"id": 13377, "name": "Vegan and Vegetarian Restaurant", "short_name": "Vegan and Vegetarian Restaurant", "plural_name": "Vegan and Vegetarian Restaurants", "icon": {"prefix": "https://ss3.4sqi.net/img/categories_v2/food/vegetarian_", "suffix": ".png"}}], "chains": [], "closed_bucket": "VeryLikelyOpen", "distance": 760, "geocodes": {"drop_off": {"latitude": 55.870754, "longitude": -4.311508}, "main": {"latitude": 55.87086, "longitude": -4.311509}, "roof": {"latitude": 55.87086, "longitude": -4.311509}}, "link": "/v3/places/5deaade92361ea00081b554d", "location": {"address": "494 Dumbarton Rd", "admin_region": "Scotland", "country": "GB", "cross_street": "", "formatted_address": "494 Dumbarton Rd, Glasgow, Glasgow City, G11 6SL", "locality": "Glasgow", "post_town": "Glasgow", "postcode": "G11 6SL", "region": "Glasgow City"}, "name": "Suissi Vegan Kitchen", "related_places": {}, "timezone": "Europe/London"}, {"fsq_id": "96494a7f98794f4a37f19ed4", "categories": [{"id": 13035, "name": "Coffee Shop", "short_name": "Coffee Shop", "plural_name": "Coffee Shops", "icon": {"prefix": "https://ss3.4sqi.net/img/categories_v2/food/coffeeshop_", "suffix": ".png"}}, {"id": 13065, "name": "Restaurant", "short_name": "Restaurant", "plural_name": "Restaurants", "icon": {"prefix": "https://ss3.4sqi.net/img/categories_v2/food/default_", "suffix": ".png"}}], "chains": [], "closed_bucket": "LikelyOpen", "distance": 768, "geocodes": {"main": {"latitude": 55.870854, "longitude": -4.30057}, "roof": {"latitude": 55.870854, "longitude": -4.30057}}, "link": "/v3/places/96494a7f98794f4a37f19ed4", "location": {"address": "180 Dumbarton Rd", "admin_region": "Scotland", "country": "GB", "formatted_address": "180 Dumbarton Rd, Glasgow, G11 6XE", "locality": "Glasgow", "post_town": "Glasgow", "postcode": "G11 6XE"}, "name": "Abarcrombys", "related_places": {}, "timezone": "Europe/London"}, {"fsq_id": "57cb0ed5498ec51d0b10af25", "categories": [{"id": 13072, "name": "Asian Restaurant", "short_name": "Asian", "plural_name": "Asian Restaurants", "icon": {"prefix": "https://ss3.4sqi.net/img/categories_v2/food/asian_", "suffix": ".png"}}], "chains": [], "closed_bucket": "Unsure", "distance": 776, "geocodes": {"main": {"latitude": 55.871115, "longitude": -4.312569}, "roof": {"latitude": 55.871115, "longitude": -4.312569}}, "link": "/v3/places/57cb0ed5498ec51d0b10af25", "location": {"address": "16 Crow Rd", "admin_region": "Scotland", "country": "GB", "cross_street": "", "formatted_address": "16 Crow Rd, Glasgow, Glasgow City, G11 7RT", "locality": "Glasgow", "post_town": "Glasgow", "postcode": "G11 7RT", "region": "Glasgow City"}, "name": "The Best Curry", "related_places": {}, "timezone": "Europe/London"}, {"fsq_id": "4d83cc955e70224b157aff08", "categories": [{"id": 13145, "name": "Fast Food Restaurant", "short_name": "Fast Food", "plural_name": "Fast Food Restaurants", "icon": {"prefix": "https://ss3.4sqi.net/img/categories_v2/food/fastfood_", "suffix": ".png"}}], "chains": [], "closed_bucket": "VeryLikelyOpen", "distance": 782, "geocodes": {"main": {"latitude": 55.871544, "longitude": -4.297717}, "roof": {"latitude": 55.871544, "longitude": -4.297717}}, "link": "/v3/places/4d83cc955e70224b157aff08", "location": {"address": "Glasgow, Glasgow City", "admin_region": "Scotland", "country": "GB", "cross_street": "", "formatted_address": "Glasgow, Glasgow City, Glasgow, Glasgow City, G11 5HN", "locality": "Glasgow", "post_town": "Glasgow", "postcode": "G11 5HN", "region": "Glasgow City"}, "name": "University Takeaway", "related_places": {}, "timezone": "Europe/London"}, {"fsq_id": "4b858e11f964a520306531e3", "categories": [{"id": 13018, "name": "Pub", "short_name": "Pub", "plural_name": "Pubs", "icon": {"prefix": "https://ss3.4sqi.net/img/categories_v2/nightlife/pub_", "suffix": ".png"}}], "chains": [], "closed_bucket": "VeryLikelyOpen", "distance": 783, "geocodes": {"drop_off": {"latitude": 55.87181, "longitude": -4.297757}, "main": {"latitude": 55.871957, "longitude": -4.29787}, "roof": {"latitude": 55.871957, "longitude": -4.29787}}, "link": "/v3/places/4b858e11f964a520306531e3", "location": {"address": "71-77 Byres Rd", "admin_region": "Scotland", "country": "GB", "formatted_address": "71-77 Byres Rd, Glasgow, Glasgow City, G11 5HN", "locality": "Glasgow", "post_town": "Glasgow", "postcode": "G11 5HN", "region": "Glasgow City"}, "name": "Common Rooms", "related_places": {}, "timezone": "Europe/London"}, {"fsq_id": "0f8bda6b6c6448584631c039", "categories": [{"id": 13003, "name": "Bar", "short_name": "Bar", "plural_name": "Bars", "icon": {"prefix": "https://ss3.4sqi.net/img/categories_v2/nightlife/pub_", "suffix": ".png"}}], "chains": [], "closed_bucket": "LikelyOpen", "distance": 786, "geocodes": {"main": {"latitude": 55.870642, "longitude": -4.300599}, "roof": {"latitude": 55.870642, "longitude": -4.300599}}, "link": "/v3/places/0f8bda6b6c6448584631c039", "location": {"address": "163 Dumbarton Rd", "admin_region": "Scotland", "country": "GB", "formatted_address": "163 Dumbarton Rd, Glasgow, G11 6AA", "locality": "Glasgow", "post_town": "Glasgow", "postcode": "G11 6AA"}, "name": "Partick Tavern", "related_places": {}, "timezone": "Europe/London"}, {"fsq_id": "4dc6f85b52b1e8f9f7fa4354", "categories": [{"id": 13018, "name": "Pub", "short_name": "Pub", "plural_name": "Pubs", "icon": {"prefix": "https://ss3.4sqi.net/img/categories_v2/nightlife/pub_", "suffix": ".png"}}], "chains": [], "closed_bucket": "VeryLikelyOpen", "distance": 787, "geocodes": {"main": {"latitude": 55.870611, "longitude": -4.312167}, "roof": {"latitude": 55.870611, "longitude": -4.312167}}, "link": "/v3/places/4dc6f85b52b1e8f9f7fa4354", "location": {"address": "483 Dumbarton Rd", "admin_region": "Scotland", "country": "GB", "cross_street": "", "formatted_address": "483 Dumbarton Rd, Glasgow, Glasgow City, G11 6EJ", "locality": "Glasgow", "post_town": "Glasgow", "postcode": "G11 6EJ", "region": "Glasgow City"}, "name": "The Rosevale Tavern", "related_places": {}, "timezone": "Europe/London"}, {"fsq_id": "53345752498e595f19747eb6", "categories": [{"id": 13099, "name": "Chinese Restaurant", "short_name": "Chinese", "plural_name": "Chinese Restaurants", "icon": {"prefix": "https://ss3.4sqi.net/img/categories_v2/food/asian_", "suffix": ".png"}}, {"id": 13145, "name": "Fast Food Restaurant", "short_name": "Fast Food", "plural_name": "Fast Food Restaurants", "icon": {"prefix": "https://ss3.4sqi.net/img/categories_v2/food/fastfood_", "suffix": ".png"}}], "chains": [], "closed_bucket": "Unsure", "distance": 789, "geocodes": {"drop_off": {"latitude": 55.872526, "longitude": -4.29684}, "main": {"latitude": 55.87229, "longitude": -4.296654}, "roof": {"latitude": 55.87229, "longitude": -4.296654}}, "link": "/v3/places/53345752498e595f19747eb6", "location": {"address": "101 Byers Rd", "country": "GB", "cross_street": "", "formatted_address": "101 Byers Rd, Glasgow, Glasgow City", "locality": "Glasgow", "post_town": "Glasgow", "region": "Glasgow City"}, "name": "HomeWok", "related_places": {}, "timezone": "Europe/London"}, {"fsq_id": "64a44a7aaf401651d63db2a8", "categories": [{"id": 13148, "name": "French Restaurant", "short_name": "French", "plural_name": "French Restaurants", "icon": {"prefix": "https://ss3.4sqi.net/img/categories_v2/food/french_", "suffix": ".png"}}, {"id": 13334, "name": "Sandwich Spot", "short_name": "Sandwich Spot", "plural_name": "Sandwich Spots", "icon": {"prefix": "https://ss3.4sqi.net/img/categories_v2/food/deli_", "suffix": ".png"}}], "chains": [], "closed_bucket": "Unsure", "distance": 803, "geocodes": {"main": {"latitude": 55.870989, "longitude": -4.299006}}, "link": "/v3/places/64a44a7aaf401651d63db2a8", "location": {"address": "21 Byres Road", "admin_region": "Scotland", "country": "GB", "cross_street": "", "formatted_address": "21 Byres Road, Glasgow, Glasgow City, G11 5RD", "locality": "Glasgow", "post_town": "Glasgow", "postcode": "G11 5RD", "region": "Glasgow City"}, "name": "Le Petit Coq", "related_places": {}, "timezone": "Europe/London"}, {"fsq_id": "54609950498e24d7ad78f68c", "categories": [{"id": 13035, "name": "Coffee Shop", "short_name": "Coffee Shop", "plural_name": "Coffee Shops", "icon": {"prefix": "https://ss3.4sqi.net/img/categories_v2/food/coffeeshop_", "suffix": ".png"}}, {"id": 13065, "name": "Restaurant", "short_name": "Restaurant", "plural_name": "Restaurants", "icon": {"prefix": "https://ss3.4sqi.net/img/categories_v2/food/default_", "suffix": ".png"}}], "chains": [], "closed_bucket": "VeryLikelyOpen", "distance": 803, "geocodes": {"drop_off": {"latitude": 55.875721, "longitude": -4.293222}, "main": {"latitude": 55.875321, "longitude": -4.293383}, "roof": {"latitude": 55.875321, "longitude": -4.293383}}, "link": "/v3/places/54609950498e24d7ad78f68c", "location": {"address": "Hillhead Subway Station", "admin_region": "Scotland", "country": "GB", "cross_street": "", "formatted_address": "Hillhead Subway Station", "post_town": "Glasgow"}, "name": "Tinderbox", "related_places": {}, "timezone": "Europe/London"}, {"fsq_id": "6099a89a11da3c06ff5190a6", "categories": [{"id": 13148, "name": "French Restaurant", "short_name": "French", "plural_name": "French Restaurants", "icon": {"prefix": "https://ss3.4sqi.net/img/categories_v2/food/french_", "suffix": ".png"}}], "chains": [], "closed_bucket": "VeryLikelyOpen", "distance": 824, "geocodes": {"main": {"latitude": 55.875936, "longitude": -4.319453}, "roof": {"latitude": 55.875936, "longitude": -4.319453}}, "link": "/v3/places/6099a89a11da3c06ff5190a6", "location": {"admin_region": "Scotland", "country": "GB", "cross_street": "", "formatted_address": "Glasgow, Glasgow City, G11 7LA", "locality": "Glasgow", "post_town": "Glasgow", "postcode": "G11 7LA", "region": "Glasgow City"}, "name": "Wee Paree", "related_places": {}, "timezone": "Europe/London"}], "context": {"geo_bounds": {"circle": {"center": {"latitude": 55.876975, "longitude": -4.306222}, "radius": 1000}}}}