{"results": [{"fsq_id": "55ca18f2498e89eef195151d", "categories": [{"id": 13064, "name": "Pizzeria", "short_name": "Pizza", "plural_name": "Pizzerias", "icon": {"prefix": "https://ss3.4sqi.net/img/categories_v2/food/pizza_", "suffix": ".png"}}, {"id": 13236, "name": "Italian Restaurant", "short_name": "Italian", "plural_name": "Italian Restaurants", "icon": {"prefix": "https://ss3.4sqi.net/img/categories_v2/food/italian_", "suffix": ".png"}}], "chains": [], "closed_bucket": "LikelyOpen", "distance": 948, "geocodes": {"main": {"latitude": 55.859642, "longitude": -4.250598}, "roof": {"latitude": 55.859642, "longitude": -4.250598}}, "link": "/v3/places/55ca18f2498e89eef195151d", "location": {"address": "94 Miller St", "admin_region": "Scotland", "country": "GB", "cross_street": "Ingram St", "formatted_address": "94 Miller St (Ingram St), Glasgow, Glasgow City, G1 1DT", "locality": "Glasgow", "post_town": "Glasgow", "postcode": "G1 1DT", "region": "Glasgow City"}, "name": "Paesano Pizza", "related_places": {}, "timezone": "Europe/London"}, {"fsq_id": "4c54b19ea724e21e442cc8f6", "categories": [{"id": 10032, "name": "Night Club", "short_name": "Night Club", "plural_name": "Night Clubs", "icon": {"prefix": "https://ss3.4sqi.net/img/categories_v2/nightlife/nightclub_", "suffix": ".png"}}, {"id": 13003, "name": "Bar", "short_name": "Bar", "plural_name": "Bars", "icon": {"prefix": "https://ss3.4sqi.net/img/categories_v2/nightlife/pub_", "suffix": ".png"}}], "chains": [], "closed_bucket": "Unsure", "distance": 607, "geocodes": {"main": {"latitude": 55.858106, "longitude": -4.257209}, "roof": {"latitude": 55.858106, "longitude": -4.257209}}, "link": "/v3/places/4c54b19ea724e21e442cc8f6", "location": {"address": "22 Jamaica St", "admin_region": "Scotland", "country": "GB", "formatted_address": "22 Jamaica St, Glasgow, Glasgow City, G1 4QD", "locality": "Glasgow", "post_town": "Glasgow", "postcode": "G1 4QD", "region": "Glasgow City"}, "name": "Sub Club", "related_places": {}, "timezone": "Europe/London"}, {"fsq_id": "55ba4ae6498e9ddd9b04f40f", "categories": [{"id": 13006, "name": "Beer Bar", "short_name": "Beer Bar", "plural_name": "Beer Bars", "icon": {"prefix": "https://ss3.4sqi.net/img/categories_v2/nightlife/pub_", "suffix": ".png"}}, {"id": 13018, "name": "Pub", "short_name": "Pub", "plural_name": "Pubs", "icon": {"prefix": "https://ss3.4sqi.net/img/categories_v2/nightlife/pub_", "suffix": ".png"}}, {"id": 13065, "name": "Restaurant", "short_name": "Restaurant", "plural_name": "Restaurants", "icon": {"prefix": "https://ss3.4sqi.net/img/categories_v2/food/default_", "suffix": ".png"}}], "chains": [], "closed_bucket": "VeryLikelyOpen", "distance": 592, "geocodes": {"drop_off": {"latitude": 55.85458, "longitude": -4.250334}, "main": {"latitude": 55.85446, "longitude": -4.250021}, "roof": {"latitude": 55.85446, "longitude": -4.250021}}, "link": "/v3/places/55ba4ae6498e9ddd9b04f40f", "location": {"address": "167-169 Stockwell St", "admin_region": "Scotland", "country": "GB", "cross_street": "", "formatted_address": "167-169 Stockwell St, Glasgow, Glasgow City, G1 4SP", "locality": "Glasgow", "post_town": "Glasgow", "postcode": "G1 4SP", "region": "Glasgow City"}, "name": "The Clutha Bar", "related_places": {}, "timezone": "Europe/London"}, {"fsq_id": "53c583cf498e63ea4da3718c", "categories": [{"id": 13303, "name": "Mexican Restaurant", "short_name": "Mexican", "plural_name": "Mexican Restaurants", "icon": {"prefix": "https://ss3.4sqi.net/img/categories_v2/food/mexican_", "suffix": ".png"}}, {"id": 13347, "name": "Tapas Restaurant", "short_name": "Tapas", "plural_name": "Tapas Restaurants", "icon": {"prefix": "https://ss3.4sqi.net/img/categories_v2/food/tapas_", "suffix": ".png"}}], "chains": [], "closed_bucket": "Unsure", "distance": 993, "geocodes": {"main": {"latitude": 55.861321, "longitude": -4.256256}, "roof": {"latitude": 55.861321, "longitude": -4.256256}}, "link": "/v3/places/53c583cf498e63ea4da3718c", "location": {"address": "89 St Vincent St", "admin_region": "Scotland", "country": "GB", "cross_street": "", "formatted_address": "89 St Vincent St, Glasgow, G2 5TF", "locality": "Glasgow", "post_town": "Glasgow", "postcode": "G2 5TF"}, "name": "Topolabamba", "related_places": {}, "timezone": "Europe/London"}, {"fsq_id": "4ade0865f964a5208b6721e3", "categories": [{"id": 13025, "name": "Wine Bar", "short_name": "Wine Bar", "plural_name": "Wine Bars", "icon": {"prefix": "https://ss3.4sqi.net/img/categories_v2/food/winery_", "suffix": ".png"}}, {"id": 13034, "name": "Caf\u00e9", "short_name": "Caf\u00e9", "plural_name": "Caf\u00e9s", "icon": {"prefix": "https://ss3.4sqi.net/img/categories_v2/food/cafe_", "suffix": ".png"}}, {"id": 13377, "name": "Vegan and Vegetarian Restaurant", "short_name": "Vegan and Vegetarian Restaurant", "plural_name": "Vegan and Vegetarian Restaurants", "icon": {"prefix": "https://ss3.4sqi.net/img/categories_v2/food/vegetarian_", "suffix": ".png"}}], "chains": [], "closed_bucket": "Unsure", "distance": 957, "geocodes": {"main": {"latitude": 55.861123, "longitude": -4.257896}, "roof": {"latitude": 55.861123, "longitude": -4.257896}}, "link": "/v3/places/4ade0865f964a5208b6721e3", "location": {"address": "20-28 Renfield Lane", "admin_region": "Scotland", "country": "GB", "formatted_address": "20-28 Renfield Lane, Glasgow, Glasgow City, G2 5AR", "locality": "Glasgow", "post_town": "Glasgow", "postcode": "G2 5AR", "region": "Glasgow City"}, "name": "Stereo", "related_places": {}, "timezone": "Europe/London"}, {"fsq_id": "5aa9491069e77b5f8b64713a", "categories": [{"id": 13145, "name": "Fast Food Restaurant", "short_name": "Fast Food", "plural_name": "Fast Food Restaurants", "icon": {"prefix": "https://ss3.4sqi.net/img/categories_v2/food/fastfood_", "suffix": ".png"}}], "chains": [], "closed_bucket": "Unsure", "distance": 921, "geocodes": {"main": {"latitude": 55.860611, "longitude": -4.255778}, "roof": {"latitude": 55.860611, "longitude": -4.255778}}, "link": "/v3/places/5aa9491069e77b5f8b64713a", "location": {"address": "28 Gordon St", "admin_region": "Scotland", "country": "GB", "cross_street": "", "formatted_address": "28 Gordon St, Glasgow, Glasgow City, G1 3PW", "locality": "Glasgow", "post_town": "Glasgow", "postcode": "G1 3PW", "region": "Glasgow City"}, "name": "Tantrum Doughnuts", "related_places": {"children": []}, "timezone": "Europe/London"}, {"fsq_id": "4b6c5d0cf964a520d7332ce3", "categories": [{"id": 13003, "name": "Bar", "short_name": "Bar", "plural_name": "Bars", "icon": {"prefix": "https://ss3.4sqi.net/img/categories_v2/nightlife/pub_", "suffix": ".png"}}, {"id": 13064, "name": "Pizzeria", "short_name": "Pizza", "plural_name": "Pizzerias", "icon": {"prefix": "https://ss3.4sqi.net/img/categories_v2/food/pizza_", "suffix": ".png"}}, {"id": 13377, "name": "Vegan and Vegetarian Restaurant", "short_name": "Vegan and Vegetarian Restaurant", "plural_name": "Vegan and Vegetarian Restaurants", "icon": {"prefix": "https://ss3.4sqi.net/img/categories_v2/food/vegetarian_", "suffix": ".png"}}], "chains": [], "closed_bucket": "VeryLikelyOpen", "distance": 848, "geocodes": {"main": {"latitude": 55.855682, "longitude": -4.246134}, "roof": {"latitude": 55.855682, "longitude": -4.246134}}, "link": "/v3/places/4b6c5d0cf964a520d7332ce3", "location": {"address": "12 Kings Ct", "admin_region": "Scotland", "country": "GB", "cross_street": "at King St", "formatted_address": "12 Kings Ct (at King St), Glasgow, Glasgow City, G1 5RB", "locality": "Glasgow", "post_town": "Glasgow", "postcode": "G1 5RB", "region": "Glasgow City"}, "name": "Mono", "related_places": {}, "timezone": "Europe/London"}, {"fsq_id": "58c980c433a245307737992d", "categories": [{"id": 13003, "name": "Bar", "short_name": "Bar", "plural_name": "Bars", "icon": {"prefix": "https://ss3.4sqi.net/img/categories_v2/nightlife/pub_", "suffix": ".png"}}], "chains": [], "closed_bucket": "VeryLikelyOpen", "distance": 868, "geocodes": {"drop_off": {"latitude": 55.860263, "longitude": -4.259283}, "main": {"latitude": 55.860359, "longitude": -4.259275}, "roof": {"latitude": 55.860359, "longitude": -4.259275}}, "link": "/v3/places/58c980c433a245307737992d", "location": {"address": "6-8 Waterloo St", "admin_region": "Scotland", "country": "GB", "cross_street": "", "formatted_address": "6-8 Waterloo St, Glasgow, G2 6DA", "locality": "Glasgow", "post_town": "Glasgow", "postcode": "G2 6DA"}, "name": "The Smoking Fox", "related_places": {}, "timezone": "Europe/London"}, {"fsq_id": "58037931d67cf45e38f69da8", "categories": [{"id": 13199, "name": "Indian Restaurant", "short_name": "Indian", "plural_name": "Indian Restaurants", "icon": {"prefix": "https://ss3.4sqi.net/img/categories_v2/food/indian_", "suffix": ".png"}}], "chains": [], "closed_bucket": "VeryLikelyOpen", "distance": 998, "geocodes": {"drop_off": {"latitude": 55.861395, "longitude": -4.255884}, "main": {"latitude": 55.861236, "longitude": -4.255903}, "roof": {"latitude": 55.861236, "longitude": -4.255903}}, "link": "/v3/places/58037931d67cf45e38f69da8", "location": {"address": "79 St Vincent St", "admin_region": "Scotland", "country": "GB", "cross_street": "", "formatted_address": "79 St Vincent St, Glasgow, Glasgow City, G2 5TF", "locality": "Glasgow", "post_town": "Glasgow", "postcode": "G2 5TF", "region": "Glasgow City"}, "name": "Chaakoo Bombay Cafe", "related_places": {}, "timezone": "Europe/London"}, {"fsq_id": "5180eb5a498e2b4ff6c7ab2f", "categories": [{"id": 13013, "name": "Hotel Bar", "short_name": "Hotel Bar", "plural_name": "Hotel Bars", "icon": {"prefix": "https://ss3.4sqi.net/img/categories_v2/travel/hotel_bar_", "suffix": ".png"}}], "chains": [], "closed_bucket": "VeryLikelyOpen", "distance": 696, "geocodes": {"main": {"latitude": 55.858813, "longitude": -4.260524}, "roof": {"latitude": 55.858813, "longitude": -4.260524}}, "link": "/v3/places/5180eb5a498e2b4ff6c7ab2f", "location": {"country": "GB", "cross_street": "", "formatted_address": ""}, "name": "The Atrium, Radisson Blu", "related_places": {"parent": {"fsq_id": "4b6385b5f964a5208f802ae3", "categories": [{"id": 19014, "name": "Hotel", "short_name": "Hotel", "plural_name": "Hotels", "icon": {"prefix": "https://ss3.4sqi.net/img/categories_v2/travel/hotel_", "suffix": ".png"}}], "name": "Radisson Blu Hotel, Glasgow"}}, "timezone": "Europe/London"}, {"fsq_id": "4b76f668f964a520036f2ee3", "categories": [{"id": 13009, "name": "Cocktail Bar", "short_name": "Cocktail", "plural_name": "Cocktail Bars", "icon": {"prefix": "https://ss3.4sqi.net/img/categories_v2/nightlife/cocktails_", "suffix": ".png"}}, {"id": 13025, "name": "Wine Bar", "short_name": "Wine Bar", "plural_name": "Wine Bars", "icon": {"prefix": "https://ss3.4sqi.net/img/categories_v2/food/winery_", "suffix": ".png"}}, {"id": 13145, "name": "Fast Food Restaurant", "short_name": "Fast Food", "plural_name": "Fast Food Restaurants", "icon": {"prefix": "https://ss3.4sqi.net/img/categories_v2/food/fastfood_", "suffix": ".png"}}], "chains": [], "closed_bucket": "VeryLikelyOpen", "distance": 885, "geocodes": {"main": {"latitude": 55.859437, "longitude": -4.252344}, "roof": {"latitude": 55.859437, "longitude": -4.252344}}, "link": "/v3/places/4b76f668f964a520036f2ee3", "location": {"address": "73 Queen St", "admin_region": "Scotland", "country": "GB", "formatted_address": "73 Queen St, Glasgow, Glasgow City, G1 3BZ", "locality": "Glasgow", "post_town": "Glasgow", "postcode": "G1 3BZ", "region": "Glasgow City"}, "name": "Max's Bar and Grill", "related_places": {}, "timezone": "Europe/London"}, {"fsq_id": "5de800781a9c7d0008fa7469", "categories": [{"id": 13236, "name": "Italian Restaurant", "short_name": "Italian", "plural_name": "Italian Restaurants", "icon": {"prefix": "https://ss3.4sqi.net/img/categories_v2/food/italian_", "suffix": ".png"}}], "chains": [], "closed_bucket": "Unsure", "distance": 836, "geocodes": {"drop_off": {"latitude": 55.859744, "longitude": -4.255787}, "main": {"latitude": 55.859725, "longitude": -4.255611}, "roof": {"latitude": 55.859725, "longitude": -4.255611}}, "link": "/v3/places/5de800781a9c7d0008fa7469", "location": {"address": "60-70 Mitchell St", "admin_region": "Scotland", "country": "GB", "cross_street": "Mitchell Lane", "formatted_address": "60-70 Mitchell St (Mitchell Lane), Glasgow, Glasgow City", "locality": "Glasgow", "post_town": "Glasgow", "region": "Glasgow City"}, "name": "Sugo", "related_places": {}, "timezone": "Europe/London"}, {"fsq_id": "5726150c498e9434471fae55", "categories": [{"id": 13302, "name": "Mediterranean Restaurant", "short_name": "Mediterranean", "plural_name": "Mediterranean Restaurants", "icon": {"prefix": "https://ss3.4sqi.net/img/categories_v2/food/mediterranean_", "suffix": ".png"}}, {"id": 13309, "name": "Middle Eastern Restaurant", "short_name": "Middle Eastern", "plural_name": "Middle Eastern Restaurants", "icon": {"prefix": "https://ss3.4sqi.net/img/categories_v2/food/middleeastern_", "suffix": ".png"}}], "chains": [], "closed_bucket": "LikelyOpen", "distance": 53, "geocodes": {"main": {"latitude": 55.853023, "longitude": -4.258596}, "roof": {"latitude": 55.853023, "longitude": -4.258596}}, "link": "/v3/places/5726150c498e9434471fae55", "location": {"address": "61 Bridge St", "admin_region": "Scotland", "country": "GB", "cross_street": "", "formatted_address": "61 Bridge St, Glasgow, Glasgow City, G5 9JB", "locality": "Glasgow", "post_town": "Glasgow", "postcode": "G5 9JB", "region": "Glasgow City"}, "name": "Al Sultan", "related_places": {}, "timezone": "Europe/London"}, {"fsq_id": "59b28e345d891b3e55d2ab9d", "categories": [{"id": 13040, "name": "Dessert Shop", "short_name": "Desserts", "plural_name": "Dessert Shops", "icon": {"prefix": "https://ss3.4sqi.net/img/categories_v2/food/dessert_", "suffix": ".png"}}, {"id": 13065, "name": "Restaurant", "short_name": "Restaurant", "plural_name": "Restaurants", "icon": {"prefix": "https://ss3.4sqi.net/img/categories_v2/food/default_", "suffix": ".png"}}], "chains": [], "closed_bucket": "Unsure", "distance": 810, "geocodes": {"main": {"latitude": 55.859226, "longitude": -4.254195}, "roof": {"latitude": 55.859226, "longitude": -4.254195}}, "link": "/v3/places/59b28e345d891b3e55d2ab9d", "location": {"address": "42 Buchanan St", "admin_region": "Scotland", "country": "GB", "cross_street": "", "formatted_address": "42 Buchanan St, Glasgow, Glasgow City, G1 3JX", "locality": "Glasgow", "post_town": "Glasgow", "postcode": "G1 3JX", "region": "Glasgow City"}, "name": "Hotel Chocolat", "related_places": {}, "timezone": "Europe/London"}, {"fsq_id": "5371be2f498e5399f8fc2010", "categories": [{"id": 13034, "name": "Caf\u00e9", "short_name": "Caf\u00e9", "plural_name": "Caf\u00e9s", "icon": {"prefix": "https://ss3.4sqi.net/img/categories_v2/food/cafe_", "suffix": ".png"}}, {"id": 13035, "name": "Coffee Shop", "short_name": "Coffee Shop", "plural_name": "Coffee Shops", "icon": {"prefix": "https://ss3.4sqi.net/img/categories_v2/food/coffeeshop_", "suffix": ".png"}}, {"id": 13065, "name": "Restaurant", "short_name": "Restaurant", "plural_name": "Restaurants", "icon": {"prefix": "https://ss3.4sqi.net/img/categories_v2/food/default_", "suffix": ".png"}}], "chains": [], "closed_bucket": "Unsure", "distance": 885, "geocodes": {"main": {"latitude": 55.8604, "longitude": -4.257629}, "roof": {"latitude": 55.8604, "longitude": -4.257629}}, "link": "/v3/places/5371be2f498e5399f8fc2010", "location": {"address": "79 Gordon St", "admin_region": "Scotland", "country": "GB", "cross_street": "", "formatted_address": "79 Gordon St, Glasgow, Glasgow City, G1 3SQ", "locality": "Glasgow", "post_town": "Glasgow", "postcode": "G1 3SQ", "region": "Glasgow City"}, "name": "Gordon Street Coffee", "related_places": {}, "timezone": "Europe/London"}, {"fsq_id": "4b4df610f964a52050dc26e3", "categories": [{"id": 13007, "name": "Beer Garden", "short_name": "Beer Garden", "plural_name": "Beer Gardens", "icon": {"prefix": "https://ss3.4sqi.net/img/categories_v2/nightlife/beergarden_", "suffix": ".png"}}, {"id": 13018, "name": "Pub", "short_name": "Pub", "plural_name": "Pubs", "icon": {"prefix": "https://ss3.4sqi.net/img/categories_v2/nightlife/pub_", "suffix": ".png"}}, {"id": 13064, "name": "Pizzeria", "short_name": "Pizza", "plural_name": "Pizzerias", "icon": {"prefix": "https://ss3.4sqi.net/img/categories_v2/food/pizza_", "suffix": ".png"}}], "chains": [], "closed_bucket": "Unsure", "distance": 917, "geocodes": {"main": {"latitude": 55.860258, "longitude": -4.254576}, "roof": {"latitude": 55.860258, "longitude": -4.254576}}, "link": "/v3/places/4b4df610f964a52050dc26e3", "location": {"address": "9 Gordon St", "admin_region": "Scotland", "country": "GB", "cross_street": "", "formatted_address": "9 Gordon St, Glasgow, Glasgow City, G1 3PL", "locality": "Glasgow", "post_town": "Glasgow", "postcode": "G1 3PL", "region": "Glasgow City"}, "name": "Republic Bier Halle", "related_places": {}, "timezone": "Europe/London"}, {"fsq_id": "5644eccf498e44610759212b", "categories": [{"id": 13006, "name": "Beer Bar", "short_name": "Beer Bar", "plural_name": "Beer Bars", "icon": {"prefix": "https://ss3.4sqi.net/img/categories_v2/nightlife/pub_", "suffix": ".png"}}, {"id": 13065, "name": "Restaurant", "short_name": "Restaurant", "plural_name": "Restaurants", "icon": {"prefix": "https://ss3.4sqi.net/img/categories_v2/food/default_", "suffix": ".png"}}], "chains": [], "closed_bucket": "VeryLikelyOpen", "distance": 965, "geocodes": {"main": {"latitude": 55.861276, "longitude": -4.259828}, "roof": {"latitude": 55.861276, "longitude": -4.259828}}, "link": "/v3/places/5644eccf498e44610759212b", "location": {"address": "30 Bothwell St", "admin_region": "Scotland", "country": "GB", "cross_street": "", "formatted_address": "30 Bothwell St, Glasgow, Glasgow City, G2 6NU", "locality": "Glasgow", "post_town": "Glasgow", "postcode": "G2 6NU", "region": "Glasgow City"}, "name": "Bavaria Brauhaus", "related_places": {}, "timezone": "Europe/London"}, {"fsq_id": "5d472f2606251200087766db", "categories": [{"id": 13065, "name": "Restaurant", "short_name": "Restaurant", "plural_name": "Restaurants", "icon": {"prefix": "https://ss3.4sqi.net/img/categories_v2/food/default_", "suffix": ".png"}}], "chains": [], "closed_bucket": "VeryLikelyOpen", "distance": 939, "geocodes": {"drop_off": {"latitude": 55.860614, "longitude": -4.254093}, "main": {"latitude": 55.860512, "longitude": -4.253813}, "roof": {"latitude": 55.860512, "longitude": -4.253813}}, "link": "/v3/places/5d472f2606251200087766db", "location": {"address": "106 Buchanan St", "admin_region": "Scotland", "country": "GB", "cross_street": "", "formatted_address": "106 Buchanan St, Glasgow, Glasgow City, G1 2NB", "locality": "Glasgow", "post_town": "Glasgow", "postcode": "G1 2NB", "region": "Glasgow City"}, "name": "The Ivy Buchanan Street, Glasgow", "related_places": {}, "timezone": "Europe/London"}, {"fsq_id": "4eecb82346907303be234128", "categories": [{"id": 13034, "name": "Caf\u00e9", "short_name": "Caf\u00e9", "plural_name": "Caf\u00e9s", "icon": {"prefix": "https://ss3.4sqi.net/img/categories_v2/food/cafe_", "suffix": ".png"}}, {"id": 13035, "name": "Coffee Shop", "short_name": "Coffee Shop", "plural_name": "Coffee Shops", "icon": {"prefix": "https://ss3.4sqi.net/img/categories_v2/food/coffeeshop_", "suffix": ".png"}}, {"id": 13065, "name": "Restaurant", "short_name": "Restaurant", "plural_name": "Restaurants", "icon": {"prefix": "https://ss3.4sqi.net/img/categories_v2/food/default_", "suffix": ".png"}}], "chains": [], "closed_bucket": "VeryLikelyOpen", "distance": 1016, "geocodes": {"main": {"latitude": 55.856657, "longitude": -4.244727}, "roof": {"latitude": 55.856657, "longitude": -4.244727}}, "link": "/v3/places/4eecb82346907303be234128", "location": {"address": "27 Trongate", "admin_region": "Scotland", "country": "GB", "cross_street": "", "formatted_address": "27 Trongate, Glasgow, G1 5EZ", "locality": "Glasgow", "post_town": "Glasgow", "postcode": "G1 5EZ"}, "name": "Rose & Grants", "related_places": {}, "timezone": "Europe/London"}, {"fsq_id": "4c3dba31a9509c74a39b395b", "categories": [{"id": 13018, "name": "Pub", "short_name": "Pub", "plural_name": "Pubs", "icon": {"prefix": "https://ss3.4sqi.net/img/categories_v2/nightlife/pub_", "suffix": ".png"}}, {"id": 16020, "name": "Historic and Protected Site", "short_name": "Historic and Protected Site", "plural_name": "Historic and Protected Sites", "icon": {"prefix": "https://ss3.4sqi.net/img/categories_v2/arts_entertainment/historicsite_", "suffix": ".png"}}], "chains": [], "closed_bucket": "VeryLikelyOpen", "distance": 635, "geocodes": {"main": {"latitude": 55.855449, "longitude": -4.250226}, "roof": {"latitude": 55.855449, "longitude": -4.250226}}, "link": "/v3/places/4c3dba31a9509c74a39b395b", "location": {"address": "112-114 Stockwell St", "admin_region": "Scotland", "country": "GB", "formatted_address": "112-114 Stockwell St, Glasgow, Glasgow City, G1 4LW", "locality": "Glasgow", "post_town": "Glasgow", "postcode": "G1 4LW", "region": "Glasgow City"}, "name": "Scotia Bar", "related_places": {}, "timezone": "Europe/London"}, {"fsq_id": "4db2d7b65da3a76f441ad601", "categories": [{"id": 13034, "name": "Caf\u00e9", "short_name": "Caf\u00e9", "plural_name": "Caf\u00e9s", "icon": {"prefix": "https://ss3.4sqi.net/img/categories_v2/food/cafe_", "suffix": ".png"}}, {"id": 13036, "name": "Tea Room", "short_name": "Tea Room", "plural_name": "Tea Rooms", "icon": {"prefix": "https://ss3.4sqi.net/img/categories_v2/food/tearoom_", "suffix": ".png"}}, {"id": 13065, "name": "Restaurant", "short_name": "Restaurant", "plural_name": "Restaurants", "icon": {"prefix": "https://ss3.4sqi.net/img/categories_v2/food/default_", "suffix": ".png"}}], "chains": [], "closed_bucket": "Unsure", "distance": 877, "geocodes": {"main": {"latitude": 55.860052, "longitude": -4.2545}, "roof": {"latitude": 55.860052, "longitude": -4.2545}}, "link": "/v3/places/4db2d7b65da3a76f441ad601", "location": {"address": "97 Buchanan St", "admin_region": "Scotland", "country": "GB", "formatted_address": "97 Buchanan St, Glasgow, Glasgow City, G1 3HF", "locality": "Glasgow", "post_town": "Glasgow", "postcode": "G1 3HF", "region": "Glasgow City"}, "name": "Willow Tea Rooms", "related_places": {"children": []}, "timezone": "Europe/London"}, {"fsq_id": "4b37d796f964a520464725e3", "categories": [{"id": 13011, "name": "Gay Bar", "short_name": "Gay Bar", "plural_name": "Gay Bars", "icon": {"prefix": "https://ss3.4sqi.net/img/categories_v2/nightlife/gaybar_", "suffix": ".png"}}, {"id": 13015, "name": "Karaoke Bar", "short_name": "Karaoke", "plural_name": "Karaoke Bars", "icon": {"prefix": "https://ss3.4sqi.net/img/categories_v2/nightlife/karaoke_", "suffix": ".png"}}, {"id": 13025, "name": "Wine Bar", "short_name": "Wine Bar", "plural_name": "Wine Bars", "icon": {"prefix": "https://ss3.4sqi.net/img/categories_v2/food/winery_", "suffix": ".png"}}], "chains": [], "closed_bucket": "Unsure", "distance": 923, "geocodes": {"main": {"latitude": 55.859064, "longitude": -4.249635}, "roof": {"latitude": 55.859064, "longitude": -4.249635}}, "link": "/v3/places/4b37d796f964a520464725e3", "location": {"address": "68 Virginia St", "admin_region": "Scotland", "country": "GB", "formatted_address": "68 Virginia St, Merchant City, Glasgow City, G1 1TX", "locality": "Merchant City", "post_town": "Glasgow", "postcode": "G1 1TX", "region": "Glasgow City"}, "name": "Delmonicas", "related_places": {}, "timezone": "Europe/London"}, {"fsq_id": "4b48a913f964a520ee5126e3", "categories": [{"id": 13236, "name": "Italian Restaurant", "short_name": "Italian", "plural_name": "Italian Restaurants", "icon": {"prefix": "https://ss3.4sqi.net/img/categories_v2/food/italian_", "suffix": ".png"}}], "chains": [], "closed_bucket": "Unsure", "distance": 910, "geocodes": {"main": {"latitude": 55.859929, "longitude": -4.252955}, "roof": {"latitude": 55.859929, "longitude": -4.252955}}, "link": "/v3/places/4b48a913f964a520ee5126e3", "location": {"address": "21 Royal Exchange Square", "admin_region": "Scotland", "country": "GB", "formatted_address": "21 Royal Exchange Square, Glasgow, Glasgow City, G1 3AJ", "locality": "Glasgow", "post_town": "Glasgow", "postcode": "G1 3AJ", "region": "Glasgow City"}, "name": "Di Maggio's", "related_places": {}, "timezone": "Europe/London"}, {"fsq_id": "5849c7c116f00008d58bf116", "categories": [{"id": 13345, "name": "Spanish Restaurant", "short_name": "Spanish", "plural_name": "Spanish Restaurants", "icon": {"prefix": "https://ss3.4sqi.net/img/categories_v2/food/spanish_", "suffix": ".png"}}, {"id": 13383, "name": "Steakhouse", "short_name": "Steakhouse", "plural_name": "Steakhouses", "icon": {"prefix": "https://ss3.4sqi.net/img/categories_v2/food/steakhouse_", "suffix": ".png"}}], "chains": [], "closed_bucket": "LikelyOpen", "distance": 912, "geocodes": {"main": {"latitude": 55.859375, "longitude": -4.25066}, "roof": {"latitude": 55.859375, "longitude": -4.25066}}, "link": "/v3/places/5849c7c116f00008d58bf116", "location": {"address": "80 Miller St", "admin_region": "Scotland", "country": "GB", "cross_street": "", "formatted_address": "80 Miller St, Glasgow, Glasgow City, G1 1DT", "locality": "Glasgow", "post_town": "Glasgow", "postcode": "G1 1DT", "region": "Glasgow City"}, "name": "The Spanish Butcher", "related_places": {}, "timezone": "Europe/London"}, {"fsq_id": "5c02e01ad552c7002c2c58fc", "categories": [{"id": 13236, "name": "Italian Restaurant", "short_name": "Italian", "plural_name": "Italian Restaurants", "icon": {"prefix": "https://ss3.4sqi.net/img/categories_v2/food/italian_", "suffix": ".png"}}], "chains": [], "closed_bucket": "LikelyOpen", "distance": 907, "geocodes": {"drop_off": {"latitude": 55.86051, "longitude": -4.256066}, "main": {"latitude": 55.860648, "longitude": -4.25606}, "roof": {"latitude": 55.860648, "longitude": -4.25606}}, "link": "/v3/places/5c02e01ad552c7002c2c58fc", "location": {"address": "40 Gordon St", "admin_region": "Scotland", "country": "GB", "cross_street": "", "formatted_address": "40 Gordon St, Glasgow, Glasgow City, G1 3PU", "locality": "Glasgow", "post_town": "Glasgow", "postcode": "G1 3PU", "region": "Glasgow City"}, "name": "La Vita Spuntini", "related_places": {}, "timezone": "Europe/London"}, {"fsq_id": "4b75abdaf964a520cd1b2ee3", "categories": [{"id": 13003, "name": "Bar", "short_name": "Bar", "plural_name": "Bars", "icon": {"prefix": "https://ss3.4sqi.net/img/categories_v2/nightlife/pub_", "suffix": ".png"}}, {"id": 13065, "name": "Restaurant", "short_name": "Restaurant", "plural_name": "Restaurants", "icon": {"prefix": "https://ss3.4sqi.net/img/categories_v2/food/default_", "suffix": ".png"}}], "chains": [], "closed_bucket": "Unsure", "distance": 721, "geocodes": {"main": {"latitude": 55.859085, "longitude": -4.259446}, "roof": {"latitude": 55.859085, "longitude": -4.259446}}, "link": "/v3/places/4b75abdaf964a520cd1b2ee3", "location": {"address": "19 Hope St", "admin_region": "Scotland", "country": "GB", "formatted_address": "19 Hope St, Glasgow, Glasgow City, G2 6AB", "locality": "Glasgow", "post_town": "Glasgow", "postcode": "G2 6AB", "region": "Glasgow City"}, "name": "The Solid Rock Cafe", "related_places": {}, "timezone": "Europe/London"}, {"fsq_id": "4d41b2e94acd236a9f7cfca9", "categories": [{"id": 13051, "name": "Fish and Chips Shop", "short_name": "Fish and Chips Shop", "plural_name": "Fish and Chips Shops", "icon": {"prefix": "https://ss3.4sqi.net/img/categories_v2/food/fishandchips_", "suffix": ".png"}}, {"id": 13145, "name": "Fast Food Restaurant", "short_name": "Fast Food", "plural_name": "Fast Food Restaurants", "icon": {"prefix": "https://ss3.4sqi.net/img/categories_v2/food/fastfood_", "suffix": ".png"}}, {"id": 13352, "name": "Thai Restaurant", "short_name": "Thai", "plural_name": "Thai Restaurants", "icon": {"prefix": "https://ss3.4sqi.net/img/categories_v2/food/thai_", "suffix": ".png"}}], "chains": [], "closed_bucket": "Unsure", "distance": 662, "geocodes": {"main": {"latitude": 55.858587, "longitude": -4.25803}, "roof": {"latitude": 55.858587, "longitude": -4.25803}}, "link": "/v3/places/4d41b2e94acd236a9f7cfca9", "location": {"address": "208 Argyle St", "admin_region": "Scotland", "country": "GB", "formatted_address": "208 Argyle St, Glasgow, Glasgow City, G2 8HA", "locality": "Glasgow", "post_town": "Glasgow", "postcode": "G2 8HA", "region": "Glasgow City"}, "name": "Blue Lagoon", "related_places": {}, "timezone": "Europe/London"}, {"fsq_id": "54b82735498e991be3c5ea7d", "categories": [{"id": 13296, "name": "Kurdish Restaurant", "short_name": "Kurdish", "plural_name": "Kurdish Restaurants", "icon": {"prefix": "https://ss3.4sqi.net/img/categories_v2/food/middleeastern_", "suffix": ".png"}}, {"id": 13356, "name": "Turkish Restaurant", "short_name": "Turkish", "plural_name": "Turkish Restaurants", "icon": {"prefix": "https://ss3.4sqi.net/img/categories_v2/food/turkish_", "suffix": ".png"}}], "chains": [], "closed_bucket": "VeryLikelyOpen", "distance": 767, "geocodes": {"drop_off": {"latitude": 55.855185, "longitude": -4.247206}, "main": {"latitude": 55.855052, "longitude": -4.247026}, "roof": {"latitude": 55.855052, "longitude": -4.247026}}, "link": "/v3/places/54b82735498e991be3c5ea7d", "location": {"address": "B Kings Ct King St", "admin_region": "Scotland", "country": "GB", "cross_street": "", "formatted_address": "B Kings Ct King St, Glasgow, Glasgow City, G1 5RB", "locality": "Glasgow", "post_town": "Glasgow", "postcode": "G1 5RB", "region": "Glasgow City"}, "name": "Shawarma King", "related_places": {}, "timezone": "Europe/London"}, {"fsq_id": "5515b46c498edbb34c84b689", "categories": [{"id": 13030, "name": "Buffet", "short_name": "Buffet", "plural_name": "Buffets", "icon": {"prefix": "https://ss3.4sqi.net/img/categories_v2/food/default_", "suffix": ".png"}}], "chains": [], "closed_bucket": "VeryLikelyOpen", "distance": 836, "geocodes": {"main": {"latitude": 55.853525, "longitude": -4.27196}, "roof": {"latitude": 55.853525, "longitude": -4.27196}}, "link": "/v3/places/5515b46c498edbb34c84b689", "location": {"address": "251 Paisley Rd", "admin_region": "Scotland", "country": "GB", "cross_street": "", "formatted_address": "251 Paisley Rd, Glasgow, G5 8RA", "locality": "Glasgow", "post_town": "Glasgow", "postcode": "G5 8RA"}, "name": "Cook & Indi's World Buffet", "related_places": {}, "timezone": "Europe/London"}, {"fsq_id": "59298d15780eee6f1f6d4af3", "categories": [{"id": 13032, "name": "Cafe, Coffee, and Tea House", "short_name": "Cafe, Coffee, and Tea House", "plural_name": "Cafes, Coffee, and Tea Houses", "icon": {"prefix": "https://ss3.4sqi.net/img/categories_v2/food/coffeeshop_", "suffix": ".png"}}, {"id": 13043, "name": "Donut Shop", "short_name": "Donuts", "plural_name": "Donut Shops", "icon": {"prefix": "https://ss3.4sqi.net/img/categories_v2/food/donuts_", "suffix": ".png"}}, {"id": 13065, "name": "Restaurant", "short_name": "Restaurant", "plural_name": "Restaurants", "icon": {"prefix": "https://ss3.4sqi.net/img/categories_v2/food/default_", "suffix": ".png"}}], "chains": [{"id": "d5719cc0-d890-0132-61d3-7a163eb2a6fc", "name": "Tim Hortons"}], "closed_bucket": "VeryLikelyOpen", "distance": 665, "geocodes": {"drop_off": {"latitude": 55.858351, "longitude": -4.256985}, "main": {"latitude": 55.858489, "longitude": -4.256975}, "roof": {"latitude": 55.858489, "longitude": -4.256975}}, "link": "/v3/places/59298d15780eee6f1f6d4af3", "location": {"address": "184 Argyle St", "admin_region": "Scotland", "country": "GB", "cross_street": "", "formatted_address": "184 Argyle St, Glasgow, Glasgow City, G2 8HA", "locality": "Glasgow", "post_town": "Glasgow", "postcode": "G2 8HA", "region": "Glasgow City"}, "name": "Tim Hortons", "related_places": {}, "timezone": "Europe/London"}, {"fsq_id": "4c6586789cb82d7fc10e8ed2", "categories": [{"id": 13009, "name": "Cocktail Bar", "short_name": "Cocktail", "plural_name": "Cocktail Bars", "icon": {"prefix": "https://ss3.4sqi.net/img/categories_v2/nightlife/cocktails_", "suffix": ".png"}}], "chains": [], "closed_bucket": "Unsure", "distance": 967, "geocodes": {"main": {"latitude": 55.859598, "longitude": -4.249511}, "roof": {"latitude": 55.859598, "longitude": -4.249511}}, "link": "/v3/places/4c6586789cb82d7fc10e8ed2", "location": {"address": "191 Ingram St", "admin_region": "Scotland", "country": "GB", "formatted_address": "191 Ingram St, Glasgow, Glasgow City, G1 1DA", "locality": "Glasgow", "post_town": "Glasgow", "postcode": "G1 1DA", "region": "Glasgow City"}, "name": "The Corinthian Club", "related_places": {}, "timezone": "Europe/London"}, {"fsq_id": "4b8ac57ef964a520ea7f32e3", "categories": [{"id": 13145, "name": "Fast Food Restaurant", "short_name": "Fast Food", "plural_name": "Fast Food Restaurants", "icon": {"prefix": "https://ss3.4sqi.net/img/categories_v2/food/fastfood_", "suffix": ".png"}}, {"id": 13303, "name": "Mexican Restaurant", "short_name": "Mexican", "plural_name": "Mexican Restaurants", "icon": {"prefix": "https://ss3.4sqi.net/img/categories_v2/food/mexican_", "suffix": ".png"}}], "chains": [], "closed_bucket": "LikelyOpen", "distance": 917, "geocodes": {"main": {"latitude": 55.860715, "longitude": -4.256728}, "roof": {"latitude": 55.860715, "longitude": -4.256728}}, "link": "/v3/places/4b8ac57ef964a520ea7f32e3", "location": {"address": "6 Renfield St", "admin_region": "Scotland", "country": "GB", "cross_street": "", "formatted_address": "6 Renfield St, Glasgow, Glasgow City, G2 5AL", "locality": "Glasgow", "post_town": "Glasgow", "postcode": "G2 5AL", "region": "Glasgow City"}, "name": "Taco Mazama", "related_places": {}, "timezone": "Europe/London"}, {"fsq_id": "4b856efdf964a5209b5d31e3", "categories": [{"id": 13018, "name": "Pub", "short_name": "Pub", "plural_name": "Pubs", "icon": {"prefix": "https://ss3.4sqi.net/img/categories_v2/nightlife/pub_", "suffix": ".png"}}, {"id": 13065, "name": "Restaurant", "short_name": "Restaurant", "plural_name": "Restaurants", "icon": {"prefix": "https://ss3.4sqi.net/img/categories_v2/food/default_", "suffix": ".png"}}], "chains": [], "closed_bucket": "Unsure", "distance": 994, "geocodes": {"main": {"latitude": 55.861358, "longitude": -4.256537}, "roof": {"latitude": 55.861358, "longitude": -4.256537}}, "link": "/v3/places/4b856efdf964a5209b5d31e3", "location": {"address": "91 St. Vincent St", "admin_region": "Scotland", "country": "GB", "formatted_address": "91 St. Vincent St, Glasgow, Glasgow City, G2 5TF", "locality": "Glasgow", "post_town": "Glasgow", "postcode": "G2 5TF", "region": "Glasgow City"}, "name": "Drum & Monkey", "related_places": {}, "timezone": "Europe/London"}, {"fsq_id": "4b5b9194f964a520c30729e3", "categories": [{"id": 13018, "name": "Pub", "short_name": "Pub", "plural_name": "Pubs", "icon": {"prefix": "https://ss3.4sqi.net/img/categories_v2/nightlife/pub_", "suffix": ".png"}}, {"id": 13337, "name": "Scottish Restaurant", "short_name": "Scottish", "plural_name": "Scottish Restaurants", "icon": {"prefix": "https://ss3.4sqi.net/img/categories_v2/food/default_", "suffix": ".png"}}], "chains": [], "closed_bucket": "LikelyOpen", "distance": 989, "geocodes": {"main": {"latitude": 55.857101, "longitude": -4.245266}, "roof": {"latitude": 55.857101, "longitude": -4.245266}}, "link": "/v3/places/4b5b9194f964a520c30729e3", "location": {"address": "60 Trongate", "admin_region": "Scotland", "country": "GB", "formatted_address": "60 Trongate, Glasgow, Glasgow City, G1 5EP", "locality": "Glasgow", "post_town": "Glasgow", "postcode": "G1 5EP", "region": "Glasgow City"}, "name": "Maggie Mays", "related_places": {}, "timezone": "Europe/London"}, {"fsq_id": "4c110b613ce120a1b102091c", "categories": [{"id": 13003, "name": "Bar", "short_name": "Bar", "plural_name": "Bars", "icon": {"prefix": "https://ss3.4sqi.net/img/categories_v2/nightlife/pub_", "suffix": ".png"}}, {"id": 13065, "name": "Restaurant", "short_name": "Restaurant", "plural_name": "Restaurants", "icon": {"prefix": "https://ss3.4sqi.net/img/categories_v2/food/default_", "suffix": ".png"}}], "chains": [], "closed_bucket": "VeryLikelyOpen", "distance": 927, "geocodes": {"main": {"latitude": 55.858882, "longitude": -4.249139}, "roof": {"latitude": 55.858882, "longitude": -4.249139}}, "link": "/v3/places/4c110b613ce120a1b102091c", "location": {"address": "61-65 Glassford St", "admin_region": "Scotland", "country": "GB", "formatted_address": "61-65 Glassford St, Glasgow, Glasgow City, G1 1UG", "locality": "Glasgow", "post_town": "Glasgow", "postcode": "G1 1UG", "region": "Glasgow City"}, "name": "Warehouse Merchant City", "related_places": {}, "timezone": "Europe/London"}, {"fsq_id": "4b64b2d3f964a52043c92ae3", "categories": [{"id": 13018, "name": "Pub", "short_name": "Pub", "plural_name": "Pubs", "icon": {"prefix": "https://ss3.4sqi.net/img/categories_v2/nightlife/pub_", "suffix": ".png"}}, {"id": 13145, "name": "Fast Food Restaurant", "short_name": "Fast Food", "plural_name": "Fast Food Restaurants", "icon": {"prefix": "https://ss3.4sqi.net/img/categories_v2/food/fastfood_", "suffix": ".png"}}], "chains": [], "closed_bucket": "VeryLikelyOpen", "distance": 733, "geocodes": {"main": {"latitude": 55.858304, "longitude": -4.253746}, "roof": {"latitude": 55.858304, "longitude": -4.253746}}, "link": "/v3/places/4b64b2d3f964a52043c92ae3", "location": {"address": "62 Argyll Arcade", "address_extended": "Unit 62", "admin_region": "Scotland", "country": "GB", "cross_street": "108 Argyle St", "formatted_address": "62 Argyll Arcade (108 Argyle St), Glasgow, Glasgow City, G2 8BG", "locality": "Glasgow", "post_town": "Glasgow", "postcode": "G2 8BG", "region": "Glasgow City"}, "name": "Sloans", "related_places": {"parent": {"fsq_id": "4c2308289a67a5932f75dd87", "categories": [{"id": 17115, "name": "Shopping Plaza", "short_name": "Shopping Plaza", "plural_name": "Shopping Plazas", "icon": {"prefix": "https://ss3.4sqi.net/img/categories_v2/shops/mall_", "suffix": ".png"}}], "name": "Argyll Arcade"}}, "timezone": "Europe/London"}, {"fsq_id": "4b0e7c03f964a520e65723e3", "categories": [{"id": 13314, "name": "New American Restaurant", "short_name": "New American", "plural_name": "New American Restaurants", "icon": {"prefix": "https://ss3.4sqi.net/img/categories_v2/food/newamerican_", "suffix": ".png"}}], "chains": [], "closed_bucket": "Unsure", "distance": 921, "geocodes": {"drop_off": {"latitude": 55.861124, "longitude": -4.253798}, "main": {"latitude": 55.860476, "longitude": -4.254443}, "roof": {"latitude": 55.860476, "longitude": -4.254443}}, "link": "/v3/places/4b0e7c03f964a520e65723e3", "location": {"address": "113 Buchanan St", "admin_region": "Scotland", "country": "GB", "cross_street": "Gordon St", "formatted_address": "113 Buchanan St (Gordon St), Glasgow, Glasgow City, G1 3HF", "locality": "Glasgow", "post_town": "Glasgow", "postcode": "G1 3HF", "region": "Glasgow City"}, "name": "TGI Fridays", "related_places": {}, "timezone": "Europe/London"}, {"fsq_id": "4c1f634c920076b0f4a3c4e9", "categories": [{"id": 13018, "name": "Pub", "short_name": "Pub", "plural_name": "Pubs", "icon": {"prefix": "https://ss3.4sqi.net/img/categories_v2/nightlife/pub_", "suffix": ".png"}}], "chains": [], "closed_bucket": "LikelyOpen", "distance": 532, "geocodes": {"main": {"latitude": 55.856685, "longitude": -4.255344}, "roof": {"latitude": 55.856685, "longitude": -4.255344}}, "link": "/v3/places/4c1f634c920076b0f4a3c4e9", "location": {"address": "40 Howard St", "admin_region": "Scotland", "country": "GB", "formatted_address": "40 Howard St, Glasgow, G1 4EE", "locality": "Glasgow", "post_town": "Glasgow", "postcode": "G1 4EE"}, "name": "Hootenanny", "related_places": {}, "timezone": "Europe/London"}, {"fsq_id": "4b76a910f964a520f4562ee3", "categories": [{"id": 13009, "name": "Cocktail Bar", "short_name": "Cocktail", "plural_name": "Cocktail Bars", "icon": {"prefix": "https://ss3.4sqi.net/img/categories_v2/nightlife/cocktails_", "suffix": ".png"}}, {"id": 13025, "name": "Wine Bar", "short_name": "Wine Bar", "plural_name": "Wine Bars", "icon": {"prefix": "https://ss3.4sqi.net/img/categories_v2/food/winery_", "suffix": ".png"}}, {"id": 13068, "name": "American Restaurant", "short_name": "American", "plural_name": "American Restaurants", "icon": {"prefix": "https://ss3.4sqi.net/img/categories_v2/food/default_", "suffix": ".png"}}], "chains": [], "closed_bucket": "Unsure", "distance": 921, "geocodes": {"main": {"latitude": 55.859972, "longitude": -4.253131}, "roof": {"latitude": 55.859972, "longitude": -4.253131}}, "link": "/v3/places/4b76a910f964a520f4562ee3", "location": {"address": "27 Royal Exchange Square", "admin_region": "Scotland", "country": "GB", "formatted_address": "27 Royal Exchange Square, Glasgow, Glasgow City, G1 3AJ", "locality": "Glasgow", "post_town": "Glasgow", "postcode": "G1 3AJ", "region": "Glasgow City"}, "name": "The Social", "related_places": {}, "timezone": "Europe/London"}, {"fsq_id": "4b894198f964a520602632e3", "categories": [{"id": 13018, "name": "Pub", "short_name": "Pub", "plural_name": "Pubs", "icon": {"prefix": "https://ss3.4sqi.net/img/categories_v2/nightlife/pub_", "suffix": ".png"}}, {"id": 13057, "name": "Gastropub", "short_name": "Gastropub", "plural_name": "Gastropubs", "icon": {"prefix": "https://ss3.4sqi.net/img/categories_v2/food/gastropub_", "suffix": ".png"}}], "chains": [{"id": "07841cd9-3716-4bd6-8ebd-ad13070b3125", "name": "J D Wetherspoon"}], "closed_bucket": "VeryLikelyOpen", "distance": 690, "geocodes": {"main": {"latitude": 55.858831, "longitude": -4.260209}, "roof": {"latitude": 55.858831, "longitude": -4.260209}}, "link": "/v3/places/4b894198f964a520602632e3", "location": {"address": "260-292 Argyle St", "admin_region": "Scotland", "country": "GB", "formatted_address": "260-292 Argyle St, Glasgow, Glasgow City, G2 8QW", "locality": "Glasgow", "post_town": "Glasgow", "postcode": "G2 8QW", "region": "Glasgow City"}, "name": "The Sir John Moore", "related_places": {}, "timezone": "Europe/London"}, {"fsq_id": "53776f4d498e2945af514bd4", "categories": [{"id": 13314, "name": "New American Restaurant", "short_name": "New American", "plural_name": "New American Restaurants", "icon": {"prefix": "https://ss3.4sqi.net/img/categories_v2/food/newamerican_", "suffix": ".png"}}, {"id": 13317, "name": "Persian Restaurant", "short_name": "Persian", "plural_name": "Persian Restaurants", "icon": {"prefix": "https://ss3.4sqi.net/img/categories_v2/food/middleeastern_", "suffix": ".png"}}], "chains": [], "closed_bucket": "VeryLikelyOpen", "distance": 377, "geocodes": {"main": {"latitude": 55.853483, "longitude": -4.264391}, "roof": {"latitude": 55.853483, "longitude": -4.264391}}, "link": "/v3/places/53776f4d498e2945af514bd4", "location": {"address": "146-148 Nelson St", "admin_region": "Scotland", "country": "GB", "cross_street": "", "formatted_address": "146-148 Nelson St, Glasgow", "locality": "Glasgow", "post_town": "Glasgow"}, "name": "Sholeh Persian Restaurant", "related_places": {}, "timezone": "Europe/London"}, {"fsq_id": "4c87ab04821e9eb0f6cc8d89", "categories": [{"id": 13018, "name": "Pub", "short_name": "Pub", "plural_name": "Pubs", "icon": {"prefix": "https://ss3.4sqi.net/img/categories_v2/nightlife/pub_", "suffix": ".png"}}, {"id": 13065, "name": "Restaurant", "short_name": "Restaurant", "plural_name": "Restaurants", "icon": {"prefix": "https://ss3.4sqi.net/img/categories_v2/food/default_", "suffix": ".png"}}], "chains": [{"id": "07841cd9-3716-4bd6-8ebd-ad13070b3125", "name": "J D Wetherspoon"}], "closed_bucket": "Unsure", "distance": 564, "geocodes": {"main": {"latitude": 55.857567, "longitude": -4.257438}, "roof": {"latitude": 55.857567, "longitude": -4.257438}}, "link": "/v3/places/4c87ab04821e9eb0f6cc8d89", "location": {"address": "36 Jamaica St", "admin_region": "Scotland", "country": "GB", "formatted_address": "36 Jamaica St, Glasgow, Glasgow City, G1 4QD", "locality": "Glasgow", "post_town": "Glasgow", "postcode": "G1 4QD", "region": "Glasgow City"}, "name": "The Crystal Palace", "related_places": {}, "timezone": "Europe/London"}, {"fsq_id": "4bd818635cf276b06e6e9c00", "categories": [{"id": 13039, "name": "Deli", "short_name": "Deli", "plural_name": "Delis", "icon": {"prefix": "https://ss3.4sqi.net/img/categories_v2/food/deli_", "suffix": ".png"}}, {"id": 13145, "name": "Fast Food Restaurant", "short_name": "Fast Food", "plural_name": "Fast Food Restaurants", "icon": {"prefix": "https://ss3.4sqi.net/img/categories_v2/food/fastfood_", "suffix": ".png"}}, {"id": 13334, "name": "Sandwich Spot", "short_name": "Sandwich Spot", "plural_name": "Sandwich Spots", "icon": {"prefix": "https://ss3.4sqi.net/img/categories_v2/food/deli_", "suffix": ".png"}}], "chains": [{"id": "ab4bee40-d68a-012e-5619-003048cad9da", "name": "Subway"}], "closed_bucket": "VeryLikelyOpen", "distance": 862, "geocodes": {"main": {"latitude": 55.860206, "longitude": -4.257343}, "roof": {"latitude": 55.860206, "longitude": -4.257343}}, "link": "/v3/places/4bd818635cf276b06e6e9c00", "location": {"address": "107 Union St", "admin_region": "Scotland", "country": "GB", "formatted_address": "107 Union St, Glasgow, G1 3TA", "locality": "Glasgow", "post_town": "Glasgow", "postcode": "G1 3TA"}, "name": "Subway", "related_places": {}, "timezone": "Europe/London"}, {"fsq_id": "4c13853ea9c220a1fdd4559d", "categories": [{"id": 13022, "name": "Sports Bar", "short_name": "Sports Bar", "plural_name": "Sports Bars", "icon": {"prefix": "https://ss3.4sqi.net/img/categories_v2/nightlife/sportsbar_", "suffix": ".png"}}, {"id": 13068, "name": "American Restaurant", "short_name": "American", "plural_name": "American Restaurants", "icon": {"prefix": "https://ss3.4sqi.net/img/categories_v2/food/default_", "suffix": ".png"}}], "chains": [], "closed_bucket": "Unsure", "distance": 1004, "geocodes": {"main": {"latitude": 55.860748, "longitude": -4.252454}, "roof": {"latitude": 55.860748, "longitude": -4.252454}}, "link": "/v3/places/4c13853ea9c220a1fdd4559d", "location": {"address": "6 North Ct", "admin_region": "Scotland", "country": "GB", "formatted_address": "6 North Ct, Glasgow, Glasgow City, G1 2DP", "locality": "Glasgow", "post_town": "Glasgow", "postcode": "G1 2DP", "region": "Glasgow City"}, "name": "The Auctioneers", "related_places": {}, "timezone": "Europe/London"}, {"fsq_id": "4bf22eee78cec9282e40bb86", "categories": [{"id": 13031, "name": "Burger Joint", "short_name": "Burgers", "plural_name": "Burger Joints", "icon": {"prefix": "https://ss3.4sqi.net/img/categories_v2/food/burger_", "suffix": ".png"}}, {"id": 13145, "name": "Fast Food Restaurant", "short_name": "Fast Food", "plural_name": "Fast Food Restaurants", "icon": {"prefix": "https://ss3.4sqi.net/img/categories_v2/food/fastfood_", "suffix": ".png"}}], "chains": [{"id": "ab4a3530-d68a-012e-5619-003048cad9da", "name": "McDonald's"}], "closed_bucket": "VeryLikelyOpen", "distance": 853, "geocodes": {"main": {"latitude": 55.85728, "longitude": -4.2486}, "roof": {"latitude": 55.85728, "longitude": -4.2486}}, "link": "/v3/places/4bf22eee78cec9282e40bb86", "location": {"address": "165/167 Trongate", "admin_region": "Scotland", "country": "GB", "cross_street": "Trongate", "formatted_address": "165/167 Trongate (Trongate), Glasgow, Glasgow City, G1 5HF", "locality": "Glasgow", "post_town": "Glasgow", "postcode": "G1 5HF", "region": "Glasgow City"}, "name": "McDonald's", "related_places": {}, "timezone": "Europe/London"}, {"fsq_id": "4ba3d156f964a520c76238e3", "categories": [{"id": 13003, "name": "Bar", "short_name": "Bar", "plural_name": "Bars", "icon": {"prefix": "https://ss3.4sqi.net/img/categories_v2/nightlife/pub_", "suffix": ".png"}}, {"id": 13049, "name": "Diner", "short_name": "Diner", "plural_name": "Diners", "icon": {"prefix": "https://ss3.4sqi.net/img/categories_v2/food/diner_", "suffix": ".png"}}], "chains": [], "closed_bucket": "LikelyOpen", "distance": 556, "geocodes": {"main": {"latitude": 55.857183, "longitude": -4.25585}, "roof": {"latitude": 55.857183, "longitude": -4.25585}}, "link": "/v3/places/4ba3d156f964a520c76238e3", "location": {"address": "46-48 St. Enoch Square", "admin_region": "Scotland", "country": "GB", "formatted_address": "46-48 St. Enoch Square, Glasgow, Glasgow City, G1 4DH", "locality": "Glasgow", "post_town": "Glasgow", "postcode": "G1 4DH", "region": "Glasgow City"}, "name": "Times Square", "related_places": {}, "timezone": "Europe/London"}, {"fsq_id": "4bc6b4a3bf29c9b6fb41fa2a", "categories": [{"id": 13145, "name": "Fast Food Restaurant", "short_name": "Fast Food", "plural_name": "Fast Food Restaurants", "icon": {"prefix": "https://ss3.4sqi.net/img/categories_v2/food/fastfood_", "suffix": ".png"}}, {"id": 13334, "name": "Sandwich Spot", "short_name": "Sandwich Spot", "plural_name": "Sandwich Spots", "icon": {"prefix": "https://ss3.4sqi.net/img/categories_v2/food/deli_", "suffix": ".png"}}], "chains": [{"id": "2fcf0650-9c63-0132-6632-3c15c2dde6c8", "name": "Pret a Manger"}], "closed_bucket": "VeryLikelyOpen", "distance": 895, "geocodes": {"main": {"latitude": 55.860325, "longitude": -4.255244}, "roof": {"latitude": 55.860325, "longitude": -4.255244}}, "link": "/v3/places/4bc6b4a3bf29c9b6fb41fa2a", "location": {"address": "27 Gordon St", "admin_region": "Scotland", "country": "GB", "formatted_address": "27 Gordon St, Glasgow, Glasgow City, G1 3PL", "locality": "Glasgow", "post_town": "Glasgow", "postcode": "G1 3PL", "region": "Glasgow City"}, "name": "Pret a Manger", "related_places": {}, "timezone": "Europe/London"}, {"fsq_id": "4b6cb584f964a520104e2ce3", "categories": [{"id": 13051, "name": "Fish and Chips Shop", "short_name": "Fish and Chips Shop", "plural_name": "Fish and Chips Shops", "icon": {"prefix": "https://ss3.4sqi.net/img/categories_v2/food/fishandchips_", "suffix": ".png"}}, {"id": 13145, "name": "Fast Food Restaurant", "short_name": "Fast Food", "plural_name": "Fast Food Restaurants", "icon": {"prefix": "https://ss3.4sqi.net/img/categories_v2/food/fastfood_", "suffix": ".png"}}, {"id": 13338, "name": "Seafood Restaurant", "short_name": "Seafood", "plural_name": "Seafood Restaurants", "icon": {"prefix": "https://ss3.4sqi.net/img/categories_v2/food/seafood_", "suffix": ".png"}}], "chains": [], "closed_bucket": "LikelyOpen", "distance": 897, "geocodes": {"main": {"latitude": 55.86037, "longitude": -4.257243}, "roof": {"latitude": 55.86037, "longitude": -4.257243}}, "link": "/v3/places/4b6cb584f964a520104e2ce3", "location": {"address": "Gordon St", "admin_region": "Scotland", "country": "GB", "cross_street": "", "formatted_address": "Gordon St, Glasgow, Glasgow City, G1 3SL", "locality": "Glasgow", "post_town": "Glasgow", "postcode": "G1 3SL", "region": "Glasgow City"}, "name": "Blue Lagoon", "related_places": {}, "timezone": "Europe/London"}, {"fsq_id": "4ec5648a99112324370bb043", "categories": [{"id": 13006, "name": "Beer Bar", "short_name": "Beer Bar", "plural_name": "Beer Bars", "icon": {"prefix": "https://ss3.4sqi.net/img/categories_v2/nightlife/pub_", "suffix": ".png"}}, {"id": 13022, "name": "Sports Bar", "short_name": "Sports Bar", "plural_name": "Sports Bars", "icon": {"prefix": "https://ss3.4sqi.net/img/categories_v2/nightlife/sportsbar_", "suffix": ".png"}}, {"id": 13065, "name": "Restaurant", "short_name": "Restaurant", "plural_name": "Restaurants", "icon": {"prefix": "https://ss3.4sqi.net/img/categories_v2/food/default_", "suffix": ".png"}}], "chains": [], "closed_bucket": "VeryLikelyOpen", "distance": 474, "geocodes": {"main": {"latitude": 55.856681, "longitude": -4.257271}, "roof": {"latitude": 55.856681, "longitude": -4.257271}}, "link": "/v3/places/4ec5648a99112324370bb043", "location": {"address": "77 Jamaica St", "admin_region": "Scotland", "country": "GB", "formatted_address": "77 Jamaica St, Glasgow, G1 4NN", "locality": "Glasgow", "post_town": "Glasgow", "postcode": "G1 4NN"}, "name": "Mint & Lime", "related_places": {"parent": {"fsq_id": "4bc783b893bdeee1537837ae", "categories": [{"id": 19013, "name": "Hostel", "short_name": "Hostel", "plural_name": "Hostels", "icon": {"prefix": "https://ss3.4sqi.net/img/categories_v2/travel/hostel_", "suffix": ".png"}}, {"id": 19014, "name": "Hotel", "short_name": "Hotel", "plural_name": "Hotels", "icon": {"prefix": "https://ss3.4sqi.net/img/categories_v2/travel/hotel_", "suffix": ".png"}}], "name": "Euro Hostel Glasgow"}}, "timezone": "Europe/London"}, {"fsq_id": "5e5d68cb6f5546000826e6c1", "categories": [{"id": 13191, "name": "Halal Restaurant", "short_name": "Halal", "plural_name": "Halal Restaurants", "icon": {"prefix": "https://ss3.4sqi.net/img/categories_v2/food/halal_", "suffix": ".png"}}], "chains": [], "closed_bucket": "VeryLikelyOpen", "distance": 155, "geocodes": {"main": {"latitude": 55.853909, "longitude": -4.258763}, "roof": {"latitude": 55.853909, "longitude": -4.258763}}, "link": "/v3/places/5e5d68cb6f5546000826e6c1", "location": {"admin_region": "Scotland", "country": "GB", "cross_street": "", "formatted_address": "Glasgow, Glasgow City, G5 9HR", "locality": "Glasgow", "post_town": "Glasgow", "postcode": "G5 9HR", "region": "Glasgow City"}, "name": "Palmtree Kitchen", "related_places": {}, "timezone": "Europe/London"}], "context": {"geo_bounds": {"circle": {"center": {"latitude": 55.8525, "longitude": -4.25885}, "radius": 1000}}}}