{"results": [{"fsq_id": "4bc35be22a89ef3b08e7f488", "categories": [{"id": 13199, "name": "Indian Restaurant", "short_name": "Indian", "plural_name": "Indian Restaurants", "icon": {"prefix": "https://ss3.4sqi.net/img/categories_v2/food/indian_", "suffix": ".png"}}], "chains": [], "closed_bucket": "VeryLikelyOpen", "distance": 750, "geocodes": {"main": {"latitude": 55.858078, "longitude": -4.245681}, "roof": {"latitude": 55.858078, "longitude": -4.245681}}, "link": "/v3/places/4bc35be22a89ef3b08e7f488", "location": {"address": "44 Candleriggs", "admin_region": "Scotland", "country": "GB", "cross_street": "Bell St", "formatted_address": "44 Candleriggs (Bell St), Glasgow, Glasgow City, G1 1LE", "locality": "Glasgow", "post_town": "Glasgow", "postcode": "G1 1LE", "region": "Glasgow City"}, "name": "The Dhabba", "related_places": {}, "timezone": "Europe/London"}, {"fsq_id": "54c7cade498e300defb0985f", "categories": [{"id": 13034, "name": "Caf\u00e9", "short_name": "Caf\u00e9", "plural_name": "Caf\u00e9s", "icon": {"prefix": "https://ss3.4sqi.net/img/categories_v2/food/cafe_", "suffix": ".png"}}, {"id": 13065, "name": "Restaurant", "short_name": "Restaurant", "plural_name": "Restaurants", "icon": {"prefix": "https://ss3.4sqi.net/img/categories_v2/food/default_", "suffix": ".png"}}], "chains": [], "closed_bucket": "Unsure", "distance": 749, "geocodes": {"main": {"latitude": 55.858485, "longitude": -4.245939}, "roof": {"latitude": 55.858485, "longitude": -4.245939}}, "link": "/v3/places/54c7cade498e300defb0985f", "location": {"address": "6 Wilson St", "admin_region": "Scotland", "country": "GB", "cross_street": "", "formatted_address": "6 Wilson St, Glasgow, Glasgow City, G1 1SS", "locality": "Glasgow", "post_town": "Glasgow", "postcode": "G1 1SS", "region": "Glasgow City"}, "name": "Wilson Street Pantry", "related_places": {}, "timezone": "Europe/London"}, {"fsq_id": "4b4def09f964a5207adb26e3", "categories": [{"id": 13029, "name": "Brewery", "short_name": "Brewery", "plural_name": "Breweries", "icon": {"prefix": "https://ss3.4sqi.net/img/categories_v2/food/brewery_", "suffix": ".png"}}, {"id": 13003, "name": "Bar", "short_name": "Bar", "plural_name": "Bars", "icon": {"prefix": "https://ss3.4sqi.net/img/categories_v2/nightlife/pub_", "suffix": ".png"}}], "chains": [], "closed_bucket": "VeryLikelyOpen", "distance": 478, "geocodes": {"main": {"latitude": 55.850907, "longitude": -4.233765}, "roof": {"latitude": 55.850907, "longitude": -4.233765}}, "link": "/v3/places/4b4def09f964a5207adb26e3", "location": {"address": "Templeton Building, Glasgow Green", "address_extended": "Building 4", "admin_region": "Scotland", "country": "GB", "cross_street": "1 The Green", "formatted_address": "Templeton Building, Glasgow Green (1 The Green), Glasgow, Glasgow City, G40 1AW", "locality": "Glasgow", "post_town": "Glasgow", "postcode": "G40 1AW", "region": "Glasgow City"}, "name": "WEST Brewery, Bar & Restaurant", "related_places": {"parent": {"fsq_id": "4c0628d45753c92875743af1", "categories": [{"id": 11021, "name": "Business Center", "short_name": "Business Center", "plural_name": "Business Centers", "icon": {"prefix": "https://ss3.4sqi.net/img/categories_v2/building/default_", "suffix": ".png"}}], "name": "Templeton Business Centre"}}, "timezone": "Europe/London"}, {"fsq_id": "53e52950498ee2c0974731b8", "categories": [{"id": 10000, "name": "Arts and Entertainment", "short_name": "Arts & Entertainment", "plural_name": "Arts and Entertainment", "icon": {"prefix": "https://ss3.4sqi.net/img/categories_v2/arts_entertainment/default_", "suffix": ".png"}}, {"id": 13006, "name": "Beer Bar", "short_name": "Beer Bar", "plural_name": "Beer Bars", "icon": {"prefix": "https://ss3.4sqi.net/img/categories_v2/nightlife/pub_", "suffix": ".png"}}, {"id": 13026, "name": "BBQ Joint", "short_name": "BBQ", "plural_name": "BBQ Joints", "icon": {"prefix": "https://ss3.4sqi.net/img/categories_v2/food/bbqalt_", "suffix": ".png"}}], "chains": [], "closed_bucket": "Unsure", "distance": 913, "geocodes": {"drop_off": {"latitude": 55.859269, "longitude": -4.247825}, "main": {"latitude": 55.859318, "longitude": -4.247961}, "roof": {"latitude": 55.859318, "longitude": -4.247961}}, "link": "/v3/places/53e52950498ee2c0974731b8", "location": {"address": "99 Hutcheson St", "admin_region": "Scotland", "country": "GB", "cross_street": "", "formatted_address": "99 Hutcheson St, Glasgow, Glasgow City, G1 1SN", "locality": "Glasgow", "post_town": "Glasgow", "postcode": "G1 1SN", "region": "Glasgow City"}, "name": "DogHouse Merchant City", "related_places": {}, "timezone": "Europe/London"}, {"fsq_id": "4b50d353f964a520df3327e3", "categories": [{"id": 13025, "name": "Wine Bar", "short_name": "Wine Bar", "plural_name": "Wine Bars", "icon": {"prefix": "https://ss3.4sqi.net/img/categories_v2/food/winery_", "suffix": ".png"}}, {"id": 13337, "name": "Scottish Restaurant", "short_name": "Scottish", "plural_name": "Scottish Restaurants", "icon": {"prefix": "https://ss3.4sqi.net/img/categories_v2/food/default_", "suffix": ".png"}}, {"id": 13338, "name": "Seafood Restaurant", "short_name": "Seafood", "plural_name": "Seafood Restaurants", "icon": {"prefix": "https://ss3.4sqi.net/img/categories_v2/food/seafood_", "suffix": ".png"}}], "chains": [], "closed_bucket": "LikelyOpen", "distance": 663, "geocodes": {"main": {"latitude": 55.858058, "longitude": -4.244174}, "roof": {"latitude": 55.858058, "longitude": -4.244174}}, "link": "/v3/places/4b50d353f964a520df3327e3", "location": {"address": "64 Albion St", "admin_region": "Scotland", "country": "GB", "formatted_address": "64 Albion St, Glasgow, G1 1NY", "locality": "Glasgow", "post_town": "Glasgow", "postcode": "G1 1NY"}, "name": "Cafe Gandolfi", "related_places": {"children": [{"fsq_id": "5af74197c824ae002c2bb00f", "categories": [{"id": 13003, "name": "Bar", "short_name": "Bar", "plural_name": "Bars", "icon": {"prefix": "https://ss3.4sqi.net/img/categories_v2/nightlife/pub_", "suffix": ".png"}}], "name": "Bar Gandolfi"}]}, "timezone": "Europe/London"}, {"fsq_id": "55ba4ae6498e9ddd9b04f40f", "categories": [{"id": 13006, "name": "Beer Bar", "short_name": "Beer Bar", "plural_name": "Beer Bars", "icon": {"prefix": "https://ss3.4sqi.net/img/categories_v2/nightlife/pub_", "suffix": ".png"}}, {"id": 13018, "name": "Pub", "short_name": "Pub", "plural_name": "Pubs", "icon": {"prefix": "https://ss3.4sqi.net/img/categories_v2/nightlife/pub_", "suffix": ".png"}}, {"id": 13065, "name": "Restaurant", "short_name": "Restaurant", "plural_name": "Restaurants", "icon": {"prefix": "https://ss3.4sqi.net/img/categories_v2/food/default_", "suffix": ".png"}}], "chains": [], "closed_bucket": "VeryLikelyOpen", "distance": 921, "geocodes": {"drop_off": {"latitude": 55.85458, "longitude": -4.250334}, "main": {"latitude": 55.85446, "longitude": -4.250021}, "roof": {"latitude": 55.85446, "longitude": -4.250021}}, "link": "/v3/places/55ba4ae6498e9ddd9b04f40f", "location": {"address": "167-169 Stockwell St", "admin_region": "Scotland", "country": "GB", "cross_street": "", "formatted_address": "167-169 Stockwell St, Glasgow, Glasgow City, G1 4SP", "locality": "Glasgow", "post_town": "Glasgow", "postcode": "G1 4SP", "region": "Glasgow City"}, "name": "The Clutha Bar", "related_places": {}, "timezone": "Europe/London"}, {"fsq_id": "537dcf0d498e02df07785e2f", "categories": [{"id": 13003, "name": "Bar", "short_name": "Bar", "plural_name": "Bars", "icon": {"prefix": "https://ss3.4sqi.net/img/categories_v2/nightlife/pub_", "suffix": ".png"}}, {"id": 13029, "name": "Brewery", "short_name": "Brewery", "plural_name": "Breweries", "icon": {"prefix": "https://ss3.4sqi.net/img/categories_v2/food/brewery_", "suffix": ".png"}}], "chains": [], "closed_bucket": "Unsure", "distance": 584, "geocodes": {"main": {"latitude": 55.861185, "longitude": -4.234563}, "roof": {"latitude": 55.861185, "longitude": -4.234563}}, "link": "/v3/places/537dcf0d498e02df07785e2f", "location": {"address": "85 Drygate", "admin_region": "Scotland", "country": "GB", "cross_street": "", "formatted_address": "85 Drygate, Glasgow, G4 0UT", "locality": "Glasgow", "post_town": "Glasgow", "postcode": "G4 0UT"}, "name": "Drygate Brewing Co", "related_places": {"children": []}, "timezone": "Europe/London"}, {"fsq_id": "4b9b8c7cf964a520a80e36e3", "categories": [{"id": 13027, "name": "Bistro", "short_name": "Bistro", "plural_name": "Bistros", "icon": {"prefix": "https://ss3.4sqi.net/img/categories_v2/food/default_", "suffix": ".png"}}, {"id": 13032, "name": "Cafe, Coffee, and Tea House", "short_name": "Cafe, Coffee, and Tea House", "plural_name": "Cafes, Coffee, and Tea Houses", "icon": {"prefix": "https://ss3.4sqi.net/img/categories_v2/food/coffeeshop_", "suffix": ".png"}}, {"id": 13142, "name": "English Restaurant", "short_name": "English", "plural_name": "English Restaurants", "icon": {"prefix": "https://ss3.4sqi.net/img/categories_v2/food/default_", "suffix": ".png"}}], "chains": [], "closed_bucket": "VeryLikelyOpen", "distance": 984, "geocodes": {"main": {"latitude": 55.858488, "longitude": -4.22082}, "roof": {"latitude": 55.858488, "longitude": -4.22082}}, "link": "/v3/places/4b9b8c7cf964a520a80e36e3", "location": {"address": "443 Duke St", "admin_region": "Scotland", "country": "GB", "cross_street": "Hillfoot St", "formatted_address": "443 Duke St (Hillfoot St), Glasgow, Glasgow City, G31 1RY", "locality": "Glasgow", "post_town": "Glasgow", "postcode": "G31 1RY", "region": "Glasgow City"}, "name": "Tibo", "related_places": {}, "timezone": "Europe/London"}, {"fsq_id": "554cdd3c498ee17d5a870117", "categories": [{"id": 13035, "name": "Coffee Shop", "short_name": "Coffee Shop", "plural_name": "Coffee Shops", "icon": {"prefix": "https://ss3.4sqi.net/img/categories_v2/food/coffeeshop_", "suffix": ".png"}}, {"id": 13065, "name": "Restaurant", "short_name": "Restaurant", "plural_name": "Restaurants", "icon": {"prefix": "https://ss3.4sqi.net/img/categories_v2/food/default_", "suffix": ".png"}}], "chains": [], "closed_bucket": "Unsure", "distance": 777, "geocodes": {"main": {"latitude": 55.859412, "longitude": -4.245371}, "roof": {"latitude": 55.859412, "longitude": -4.245371}}, "link": "/v3/places/554cdd3c498ee17d5a870117", "location": {"address": "127 Candleriggs", "admin_region": "Scotland", "country": "GB", "cross_street": "", "formatted_address": "127 Candleriggs, Glasgow, G1 1NP", "locality": "Glasgow", "post_town": "Glasgow", "postcode": "G1 1NP"}, "name": "Spitfire Espresso", "related_places": {}, "timezone": "Europe/London"}, {"fsq_id": "53dbc5b9498e95d9e033d82c", "categories": [{"id": 13018, "name": "Pub", "short_name": "Pub", "plural_name": "Pubs", "icon": {"prefix": "https://ss3.4sqi.net/img/categories_v2/nightlife/pub_", "suffix": ".png"}}, {"id": 13065, "name": "Restaurant", "short_name": "Restaurant", "plural_name": "Restaurants", "icon": {"prefix": "https://ss3.4sqi.net/img/categories_v2/food/default_", "suffix": ".png"}}], "chains": [], "closed_bucket": "VeryLikelyOpen", "distance": 822, "geocodes": {"drop_off": {"latitude": 55.858279, "longitude": -4.223371}, "main": {"latitude": 55.858133, "longitude": -4.223367}, "roof": {"latitude": 55.858133, "longitude": -4.223367}}, "link": "/v3/places/53dbc5b9498e95d9e033d82c", "location": {"address": "304 Duke St", "admin_region": "Scotland", "country": "GB", "cross_street": "", "formatted_address": "304 Duke St, Glasgow, Glasgow City, G31 1RZ", "locality": "Glasgow", "post_town": "Glasgow", "postcode": "G31 1RZ", "region": "Glasgow City"}, "name": "Redmond's", "related_places": {}, "timezone": "Europe/London"}, {"fsq_id": "4eee14c8b8f76a24a5ddef1c", "categories": [{"id": 13051, "name": "Fish and Chips Shop", "short_name": "Fish and Chips Shop", "plural_name": "Fish and Chips Shops", "icon": {"prefix": "https://ss3.4sqi.net/img/categories_v2/food/fishandchips_", "suffix": ".png"}}, {"id": 13338, "name": "Seafood Restaurant", "short_name": "Seafood", "plural_name": "Seafood Restaurants", "icon": {"prefix": "https://ss3.4sqi.net/img/categories_v2/food/seafood_", "suffix": ".png"}}], "chains": [], "closed_bucket": "LikelyOpen", "distance": 576, "geocodes": {"main": {"latitude": 55.858935, "longitude": -4.241713}, "roof": {"latitude": 55.858935, "longitude": -4.241713}}, "link": "/v3/places/4eee14c8b8f76a24a5ddef1c", "location": {"address": "155 High St", "admin_region": "Scotland", "country": "GB", "cross_street": "", "formatted_address": "155 High St, Glasgow, Glasgow City, G1 1PH", "locality": "Glasgow", "post_town": "Glasgow", "postcode": "G1 1PH", "region": "Glasgow City"}, "name": "Merchant Chippie", "related_places": {}, "timezone": "Europe/London"}, {"fsq_id": "4b96b832f964a52026e034e3", "categories": [{"id": 13236, "name": "Italian Restaurant", "short_name": "Italian", "plural_name": "Italian Restaurants", "icon": {"prefix": "https://ss3.4sqi.net/img/categories_v2/food/italian_", "suffix": ".png"}}], "chains": [], "closed_bucket": "VeryLikelyOpen", "distance": 707, "geocodes": {"main": {"latitude": 55.859459, "longitude": -4.243621}, "roof": {"latitude": 55.859459, "longitude": -4.243621}}, "link": "/v3/places/4b96b832f964a52026e034e3", "location": {"address": "64 Ingram St", "admin_region": "Scotland", "country": "GB", "formatted_address": "64 Ingram St, Glasgow, Glasgow City, G1 1EX", "locality": "Glasgow", "post_town": "Glasgow", "postcode": "G1 1EX", "region": "Glasgow City"}, "name": "Italian Kitchen", "related_places": {}, "timezone": "Europe/London"}, {"fsq_id": "4b6c5d0cf964a520d7332ce3", "categories": [{"id": 13003, "name": "Bar", "short_name": "Bar", "plural_name": "Bars", "icon": {"prefix": "https://ss3.4sqi.net/img/categories_v2/nightlife/pub_", "suffix": ".png"}}, {"id": 13064, "name": "Pizzeria", "short_name": "Pizza", "plural_name": "Pizzerias", "icon": {"prefix": "https://ss3.4sqi.net/img/categories_v2/food/pizza_", "suffix": ".png"}}, {"id": 13377, "name": "Vegan and Vegetarian Restaurant", "short_name": "Vegan and Vegetarian Restaurant", "plural_name": "Vegan and Vegetarian Restaurants", "icon": {"prefix": "https://ss3.4sqi.net/img/categories_v2/food/vegetarian_", "suffix": ".png"}}], "chains": [], "closed_bucket": "VeryLikelyOpen", "distance": 698, "geocodes": {"main": {"latitude": 55.855682, "longitude": -4.246134}, "roof": {"latitude": 55.855682, "longitude": -4.246134}}, "link": "/v3/places/4b6c5d0cf964a520d7332ce3", "location": {"address": "12 Kings Ct", "admin_region": "Scotland", "country": "GB", "cross_street": "at King St", "formatted_address": "12 Kings Ct (at King St), Glasgow, Glasgow City, G1 5RB", "locality": "Glasgow", "post_town": "Glasgow", "postcode": "G1 5RB", "region": "Glasgow City"}, "name": "Mono", "related_places": {}, "timezone": "Europe/London"}, {"fsq_id": "55e8a27d498edabc99273e53", "categories": [{"id": 10039, "name": "Music Venue", "short_name": "Music Venue", "plural_name": "Music Venues", "icon": {"prefix": "https://ss3.4sqi.net/img/categories_v2/arts_entertainment/musicvenue_", "suffix": ".png"}}, {"id": 13003, "name": "Bar", "short_name": "Bar", "plural_name": "Bars", "icon": {"prefix": "https://ss3.4sqi.net/img/categories_v2/nightlife/pub_", "suffix": ".png"}}], "chains": [], "closed_bucket": "VeryLikelyOpen", "distance": 61, "geocodes": {"main": {"latitude": 55.854651, "longitude": -4.234613}, "roof": {"latitude": 55.854651, "longitude": -4.234613}}, "link": "/v3/places/55e8a27d498edabc99273e53", "location": {"address": "17 Bain Square", "admin_region": "Scotland", "country": "GB", "cross_street": "", "formatted_address": "17 Bain Square, Glasgow, Glasgow City, G40 2JZ", "locality": "Glasgow", "post_town": "Glasgow", "postcode": "G40 2JZ", "region": "Glasgow City"}, "name": "Saint Luke\u2019s", "related_places": {"children": []}, "timezone": "Europe/London"}, {"fsq_id": "4b2cfd42f964a520e2cb24e3", "categories": [{"id": 13034, "name": "Caf\u00e9", "short_name": "Caf\u00e9", "plural_name": "Caf\u00e9s", "icon": {"prefix": "https://ss3.4sqi.net/img/categories_v2/food/cafe_", "suffix": ".png"}}, {"id": 13035, "name": "Coffee Shop", "short_name": "Coffee Shop", "plural_name": "Coffee Shops", "icon": {"prefix": "https://ss3.4sqi.net/img/categories_v2/food/coffeeshop_", "suffix": ".png"}}, {"id": 13065, "name": "Restaurant", "short_name": "Restaurant", "plural_name": "Restaurants", "icon": {"prefix": "https://ss3.4sqi.net/img/categories_v2/food/default_", "suffix": ".png"}}], "chains": [], "closed_bucket": "Unsure", "distance": 839, "geocodes": {"main": {"latitude": 55.859735, "longitude": -4.246187}, "roof": {"latitude": 55.859735, "longitude": -4.246187}}, "link": "/v3/places/4b2cfd42f964a520e2cb24e3", "location": {"address": "118 Ingram St", "address_extended": "Unit 4", "admin_region": "Scotland", "country": "GB", "formatted_address": "118 Ingram St, Glasgow, Glasgow City, G1 1EJ", "locality": "Glasgow", "post_town": "Glasgow", "postcode": "G1 1EJ", "region": "Glasgow City"}, "name": "Tinderbox", "related_places": {}, "timezone": "Europe/London"}, {"fsq_id": "4eecb82346907303be234128", "categories": [{"id": 13034, "name": "Caf\u00e9", "short_name": "Caf\u00e9", "plural_name": "Caf\u00e9s", "icon": {"prefix": "https://ss3.4sqi.net/img/categories_v2/food/cafe_", "suffix": ".png"}}, {"id": 13035, "name": "Coffee Shop", "short_name": "Coffee Shop", "plural_name": "Coffee Shops", "icon": {"prefix": "https://ss3.4sqi.net/img/categories_v2/food/coffeeshop_", "suffix": ".png"}}, {"id": 13065, "name": "Restaurant", "short_name": "Restaurant", "plural_name": "Restaurants", "icon": {"prefix": "https://ss3.4sqi.net/img/categories_v2/food/default_", "suffix": ".png"}}], "chains": [], "closed_bucket": "VeryLikelyOpen", "distance": 606, "geocodes": {"main": {"latitude": 55.856657, "longitude": -4.244727}, "roof": {"latitude": 55.856657, "longitude": -4.244727}}, "link": "/v3/places/4eecb82346907303be234128", "location": {"address": "27 Trongate", "admin_region": "Scotland", "country": "GB", "cross_street": "", "formatted_address": "27 Trongate, Glasgow, G1 5EZ", "locality": "Glasgow", "post_town": "Glasgow", "postcode": "G1 5EZ"}, "name": "Rose & Grants", "related_places": {}, "timezone": "Europe/London"}, {"fsq_id": "4bb3471f42959c7445b3212c", "categories": [{"id": 13276, "name": "Sushi Restaurant", "short_name": "Sushi", "plural_name": "Sushi Restaurants", "icon": {"prefix": "https://ss3.4sqi.net/img/categories_v2/food/sushi_", "suffix": ".png"}}], "chains": [], "closed_bucket": "VeryLikelyOpen", "distance": 598, "geocodes": {"main": {"latitude": 55.859251, "longitude": -4.241722}, "roof": {"latitude": 55.859251, "longitude": -4.241722}}, "link": "/v3/places/4bb3471f42959c7445b3212c", "location": {"address": "2-6 Ingram St", "admin_region": "Scotland", "country": "GB", "cross_street": "High Street", "formatted_address": "2-6 Ingram St (High Street), Glasgow, Glasgow City, G1 1HA", "locality": "Glasgow", "post_town": "Glasgow", "postcode": "G1 1HA", "region": "Glasgow City"}, "name": "Sapporo Teppanyaki - Glasgow", "related_places": {}, "timezone": "Europe/London"}, {"fsq_id": "4c4a8482c8b6b7135abe1afb", "categories": [{"id": 13236, "name": "Italian Restaurant", "short_name": "Italian", "plural_name": "Italian Restaurants", "icon": {"prefix": "https://ss3.4sqi.net/img/categories_v2/food/italian_", "suffix": ".png"}}], "chains": [], "closed_bucket": "Unsure", "distance": 669, "geocodes": {"drop_off": {"latitude": 55.858745, "longitude": -4.243918}, "main": {"latitude": 55.85861, "longitude": -4.243735}, "roof": {"latitude": 55.85861, "longitude": -4.243735}}, "link": "/v3/places/4c4a8482c8b6b7135abe1afb", "location": {"address": "92 Albion St", "admin_region": "Scotland", "country": "GB", "cross_street": "", "formatted_address": "92 Albion St, Glasgow, Glasgow City, G1 1NY", "locality": "Glasgow", "post_town": "Glasgow", "postcode": "G1 1NY", "region": "Glasgow City"}, "name": "The Italian Caffe", "related_places": {}, "timezone": "Europe/London"}, {"fsq_id": "4b9cecbcf964a520bd8236e3", "categories": [{"id": 13003, "name": "Bar", "short_name": "Bar", "plural_name": "Bars", "icon": {"prefix": "https://ss3.4sqi.net/img/categories_v2/nightlife/pub_", "suffix": ".png"}}, {"id": 13065, "name": "Restaurant", "short_name": "Restaurant", "plural_name": "Restaurants", "icon": {"prefix": "https://ss3.4sqi.net/img/categories_v2/food/default_", "suffix": ".png"}}], "chains": [], "closed_bucket": "VeryLikelyOpen", "distance": 706, "geocodes": {"main": {"latitude": 55.858429, "longitude": -4.245061}, "roof": {"latitude": 55.858429, "longitude": -4.245061}}, "link": "/v3/places/4b9cecbcf964a520bd8236e3", "location": {"address": "71-73 Albion St", "admin_region": "Scotland", "country": "GB", "formatted_address": "71-73 Albion St, Glasgow, Glasgow City, G1 1NY", "locality": "Glasgow", "post_town": "Glasgow", "postcode": "G1 1NY", "region": "Glasgow City"}, "name": "Merchant Square", "related_places": {"children": [{"fsq_id": "595f841bf79faa623f93bd17", "categories": [{"id": 13031, "name": "Burger Joint", "short_name": "Burgers", "plural_name": "Burger Joints", "icon": {"prefix": "https://ss3.4sqi.net/img/categories_v2/food/burger_", "suffix": ".png"}}, {"id": 13068, "name": "American Restaurant", "short_name": "American", "plural_name": "American Restaurants", "icon": {"prefix": "https://ss3.4sqi.net/img/categories_v2/food/default_", "suffix": ".png"}}], "name": "Steak Cattle & Roll"}, {"fsq_id": "5c44b02ea8eb60002c7f69b5", "categories": [{"id": 13031, "name": "Burger Joint", "short_name": "Burgers", "plural_name": "Burger Joints", "icon": {"prefix": "https://ss3.4sqi.net/img/categories_v2/food/burger_", "suffix": ".png"}}, {"id": 13068, "name": "American Restaurant", "short_name": "American", "plural_name": "American Restaurants", "icon": {"prefix": "https://ss3.4sqi.net/img/categories_v2/food/default_", "suffix": ".png"}}], "name": "Monterey Jack's"}, {"fsq_id": "5dfbf5ae17653b0007afa486", "categories": [{"id": 13025, "name": "Wine Bar", "short_name": "Wine Bar", "plural_name": "Wine Bars", "icon": {"prefix": "https://ss3.4sqi.net/img/categories_v2/food/winery_", "suffix": ".png"}}], "name": "Naked Wine"}, {"fsq_id": "61f5a6de63f5ba30cd5dbff0", "categories": [{"id": 13064, "name": "Pizzeria", "short_name": "Pizza", "plural_name": "Pizzerias", "icon": {"prefix": "https://ss3.4sqi.net/img/categories_v2/food/pizza_", "suffix": ".png"}}], "name": "Badabing"}, {"fsq_id": "4b5b73e4f964a5201bff28e3", "categories": [{"id": 13006, "name": "Beer Bar", "short_name": "Beer Bar", "plural_name": "Beer Bars", "icon": {"prefix": "https://ss3.4sqi.net/img/categories_v2/nightlife/pub_", "suffix": ".png"}}, {"id": 13018, "name": "Pub", "short_name": "Pub", "plural_name": "Pubs", "icon": {"prefix": "https://ss3.4sqi.net/img/categories_v2/nightlife/pub_", "suffix": ".png"}}, {"id": 13065, "name": "Restaurant", "short_name": "Restaurant", "plural_name": "Restaurants", "icon": {"prefix": "https://ss3.4sqi.net/img/categories_v2/food/default_", "suffix": ".png"}}], "name": "O'Neill's"}]}, "timezone": "Europe/London"}, {"fsq_id": "4c3dba31a9509c74a39b395b", "categories": [{"id": 13018, "name": "Pub", "short_name": "Pub", "plural_name": "Pubs", "icon": {"prefix": "https://ss3.4sqi.net/img/categories_v2/nightlife/pub_", "suffix": ".png"}}, {"id": 16020, "name": "Historic and Protected Site", "short_name": "Historic and Protected Site", "plural_name": "Historic and Protected Sites", "icon": {"prefix": "https://ss3.4sqi.net/img/categories_v2/arts_entertainment/historicsite_", "suffix": ".png"}}], "chains": [], "closed_bucket": "VeryLikelyOpen", "distance": 924, "geocodes": {"main": {"latitude": 55.855449, "longitude": -4.250226}, "roof": {"latitude": 55.855449, "longitude": -4.250226}}, "link": "/v3/places/4c3dba31a9509c74a39b395b", "location": {"address": "112-114 Stockwell St", "admin_region": "Scotland", "country": "GB", "formatted_address": "112-114 Stockwell St, Glasgow, Glasgow City, G1 4LW", "locality": "Glasgow", "post_town": "Glasgow", "postcode": "G1 4LW", "region": "Glasgow City"}, "name": "Scotia Bar", "related_places": {}, "timezone": "Europe/London"}, {"fsq_id": "4b37d796f964a520464725e3", "categories": [{"id": 13011, "name": "Gay Bar", "short_name": "Gay Bar", "plural_name": "Gay Bars", "icon": {"prefix": "https://ss3.4sqi.net/img/categories_v2/nightlife/gaybar_", "suffix": ".png"}}, {"id": 13015, "name": "Karaoke Bar", "short_name": "Karaoke", "plural_name": "Karaoke Bars", "icon": {"prefix": "https://ss3.4sqi.net/img/categories_v2/nightlife/karaoke_", "suffix": ".png"}}, {"id": 13025, "name": "Wine Bar", "short_name": "Wine Bar", "plural_name": "Wine Bars", "icon": {"prefix": "https://ss3.4sqi.net/img/categories_v2/food/winery_", "suffix": ".png"}}], "chains": [], "closed_bucket": "Unsure", "distance": 999, "geocodes": {"main": {"latitude": 55.859064, "longitude": -4.249635}, "roof": {"latitude": 55.859064, "longitude": -4.249635}}, "link": "/v3/places/4b37d796f964a520464725e3", "location": {"address": "68 Virginia St", "admin_region": "Scotland", "country": "GB", "formatted_address": "68 Virginia St, Merchant City, Glasgow City, G1 1TX", "locality": "Merchant City", "post_town": "Glasgow", "postcode": "G1 1TX", "region": "Glasgow City"}, "name": "Delmonicas", "related_places": {}, "timezone": "Europe/London"}, {"fsq_id": "4ebe6e3b003940d47f41c6dc", "categories": [{"id": 13002, "name": "Bakery", "short_name": "Bakery", "plural_name": "Bakeries", "icon": {"prefix": "https://ss3.4sqi.net/img/categories_v2/food/bakery_", "suffix": ".png"}}, {"id": 13034, "name": "Caf\u00e9", "short_name": "Caf\u00e9", "plural_name": "Caf\u00e9s", "icon": {"prefix": "https://ss3.4sqi.net/img/categories_v2/food/cafe_", "suffix": ".png"}}, {"id": 13065, "name": "Restaurant", "short_name": "Restaurant", "plural_name": "Restaurants", "icon": {"prefix": "https://ss3.4sqi.net/img/categories_v2/food/default_", "suffix": ".png"}}], "chains": [], "closed_bucket": "LikelyOpen", "distance": 721, "geocodes": {"main": {"latitude": 55.856137, "longitude": -4.246463}, "roof": {"latitude": 55.856137, "longitude": -4.246463}}, "link": "/v3/places/4ebe6e3b003940d47f41c6dc", "location": {"address": "45 King St", "admin_region": "Scotland", "country": "GB", "formatted_address": "45 King St, Glasgow, Glasgow City, G1 5RA", "locality": "Glasgow", "post_town": "Glasgow", "postcode": "G1 5RA", "region": "Glasgow City"}, "name": "Once Upon a Tart", "related_places": {}, "timezone": "Europe/London"}, {"fsq_id": "54b82735498e991be3c5ea7d", "categories": [{"id": 13296, "name": "Kurdish Restaurant", "short_name": "Kurdish", "plural_name": "Kurdish Restaurants", "icon": {"prefix": "https://ss3.4sqi.net/img/categories_v2/food/middleeastern_", "suffix": ".png"}}, {"id": 13356, "name": "Turkish Restaurant", "short_name": "Turkish", "plural_name": "Turkish Restaurants", "icon": {"prefix": "https://ss3.4sqi.net/img/categories_v2/food/turkish_", "suffix": ".png"}}], "chains": [], "closed_bucket": "VeryLikelyOpen", "distance": 773, "geocodes": {"drop_off": {"latitude": 55.855185, "longitude": -4.247206}, "main": {"latitude": 55.855052, "longitude": -4.247026}, "roof": {"latitude": 55.855052, "longitude": -4.247026}}, "link": "/v3/places/54b82735498e991be3c5ea7d", "location": {"address": "B Kings Ct King St", "admin_region": "Scotland", "country": "GB", "cross_street": "", "formatted_address": "B Kings Ct King St, Glasgow, Glasgow City, G1 5RB", "locality": "Glasgow", "post_town": "Glasgow", "postcode": "G1 5RB", "region": "Glasgow City"}, "name": "Shawarma King", "related_places": {}, "timezone": "Europe/London"}, {"fsq_id": "4b5216fcf964a520f66627e3", "categories": [{"id": 13003, "name": "Bar", "short_name": "Bar", "plural_name": "Bars", "icon": {"prefix": "https://ss3.4sqi.net/img/categories_v2/nightlife/pub_", "suffix": ".png"}}, {"id": 13065, "name": "Restaurant", "short_name": "Restaurant", "plural_name": "Restaurants", "icon": {"prefix": "https://ss3.4sqi.net/img/categories_v2/food/default_", "suffix": ".png"}}], "chains": [], "closed_bucket": "VeryLikelyOpen", "distance": 752, "geocodes": {"main": {"latitude": 55.858867, "longitude": -4.245705}, "roof": {"latitude": 55.858867, "longitude": -4.245705}}, "link": "/v3/places/4b5216fcf964a520f66627e3", "location": {"address": "91 Candleriggs", "admin_region": "Scotland", "country": "GB", "formatted_address": "91 Candleriggs, Glasgow, Glasgow City, G1 1NP", "locality": "Glasgow", "post_town": "Glasgow", "postcode": "G1 1NP", "region": "Glasgow City"}, "name": "Bar 91", "related_places": {}, "timezone": "Europe/London"}, {"fsq_id": "4bf80c5fb182c9b65cb8765a", "categories": [{"id": 13236, "name": "Italian Restaurant", "short_name": "Italian", "plural_name": "Italian Restaurants", "icon": {"prefix": "https://ss3.4sqi.net/img/categories_v2/food/italian_", "suffix": ".png"}}], "chains": [], "closed_bucket": "VeryLikelyOpen", "distance": 677, "geocodes": {"main": {"latitude": 55.859312, "longitude": -4.242495}, "roof": {"latitude": 55.859312, "longitude": -4.242495}}, "link": "/v3/places/4bf80c5fb182c9b65cb8765a", "location": {"address": "30 Ingram St", "admin_region": "Scotland", "country": "GB", "formatted_address": "30 Ingram St, Glasgow, G1 1EZ", "locality": "Glasgow", "post_town": "Glasgow", "postcode": "G1 1EZ"}, "name": "Amore", "related_places": {}, "timezone": "Europe/London"}, {"fsq_id": "4b5b9194f964a520c30729e3", "categories": [{"id": 13018, "name": "Pub", "short_name": "Pub", "plural_name": "Pubs", "icon": {"prefix": "https://ss3.4sqi.net/img/categories_v2/nightlife/pub_", "suffix": ".png"}}, {"id": 13337, "name": "Scottish Restaurant", "short_name": "Scottish", "plural_name": "Scottish Restaurants", "icon": {"prefix": "https://ss3.4sqi.net/img/categories_v2/food/default_", "suffix": ".png"}}], "chains": [], "closed_bucket": "LikelyOpen", "distance": 653, "geocodes": {"main": {"latitude": 55.857101, "longitude": -4.245266}, "roof": {"latitude": 55.857101, "longitude": -4.245266}}, "link": "/v3/places/4b5b9194f964a520c30729e3", "location": {"address": "60 Trongate", "admin_region": "Scotland", "country": "GB", "formatted_address": "60 Trongate, Glasgow, Glasgow City, G1 5EP", "locality": "Glasgow", "post_town": "Glasgow", "postcode": "G1 5EP", "region": "Glasgow City"}, "name": "Maggie Mays", "related_places": {}, "timezone": "Europe/London"}, {"fsq_id": "4c1cc2a6eac020a168f946c2", "categories": [{"id": 13199, "name": "Indian Restaurant", "short_name": "Indian", "plural_name": "Indian Restaurants", "icon": {"prefix": "https://ss3.4sqi.net/img/categories_v2/food/indian_", "suffix": ".png"}}, {"id": 13236, "name": "Italian Restaurant", "short_name": "Italian", "plural_name": "Italian Restaurants", "icon": {"prefix": "https://ss3.4sqi.net/img/categories_v2/food/italian_", "suffix": ".png"}}, {"id": 13302, "name": "Mediterranean Restaurant", "short_name": "Mediterranean", "plural_name": "Mediterranean Restaurants", "icon": {"prefix": "https://ss3.4sqi.net/img/categories_v2/food/mediterranean_", "suffix": ".png"}}], "chains": [], "closed_bucket": "VeryLikelyOpen", "distance": 956, "geocodes": {"main": {"latitude": 55.85967, "longitude": -4.248252}, "roof": {"latitude": 55.85967, "longitude": -4.248252}}, "link": "/v3/places/4c1cc2a6eac020a168f946c2", "location": {"address": "159 Ingram St", "admin_region": "Scotland", "country": "GB", "formatted_address": "159 Ingram St, Glasgow, Glasgow City, G1 1DW", "locality": "Glasgow", "post_town": "Glasgow", "postcode": "G1 1DW", "region": "Glasgow City"}, "name": "Mediterraneo", "related_places": {}, "timezone": "Europe/London"}, {"fsq_id": "4c110b613ce120a1b102091c", "categories": [{"id": 13003, "name": "Bar", "short_name": "Bar", "plural_name": "Bars", "icon": {"prefix": "https://ss3.4sqi.net/img/categories_v2/nightlife/pub_", "suffix": ".png"}}, {"id": 13065, "name": "Restaurant", "short_name": "Restaurant", "plural_name": "Restaurants", "icon": {"prefix": "https://ss3.4sqi.net/img/categories_v2/food/default_", "suffix": ".png"}}], "chains": [], "closed_bucket": "VeryLikelyOpen", "distance": 942, "geocodes": {"main": {"latitude": 55.858882, "longitude": -4.249139}, "roof": {"latitude": 55.858882, "longitude": -4.249139}}, "link": "/v3/places/4c110b613ce120a1b102091c", "location": {"address": "61-65 Glassford St", "admin_region": "Scotland", "country": "GB", "formatted_address": "61-65 Glassford St, Glasgow, Glasgow City, G1 1UG", "locality": "Glasgow", "post_town": "Glasgow", "postcode": "G1 1UG", "region": "Glasgow City"}, "name": "Warehouse Merchant City", "related_places": {}, "timezone": "Europe/London"}, {"fsq_id": "4de95474c65b72347a275f9e", "categories": [{"id": 13022, "name": "Sports Bar", "short_name": "Sports Bar", "plural_name": "Sports Bars", "icon": {"prefix": "https://ss3.4sqi.net/img/categories_v2/nightlife/sportsbar_", "suffix": ".png"}}, {"id": 13018, "name": "Pub", "short_name": "Pub", "plural_name": "Pubs", "icon": {"prefix": "https://ss3.4sqi.net/img/categories_v2/nightlife/pub_", "suffix": ".png"}}], "chains": [], "closed_bucket": "Unsure", "distance": 964, "geocodes": {"main": {"latitude": 55.860185, "longitude": -4.247532}, "roof": {"latitude": 55.860185, "longitude": -4.247532}}, "link": "/v3/places/4de95474c65b72347a275f9e", "location": {"address": "18 John St", "admin_region": "Scotland", "country": "GB", "cross_street": "", "formatted_address": "18 John St, Glasgow, Glasgow City, G1 1JQ", "locality": "Glasgow", "post_town": "Glasgow", "postcode": "G1 1JQ", "region": "Glasgow City"}, "name": "Committee Room No.9", "related_places": {}, "timezone": "Europe/London"}, {"fsq_id": "59c6a66dc4df1d02e4877a35", "categories": [{"id": 13029, "name": "Brewery", "short_name": "Brewery", "plural_name": "Breweries", "icon": {"prefix": "https://ss3.4sqi.net/img/categories_v2/food/brewery_", "suffix": ".png"}}], "chains": [], "closed_bucket": "VeryLikelyOpen", "distance": 543, "geocodes": {"drop_off": {"latitude": 55.859145, "longitude": -4.230883}, "main": {"latitude": 55.859288, "longitude": -4.230863}, "roof": {"latitude": 55.859288, "longitude": -4.230863}}, "link": "/v3/places/59c6a66dc4df1d02e4877a35", "location": {"address": "161 Duke St", "admin_region": "Scotland", "country": "GB", "cross_street": "", "formatted_address": "161 Duke St, Glasgow, G31 1JD", "locality": "Glasgow", "post_town": "Glasgow", "postcode": "G31 1JD"}, "name": "Tennent\u2019s Caledonian Brewery Visitor Center", "related_places": {}, "timezone": "Europe/London"}, {"fsq_id": "4b5b73e4f964a5201bff28e3", "categories": [{"id": 13006, "name": "Beer Bar", "short_name": "Beer Bar", "plural_name": "Beer Bars", "icon": {"prefix": "https://ss3.4sqi.net/img/categories_v2/nightlife/pub_", "suffix": ".png"}}, {"id": 13018, "name": "Pub", "short_name": "Pub", "plural_name": "Pubs", "icon": {"prefix": "https://ss3.4sqi.net/img/categories_v2/nightlife/pub_", "suffix": ".png"}}, {"id": 13065, "name": "Restaurant", "short_name": "Restaurant", "plural_name": "Restaurants", "icon": {"prefix": "https://ss3.4sqi.net/img/categories_v2/food/default_", "suffix": ".png"}}], "chains": [], "closed_bucket": "VeryLikelyOpen", "distance": 684, "geocodes": {"main": {"latitude": 55.858295, "longitude": -4.244637}, "roof": {"latitude": 55.858295, "longitude": -4.244637}}, "link": "/v3/places/4b5b73e4f964a5201bff28e3", "location": {"address": "71-73 Albion St", "admin_region": "Scotland", "country": "GB", "cross_street": "", "formatted_address": "71-73 Albion St, Glasgow, Glasgow City, G1 1NY", "locality": "Glasgow", "post_town": "Glasgow", "postcode": "G1 1NY", "region": "Glasgow City"}, "name": "O'Neill's", "related_places": {"parent": {"fsq_id": "4b9cecbcf964a520bd8236e3", "categories": [{"id": 13003, "name": "Bar", "short_name": "Bar", "plural_name": "Bars", "icon": {"prefix": "https://ss3.4sqi.net/img/categories_v2/nightlife/pub_", "suffix": ".png"}}, {"id": 13065, "name": "Restaurant", "short_name": "Restaurant", "plural_name": "Restaurants", "icon": {"prefix": "https://ss3.4sqi.net/img/categories_v2/food/default_", "suffix": ".png"}}], "name": "Merchant Square"}}, "timezone": "Europe/London"}, {"fsq_id": "4ba74d5ff964a520758a39e3", "categories": [{"id": 13034, "name": "Caf\u00e9", "short_name": "Caf\u00e9", "plural_name": "Caf\u00e9s", "icon": {"prefix": "https://ss3.4sqi.net/img/categories_v2/food/cafe_", "suffix": ".png"}}, {"id": 13049, "name": "Diner", "short_name": "Diner", "plural_name": "Diners", "icon": {"prefix": "https://ss3.4sqi.net/img/categories_v2/food/diner_", "suffix": ".png"}}, {"id": 13334, "name": "Sandwich Spot", "short_name": "Sandwich Spot", "plural_name": "Sandwich Spots", "icon": {"prefix": "https://ss3.4sqi.net/img/categories_v2/food/deli_", "suffix": ".png"}}], "chains": [], "closed_bucket": "LikelyOpen", "distance": 644, "geocodes": {"main": {"latitude": 55.857015, "longitude": -4.244913}, "roof": {"latitude": 55.857015, "longitude": -4.244913}}, "link": "/v3/places/4ba74d5ff964a520758a39e3", "location": {"address": "46 Trongate", "admin_region": "Scotland", "country": "GB", "cross_street": "Albion Street", "formatted_address": "46 Trongate (Albion Street), Glasgow, Glasgow City, G1 5ES", "locality": "Glasgow", "post_town": "Glasgow", "postcode": "G1 5ES", "region": "Glasgow City"}, "name": "Spoon Cafe", "related_places": {}, "timezone": "Europe/London"}, {"fsq_id": "4bf22eee78cec9282e40bb86", "categories": [{"id": 13031, "name": "Burger Joint", "short_name": "Burgers", "plural_name": "Burger Joints", "icon": {"prefix": "https://ss3.4sqi.net/img/categories_v2/food/burger_", "suffix": ".png"}}, {"id": 13145, "name": "Fast Food Restaurant", "short_name": "Fast Food", "plural_name": "Fast Food Restaurants", "icon": {"prefix": "https://ss3.4sqi.net/img/categories_v2/food/fastfood_", "suffix": ".png"}}], "chains": [{"id": "ab4a3530-d68a-012e-5619-003048cad9da", "name": "McDonald's"}], "closed_bucket": "VeryLikelyOpen", "distance": 862, "geocodes": {"main": {"latitude": 55.85728, "longitude": -4.2486}, "roof": {"latitude": 55.85728, "longitude": -4.2486}}, "link": "/v3/places/4bf22eee78cec9282e40bb86", "location": {"address": "165/167 Trongate", "admin_region": "Scotland", "country": "GB", "cross_street": "Trongate", "formatted_address": "165/167 Trongate (Trongate), Glasgow, Glasgow City, G1 5HF", "locality": "Glasgow", "post_town": "Glasgow", "postcode": "G1 5HF", "region": "Glasgow City"}, "name": "McDonald's", "related_places": {}, "timezone": "Europe/London"}, {"fsq_id": "51f44394498e3a45a84a045e", "categories": [{"id": 13011, "name": "Gay Bar", "short_name": "Gay Bar", "plural_name": "Gay Bars", "icon": {"prefix": "https://ss3.4sqi.net/img/categories_v2/nightlife/gaybar_", "suffix": ".png"}}], "chains": [], "closed_bucket": "VeryLikelyOpen", "distance": 959, "geocodes": {"main": {"latitude": 55.860161, "longitude": -4.247951}, "roof": {"latitude": 55.860161, "longitude": -4.247951}}, "link": "/v3/places/51f44394498e3a45a84a045e", "location": {"address": "17 John St", "admin_region": "Scotland", "country": "GB", "cross_street": "", "formatted_address": "17 John St, Merchant City, Glasgow City, G1 1HP", "locality": "Merchant City", "post_town": "Glasgow", "postcode": "G1 1HP", "region": "Glasgow City"}, "name": "Katie's Bar", "related_places": {}, "timezone": "Europe/London"}, {"fsq_id": "4e9b25d24690c213355976c5", "categories": [{"id": 10037, "name": "Concert Hall", "short_name": "Concert Hall", "plural_name": "Concert Halls", "icon": {"prefix": "https://ss3.4sqi.net/img/categories_v2/arts_entertainment/musicvenue_", "suffix": ".png"}}, {"id": 13022, "name": "Sports Bar", "short_name": "Sports Bar", "plural_name": "Sports Bars", "icon": {"prefix": "https://ss3.4sqi.net/img/categories_v2/nightlife/sportsbar_", "suffix": ".png"}}], "chains": [], "closed_bucket": "VeryLikelyOpen", "distance": 171, "geocodes": {"main": {"latitude": 55.855608, "longitude": -4.23261}, "roof": {"latitude": 55.855608, "longitude": -4.23261}}, "link": "/v3/places/4e9b25d24690c213355976c5", "location": {"address": "36-40 Stevenson St West", "admin_region": "Scotland", "country": "GB", "cross_street": "", "formatted_address": "36-40 Stevenson St West, Glasgow, G40 2ST", "locality": "Glasgow", "post_town": "Glasgow", "postcode": "G40 2ST"}, "name": "Squirrel Bar", "related_places": {}, "timezone": "Europe/London"}, {"fsq_id": "42e000302c9e4e66be5108fa", "categories": [{"id": 13034, "name": "Caf\u00e9", "short_name": "Caf\u00e9", "plural_name": "Caf\u00e9s", "icon": {"prefix": "https://ss3.4sqi.net/img/categories_v2/food/cafe_", "suffix": ".png"}}, {"id": 13145, "name": "Fast Food Restaurant", "short_name": "Fast Food", "plural_name": "Fast Food Restaurants", "icon": {"prefix": "https://ss3.4sqi.net/img/categories_v2/food/fastfood_", "suffix": ".png"}}], "chains": [], "closed_bucket": "LikelyOpen", "distance": 486, "geocodes": {"drop_off": {"latitude": 55.856422, "longitude": -4.242783}, "main": {"latitude": 55.856291, "longitude": -4.242825}, "roof": {"latitude": 55.856291, "longitude": -4.242825}}, "link": "/v3/places/42e000302c9e4e66be5108fa", "location": {"address": "46 Gallowgate", "admin_region": "Scotland", "country": "GB", "formatted_address": "46 Gallowgate, Glasgow, G1 5AB", "locality": "Glasgow", "post_town": "Glasgow", "postcode": "G1 5AB"}, "name": "The Criterion Cafe", "related_places": {}, "timezone": "Europe/London"}, {"fsq_id": "5b3e211c92e7a9002c617d9e", "categories": [{"id": 13064, "name": "Pizzeria", "short_name": "Pizza", "plural_name": "Pizzerias", "icon": {"prefix": "https://ss3.4sqi.net/img/categories_v2/food/pizza_", "suffix": ".png"}}], "chains": [], "closed_bucket": "VeryLikelyOpen", "distance": 498, "geocodes": {"main": {"latitude": 55.859217, "longitude": -4.232122}, "roof": {"latitude": 55.859217, "longitude": -4.232122}}, "link": "/v3/places/5b3e211c92e7a9002c617d9e", "location": {"address": "120 Duke St", "admin_region": "Scotland", "country": "GB", "cross_street": "", "formatted_address": "120 Duke St, Glasgow, Glasgow City, G4 0XW", "locality": "Glasgow", "post_town": "Glasgow", "postcode": "G4 0XW", "region": "Glasgow City"}, "name": "Baked Pizza Al Taglio", "related_places": {}, "timezone": "Europe/London"}, {"fsq_id": "8fd26a7f3e2f47438adaf7f5", "categories": [{"id": 10032, "name": "Night Club", "short_name": "Night Club", "plural_name": "Night Clubs", "icon": {"prefix": "https://ss3.4sqi.net/img/categories_v2/nightlife/nightclub_", "suffix": ".png"}}, {"id": 13003, "name": "Bar", "short_name": "Bar", "plural_name": "Bars", "icon": {"prefix": "https://ss3.4sqi.net/img/categories_v2/nightlife/pub_", "suffix": ".png"}}], "chains": [], "closed_bucket": "LikelyOpen", "distance": 503, "geocodes": {"drop_off": {"latitude": 55.857396, "longitude": -4.242205}, "main": {"latitude": 55.857541, "longitude": -4.242161}, "roof": {"latitude": 55.857541, "longitude": -4.242161}}, "link": "/v3/places/8fd26a7f3e2f47438adaf7f5", "location": {"address": "111 Bell St", "admin_region": "Scotland", "country": "GB", "formatted_address": "111 Bell St, Glasgow, Glasgow City, G4 0TQ", "locality": "Glasgow", "post_town": "Glasgow", "postcode": "G4 0TQ", "region": "Glasgow City"}, "name": "Tilllate Media", "related_places": {}, "timezone": "Europe/London"}, {"fsq_id": "4be7af4fee96c928b042fdbf", "categories": [{"id": 13029, "name": "Brewery", "short_name": "Brewery", "plural_name": "Breweries", "icon": {"prefix": "https://ss3.4sqi.net/img/categories_v2/food/brewery_", "suffix": ".png"}}, {"id": 13065, "name": "Restaurant", "short_name": "Restaurant", "plural_name": "Restaurants", "icon": {"prefix": "https://ss3.4sqi.net/img/categories_v2/food/default_", "suffix": ".png"}}], "chains": [], "closed_bucket": "VeryLikelyOpen", "distance": 527, "geocodes": {"drop_off": {"latitude": 55.859145, "longitude": -4.230883}, "main": {"latitude": 55.859288, "longitude": -4.230863}, "roof": {"latitude": 55.859288, "longitude": -4.230863}}, "link": "/v3/places/4be7af4fee96c928b042fdbf", "location": {"address": "161 Duke St", "country": "GB", "cross_street": "", "formatted_address": "161 Duke St, Glasgow, Glasgow City", "locality": "Glasgow", "post_town": "Glasgow", "region": "Glasgow City"}, "name": "Wellpark Brewery", "related_places": {}, "timezone": "Europe/London"}, {"fsq_id": "5d3f30414788eb0008a8c59b", "categories": [{"id": 13356, "name": "Turkish Restaurant", "short_name": "Turkish", "plural_name": "Turkish Restaurants", "icon": {"prefix": "https://ss3.4sqi.net/img/categories_v2/food/turkish_", "suffix": ".png"}}], "chains": [], "closed_bucket": "VeryLikelyOpen", "distance": 536, "geocodes": {"main": {"latitude": 55.85685, "longitude": -4.243192}, "roof": {"latitude": 55.85685, "longitude": -4.243192}}, "link": "/v3/places/5d3f30414788eb0008a8c59b", "location": {"address": "8 High St", "admin_region": "Scotland", "country": "GB", "cross_street": "", "formatted_address": "8 High St, Glasgow, G1 1NL", "locality": "Glasgow", "post_town": "Glasgow", "postcode": "G1 1NL"}, "name": "Eda Restaurant", "related_places": {}, "timezone": "Europe/London"}, {"fsq_id": "5caf5d221fa763002cd43434", "categories": [{"id": 13018, "name": "Pub", "short_name": "Pub", "plural_name": "Pubs", "icon": {"prefix": "https://ss3.4sqi.net/img/categories_v2/nightlife/pub_", "suffix": ".png"}}, {"id": 13065, "name": "Restaurant", "short_name": "Restaurant", "plural_name": "Restaurants", "icon": {"prefix": "https://ss3.4sqi.net/img/categories_v2/food/default_", "suffix": ".png"}}], "chains": [], "closed_bucket": "VeryLikelyOpen", "distance": 542, "geocodes": {"drop_off": {"latitude": 55.857914, "longitude": -4.244206}, "main": {"latitude": 55.858058, "longitude": -4.244174}, "roof": {"latitude": 55.858058, "longitude": -4.244174}}, "link": "/v3/places/5caf5d221fa763002cd43434", "location": {"address": "45 Bell St", "admin_region": "Scotland", "country": "GB", "cross_street": "", "formatted_address": "45 Bell St, Merchant City, Glasgow City, G1 1NX", "locality": "Merchant City", "post_town": "Glasgow", "postcode": "G1 1NX", "region": "Glasgow City"}, "name": "Connolly's Irish Bar", "related_places": {}, "timezone": "Europe/London"}, {"fsq_id": "4ed97d17be7be28336a5a61b", "categories": [{"id": 13236, "name": "Italian Restaurant", "short_name": "Italian", "plural_name": "Italian Restaurants", "icon": {"prefix": "https://ss3.4sqi.net/img/categories_v2/food/italian_", "suffix": ".png"}}], "chains": [], "closed_bucket": "VeryLikelyOpen", "distance": 544, "geocodes": {"drop_off": {"latitude": 55.858727, "longitude": -4.241682}, "main": {"latitude": 55.858577, "longitude": -4.241527}, "roof": {"latitude": 55.858577, "longitude": -4.241527}}, "link": "/v3/places/4ed97d17be7be28336a5a61b", "location": {"address": "High St", "country": "GB", "cross_street": "", "formatted_address": "High St"}, "name": "Corkys", "related_places": {}, "timezone": "Europe/London"}, {"fsq_id": "4bb4ade02ba29c745a17ef2d", "categories": [{"id": 13032, "name": "Cafe, Coffee, and Tea House", "short_name": "Cafe, Coffee, and Tea House", "plural_name": "Cafes, Coffee, and Tea Houses", "icon": {"prefix": "https://ss3.4sqi.net/img/categories_v2/food/coffeeshop_", "suffix": ".png"}}, {"id": 13065, "name": "Restaurant", "short_name": "Restaurant", "plural_name": "Restaurants", "icon": {"prefix": "https://ss3.4sqi.net/img/categories_v2/food/default_", "suffix": ".png"}}], "chains": [], "closed_bucket": "LikelyOpen", "distance": 545, "geocodes": {"main": {"latitude": 55.856566, "longitude": -4.244479}, "roof": {"latitude": 55.856566, "longitude": -4.244479}}, "link": "/v3/places/4bb4ade02ba29c745a17ef2d", "location": {"address": "3 Trongate", "admin_region": "Scotland", "country": "GB", "formatted_address": "3 Trongate, Glasgow, Glasgow City, G1 5EZ", "locality": "Glasgow", "post_town": "Glasgow", "postcode": "G1 5EZ", "region": "Glasgow City"}, "name": "Cafe Prima", "related_places": {}, "timezone": "Europe/London"}, {"fsq_id": "4cd4666076ab721e8be6666a", "categories": [{"id": 13018, "name": "Pub", "short_name": "Pub", "plural_name": "Pubs", "icon": {"prefix": "https://ss3.4sqi.net/img/categories_v2/nightlife/pub_", "suffix": ".png"}}], "chains": [], "closed_bucket": "VeryLikelyOpen", "distance": 558, "geocodes": {"drop_off": {"latitude": 55.856391, "longitude": -4.243906}, "main": {"latitude": 55.856286, "longitude": -4.24384}, "roof": {"latitude": 55.856286, "longitude": -4.24384}}, "link": "/v3/places/4cd4666076ab721e8be6666a", "location": {"address": "11 Saltmarket", "country": "GB", "cross_street": "", "formatted_address": "11 Saltmarket, Glasgow, Glasgow City", "locality": "Glasgow", "post_town": "Glasgow", "region": "Glasgow City"}, "name": "The Tolbooth Bar", "related_places": {}, "timezone": "Europe/London"}, {"fsq_id": "53e8f21c498e2268f7d8950e", "categories": [{"id": 13199, "name": "Indian Restaurant", "short_name": "Indian", "plural_name": "Indian Restaurants", "icon": {"prefix": "https://ss3.4sqi.net/img/categories_v2/food/indian_", "suffix": ".png"}}], "chains": [], "closed_bucket": "VeryLikelyOpen", "distance": 650, "geocodes": {"main": {"latitude": 55.85767, "longitude": -4.244513}, "roof": {"latitude": 55.85767, "longitude": -4.244513}}, "link": "/v3/places/53e8f21c498e2268f7d8950e", "location": {"address": "42 Albion St", "admin_region": "Scotland", "country": "GB", "cross_street": "", "formatted_address": "42 Albion St, Glasgow, G1 1LH", "locality": "Glasgow", "post_town": "Glasgow", "postcode": "G1 1LH"}, "name": "Indian Cottage", "related_places": {}, "timezone": "Europe/London"}, {"fsq_id": "5aeb5e3f947c05002c90e0ca", "categories": [{"id": 13337, "name": "Scottish Restaurant", "short_name": "Scottish", "plural_name": "Scottish Restaurants", "icon": {"prefix": "https://ss3.4sqi.net/img/categories_v2/food/default_", "suffix": ".png"}}], "chains": [], "closed_bucket": "LikelyOpen", "distance": 693, "geocodes": {"drop_off": {"latitude": 55.858089, "longitude": -4.244997}, "main": {"latitude": 55.85801, "longitude": -4.245013}, "roof": {"latitude": 55.85801, "longitude": -4.245013}}, "link": "/v3/places/5aeb5e3f947c05002c90e0ca", "location": {"address": "26 Bell St", "admin_region": "Scotland", "country": "GB", "cross_street": "", "formatted_address": "26 Bell St, Glasgow, Glasgow City, G1 1LG", "locality": "Glasgow", "post_town": "Glasgow", "postcode": "G1 1LG", "region": "Glasgow City"}, "name": "Mharsanta", "related_places": {}, "timezone": "Europe/London"}, {"fsq_id": "5dc576ba29544b0007d36bdb", "categories": [{"id": 13003, "name": "Bar", "short_name": "Bar", "plural_name": "Bars", "icon": {"prefix": "https://ss3.4sqi.net/img/categories_v2/nightlife/pub_", "suffix": ".png"}}], "chains": [], "closed_bucket": "VeryLikelyOpen", "distance": 703, "geocodes": {"main": {"latitude": 55.85695, "longitude": -4.246067}, "roof": {"latitude": 55.85695, "longitude": -4.246067}}, "link": "/v3/places/5dc576ba29544b0007d36bdb", "location": {"admin_region": "Scotland", "country": "GB", "cross_street": "Candleriggs", "formatted_address": "Candleriggs, Glasgow, Glasgow City, G1 5EP", "locality": "Glasgow", "post_town": "Glasgow", "postcode": "G1 5EP", "region": "Glasgow City"}, "name": "Bucks Merchant city", "related_places": {}, "timezone": "Europe/London"}, {"fsq_id": "5b33b0cc9f8a9f002c42aa93", "categories": [{"id": 13018, "name": "Pub", "short_name": "Pub", "plural_name": "Pubs", "icon": {"prefix": "https://ss3.4sqi.net/img/categories_v2/nightlife/pub_", "suffix": ".png"}}], "chains": [], "closed_bucket": "VeryLikelyOpen", "distance": 716, "geocodes": {"main": {"latitude": 55.857265, "longitude": -4.246077}, "roof": {"latitude": 55.857265, "longitude": -4.246077}}, "link": "/v3/places/5b33b0cc9f8a9f002c42aa93", "location": {"admin_region": "Scotland", "country": "GB", "cross_street": "", "formatted_address": "Glasgow, Glasgow City, G1 1LD", "locality": "Glasgow", "post_town": "Glasgow", "postcode": "G1 1LD", "region": "Glasgow City"}, "name": "Graces Irish Bar", "related_places": {}, "timezone": "Europe/London"}, {"fsq_id": "5d1515d3aa7be7002a49f91d", "categories": [{"id": 13356, "name": "Turkish Restaurant", "short_name": "Turkish", "plural_name": "Turkish Restaurants", "icon": {"prefix": "https://ss3.4sqi.net/img/categories_v2/food/turkish_", "suffix": ".png"}}], "chains": [], "closed_bucket": "VeryLikelyOpen", "distance": 757, "geocodes": {"drop_off": {"latitude": 55.858713, "longitude": -4.245529}, "main": {"latitude": 55.858812, "longitude": -4.245738}, "roof": {"latitude": 55.858812, "longitude": -4.245738}}, "link": "/v3/places/5d1515d3aa7be7002a49f91d", "location": {"address": "97-99 Candleriggs", "admin_region": "Scotland", "country": "GB", "cross_street": "", "formatted_address": "97-99 Candleriggs, Glasgow, Glasgow City, G1 1NP", "locality": "Glasgow", "post_town": "Glasgow", "postcode": "G1 1NP", "region": "Glasgow City"}, "name": "Turkiye Efe's Restaurant", "related_places": {}, "timezone": "Europe/London"}, {"fsq_id": "6163179622fff040770c2d38", "categories": [{"id": 13236, "name": "Italian Restaurant", "short_name": "Italian", "plural_name": "Italian Restaurants", "icon": {"prefix": "https://ss3.4sqi.net/img/categories_v2/food/italian_", "suffix": ".png"}}], "chains": [], "closed_bucket": "LikelyOpen", "distance": 760, "geocodes": {"main": {"latitude": 55.861895, "longitude": -4.23504}, "roof": {"latitude": 55.861895, "longitude": -4.23504}}, "link": "/v3/places/6163179622fff040770c2d38", "location": {"address": "28-32 Cathedral Square", "admin_region": "Scotland", "country": "GB", "cross_street": "", "formatted_address": "28-32 Cathedral Square, Glasgow, Glasgow City, G4 0XA", "locality": "Glasgow", "post_town": "Glasgow", "postcode": "G4 0XA", "region": "Glasgow City"}, "name": "Celentano's", "related_places": {}, "timezone": "Europe/London"}], "context": {"geo_bounds": {"circle": {"center": {"latitude": 55.855152, "longitude": -4.235294}, "radius": 1000}}}}