{"results": [{"fsq_id": "4b8d5addf964a5209df632e3", "categories": [{"id": 13199, "name": "Indian Restaurant", "short_name": "Indian", "plural_name": "Indian Restaurants", "icon": {"prefix": "https://ss3.4sqi.net/img/categories_v2/food/indian_", "suffix": ".png"}}], "chains": [], "closed_bucket": "VeryLikelyOpen", "distance": 469, "geocodes": {"main": {"latitude": 55.857888, "longitude": -4.281346}, "roof": {"latitude": 55.857888, "longitude": -4.281346}}, "link": "/v3/places/4b8d5addf964a5209df632e3", "location": {"address": "181 Finnieston St", "admin_region": "Scotland", "country": "GB", "cross_street": "", "formatted_address": "181 Finnieston St, Glasgow, Glasgow City, G3 8HE", "locality": "Glasgow", "post_town": "Glasgow", "postcode": "G3 8HE", "region": "Glasgow City"}, "name": "India Quay", "related_places": {}, "timezone": "Europe/London"}, {"fsq_id": "4b64a36cf964a52074c42ae3", "categories": [{"id": 13065, "name": "Restaurant", "short_name": "Restaurant", "plural_name": "Restaurants", "icon": {"prefix": "https://ss3.4sqi.net/img/categories_v2/food/default_", "suffix": ".png"}}], "chains": [{"id": "2fceefe0-9c63-0132-6632-3c15c2dde6c8", "name": "Nando's"}], "closed_bucket": "VeryLikelyOpen", "distance": 273, "geocodes": {"main": {"latitude": 55.855409, "longitude": -4.275873}, "roof": {"latitude": 55.855409, "longitude": -4.275873}}, "link": "/v3/places/4b64a36cf964a52074c42ae3", "location": {"address": "Paisley Rd West", "address_extended": "Unit D2", "admin_region": "Scotland", "country": "GB", "cross_street": "", "formatted_address": "Paisley Rd West, Glasgow, Glasgow City, G5 8NP", "locality": "Glasgow", "post_town": "Glasgow", "postcode": "G5 8NP", "region": "Glasgow City"}, "name": "Nando's", "related_places": {"parent": {"fsq_id": "4c27a4683703d13a1f58a736", "categories": [{"id": 10000, "name": "Arts and Entertainment", "short_name": "Arts & Entertainment", "plural_name": "Arts and Entertainment", "icon": {"prefix": "https://ss3.4sqi.net/img/categories_v2/arts_entertainment/default_", "suffix": ".png"}}], "name": "The Quay"}}, "timezone": "Europe/London"}, {"fsq_id": "596e6d68d48ec155ebe2eba6", "categories": [{"id": 13065, "name": "Restaurant", "short_name": "Restaurant", "plural_name": "Restaurants", "icon": {"prefix": "https://ss3.4sqi.net/img/categories_v2/food/default_", "suffix": ".png"}}], "chains": [], "closed_bucket": "VeryLikelyOpen", "distance": 964, "geocodes": {"main": {"latitude": 55.860033, "longitude": -4.268691}, "roof": {"latitude": 55.860033, "longitude": -4.268691}}, "link": "/v3/places/596e6d68d48ec155ebe2eba6", "location": {"address": "500 Argyle St", "admin_region": "Scotland", "country": "GB", "cross_street": "", "formatted_address": "500 Argyle St, Glasgow, Glasgow City, G3 8RR", "locality": "Glasgow", "post_town": "Glasgow", "postcode": "G3 8RR", "region": "Glasgow City"}, "name": "Cast Iron Grill", "related_places": {"parent": {"fsq_id": "4b76346af964a5201a432ee3", "categories": [{"id": 19014, "name": "Hotel", "short_name": "Hotel", "plural_name": "Hotels", "icon": {"prefix": "https://ss3.4sqi.net/img/categories_v2/travel/hotel_", "suffix": ".png"}}], "name": "Marriott Hotels & Resorts"}}, "timezone": "Europe/London"}, {"fsq_id": "5515b46c498edbb34c84b689", "categories": [{"id": 13030, "name": "Buffet", "short_name": "Buffet", "plural_name": "Buffets", "icon": {"prefix": "https://ss3.4sqi.net/img/categories_v2/food/default_", "suffix": ".png"}}], "chains": [], "closed_bucket": "VeryLikelyOpen", "distance": 439, "geocodes": {"main": {"latitude": 55.853525, "longitude": -4.27196}, "roof": {"latitude": 55.853525, "longitude": -4.27196}}, "link": "/v3/places/5515b46c498edbb34c84b689", "location": {"address": "251 Paisley Rd", "admin_region": "Scotland", "country": "GB", "cross_street": "", "formatted_address": "251 Paisley Rd, Glasgow, G5 8RA", "locality": "Glasgow", "post_town": "Glasgow", "postcode": "G5 8RA"}, "name": "Cook & Indi's World Buffet", "related_places": {}, "timezone": "Europe/London"}, {"fsq_id": "4cea7de2948f224b84bffb5d", "categories": [{"id": 13145, "name": "Fast Food Restaurant", "short_name": "Fast Food", "plural_name": "Fast Food Restaurants", "icon": {"prefix": "https://ss3.4sqi.net/img/categories_v2/food/fastfood_", "suffix": ".png"}}, {"id": 13334, "name": "Sandwich Spot", "short_name": "Sandwich Spot", "plural_name": "Sandwich Spots", "icon": {"prefix": "https://ss3.4sqi.net/img/categories_v2/food/deli_", "suffix": ".png"}}], "chains": [], "closed_bucket": "LikelyOpen", "distance": 946, "geocodes": {"main": {"latitude": 55.851731, "longitude": -4.294121}, "roof": {"latitude": 55.851731, "longitude": -4.294121}}, "link": "/v3/places/4cea7de2948f224b84bffb5d", "location": {"address": "383 Paisley Rd West", "admin_region": "Scotland", "country": "GB", "cross_street": "", "formatted_address": "383 Paisley Rd West, Glasgow, Glasgow City, G51 1LR", "locality": "Glasgow", "post_town": "Glasgow", "postcode": "G51 1LR", "region": "Glasgow City"}, "name": "Bite Me Sandwich Bar", "related_places": {}, "timezone": "Europe/London"}, {"fsq_id": "53776f4d498e2945af514bd4", "categories": [{"id": 13314, "name": "New American Restaurant", "short_name": "New American", "plural_name": "New American Restaurants", "icon": {"prefix": "https://ss3.4sqi.net/img/categories_v2/food/newamerican_", "suffix": ".png"}}, {"id": 13317, "name": "Persian Restaurant", "short_name": "Persian", "plural_name": "Persian Restaurants", "icon": {"prefix": "https://ss3.4sqi.net/img/categories_v2/food/middleeastern_", "suffix": ".png"}}], "chains": [], "closed_bucket": "VeryLikelyOpen", "distance": 906, "geocodes": {"main": {"latitude": 55.853483, "longitude": -4.264391}, "roof": {"latitude": 55.853483, "longitude": -4.264391}}, "link": "/v3/places/53776f4d498e2945af514bd4", "location": {"address": "146-148 Nelson St", "admin_region": "Scotland", "country": "GB", "cross_street": "", "formatted_address": "146-148 Nelson St, Glasgow", "locality": "Glasgow", "post_town": "Glasgow"}, "name": "Sholeh Persian Restaurant", "related_places": {}, "timezone": "Europe/London"}, {"fsq_id": "4c812e6747cc224ba8af799f", "categories": [{"id": 13145, "name": "Fast Food Restaurant", "short_name": "Fast Food", "plural_name": "Fast Food Restaurants", "icon": {"prefix": "https://ss3.4sqi.net/img/categories_v2/food/fastfood_", "suffix": ".png"}}, {"id": 13356, "name": "Turkish Restaurant", "short_name": "Turkish", "plural_name": "Turkish Restaurants", "icon": {"prefix": "https://ss3.4sqi.net/img/categories_v2/food/turkish_", "suffix": ".png"}}], "chains": [], "closed_bucket": "VeryLikelyOpen", "distance": 14, "geocodes": {"main": {"latitude": 55.85373, "longitude": -4.27943}, "roof": {"latitude": 55.85373, "longitude": -4.27943}}, "link": "/v3/places/4c812e6747cc224ba8af799f", "location": {"address": "7 Paisley Rd West", "admin_region": "Scotland", "country": "GB", "cross_street": "", "formatted_address": "7 Paisley Rd West, Glasgow, Glasgow City, G51 1LF", "locality": "Glasgow", "post_town": "Glasgow", "postcode": "G51 1LF", "region": "Glasgow City"}, "name": "Istanbul Turkish", "related_places": {}, "timezone": "Europe/London"}, {"fsq_id": "4b7c4dd1f964a520068b2fe3", "categories": [{"id": 13031, "name": "Burger Joint", "short_name": "Burgers", "plural_name": "Burger Joints", "icon": {"prefix": "https://ss3.4sqi.net/img/categories_v2/food/burger_", "suffix": ".png"}}, {"id": 13145, "name": "Fast Food Restaurant", "short_name": "Fast Food", "plural_name": "Fast Food Restaurants", "icon": {"prefix": "https://ss3.4sqi.net/img/categories_v2/food/fastfood_", "suffix": ".png"}}], "chains": [{"id": "ab4a9b10-d68a-012e-5619-003048cad9da", "name": "Burger King"}], "closed_bucket": "Unsure", "distance": 352, "geocodes": {"main": {"latitude": 55.854327, "longitude": -4.273597}, "roof": {"latitude": 55.854327, "longitude": -4.273597}}, "link": "/v3/places/4b7c4dd1f964a520068b2fe3", "location": {"address": "Springfield Quay", "address_extended": "Unit 1", "admin_region": "Scotland", "country": "GB", "cross_street": "Paisley Rd West", "formatted_address": "Springfield Quay (Paisley Rd West), Glasgow, G5 8NP", "locality": "Glasgow", "post_town": "Glasgow", "postcode": "G5 8NP"}, "name": "Burger King", "related_places": {"parent": {"fsq_id": "4c27a4683703d13a1f58a736", "categories": [{"id": 10000, "name": "Arts and Entertainment", "short_name": "Arts & Entertainment", "plural_name": "Arts and Entertainment", "icon": {"prefix": "https://ss3.4sqi.net/img/categories_v2/arts_entertainment/default_", "suffix": ".png"}}], "name": "The Quay"}}, "timezone": "Europe/London"}, {"fsq_id": "4c8298f074d7b60c730582d8", "categories": [{"id": 13030, "name": "Buffet", "short_name": "Buffet", "plural_name": "Buffets", "icon": {"prefix": "https://ss3.4sqi.net/img/categories_v2/food/default_", "suffix": ".png"}}, {"id": 13102, "name": "Cantonese Restaurant", "short_name": "Cantonese", "plural_name": "Cantonese Restaurants", "icon": {"prefix": "https://ss3.4sqi.net/img/categories_v2/food/asian_", "suffix": ".png"}}], "chains": [], "closed_bucket": "VeryLikelyOpen", "distance": 255, "geocodes": {"main": {"latitude": 55.855324, "longitude": -4.276431}, "roof": {"latitude": 55.855324, "longitude": -4.276431}}, "link": "/v3/places/4c8298f074d7b60c730582d8", "location": {"address": "Springfield Quay", "address_extended": "Unit D3", "admin_region": "Scotland", "country": "GB", "cross_street": "", "formatted_address": "Springfield Quay, Glasgow, Glasgow City, G5 8NP", "locality": "Glasgow", "post_town": "Glasgow", "postcode": "G5 8NP", "region": "Glasgow City"}, "name": "Panda Chinese Cuisine", "related_places": {"parent": {"fsq_id": "4c27a4683703d13a1f58a736", "categories": [{"id": 10000, "name": "Arts and Entertainment", "short_name": "Arts & Entertainment", "plural_name": "Arts and Entertainment", "icon": {"prefix": "https://ss3.4sqi.net/img/categories_v2/arts_entertainment/default_", "suffix": ".png"}}], "name": "The Quay"}}, "timezone": "Europe/London"}, {"fsq_id": "530b2e55498e560107d891b4", "categories": [{"id": 13031, "name": "Burger Joint", "short_name": "Burgers", "plural_name": "Burger Joints", "icon": {"prefix": "https://ss3.4sqi.net/img/categories_v2/food/burger_", "suffix": ".png"}}], "chains": [], "closed_bucket": "VeryLikelyOpen", "distance": 885, "geocodes": {"main": {"latitude": 55.860216, "longitude": -4.287621}, "roof": {"latitude": 55.860216, "longitude": -4.287621}}, "link": "/v3/places/530b2e55498e560107d891b4", "location": {"address": "Queens Dock", "admin_region": "Scotland", "country": "GB", "cross_street": "", "formatted_address": "Queens Dock, Glasgow, Glasgow City, G3 8YW", "locality": "Glasgow", "post_town": "Glasgow", "postcode": "G3 8YW", "region": "Glasgow City"}, "name": "Clydebuilt Bar & Kitchen", "related_places": {}, "timezone": "Europe/London"}, {"fsq_id": "4bebee7362c0c928e5a5e2d4", "categories": [{"id": 13031, "name": "Burger Joint", "short_name": "Burgers", "plural_name": "Burger Joints", "icon": {"prefix": "https://ss3.4sqi.net/img/categories_v2/food/burger_", "suffix": ".png"}}, {"id": 13145, "name": "Fast Food Restaurant", "short_name": "Fast Food", "plural_name": "Fast Food Restaurants", "icon": {"prefix": "https://ss3.4sqi.net/img/categories_v2/food/fastfood_", "suffix": ".png"}}], "chains": [{"id": "ab4a3530-d68a-012e-5619-003048cad9da", "name": "McDonald's"}], "closed_bucket": "VeryLikelyOpen", "distance": 983, "geocodes": {"main": {"latitude": 55.862645, "longitude": -4.280161}, "roof": {"latitude": 55.862645, "longitude": -4.280161}}, "link": "/v3/places/4bebee7362c0c928e5a5e2d4", "location": {"address": "The Clydeway Centre Skypark", "admin_region": "Scotland", "country": "GB", "cross_street": "at Finnieston St.", "formatted_address": "The Clydeway Centre Skypark (at Finnieston St.), Glasgow, Glasgow City, G3 8JU", "locality": "Glasgow", "post_town": "Glasgow", "postcode": "G3 8JU", "region": "Glasgow City"}, "name": "McDonald's", "related_places": {}, "timezone": "Europe/London"}, {"fsq_id": "4e6a692cb61cc3728d9519d2", "categories": [{"id": 13025, "name": "Wine Bar", "short_name": "Wine Bar", "plural_name": "Wine Bars", "icon": {"prefix": "https://ss3.4sqi.net/img/categories_v2/food/winery_", "suffix": ".png"}}], "chains": [], "closed_bucket": "LikelyOpen", "distance": 29, "geocodes": {"main": {"latitude": 55.853506, "longitude": -4.279668}, "roof": {"latitude": 55.853506, "longitude": -4.279668}}, "link": "/v3/places/4e6a692cb61cc3728d9519d2", "location": {"address": "1-3 Paisley Rd West", "admin_region": "Scotland", "country": "GB", "cross_street": "", "formatted_address": "1-3 Paisley Rd West, Glasgow, Glasgow City, G51 1LF", "locality": "Glasgow", "post_town": "Glasgow", "postcode": "G51 1LF", "region": "Glasgow City"}, "name": "The Old Toll Bar", "related_places": {}, "timezone": "Europe/London"}, {"fsq_id": "4be3ed45f07b0f47721bf943", "categories": [{"id": 13003, "name": "Bar", "short_name": "Bar", "plural_name": "Bars", "icon": {"prefix": "https://ss3.4sqi.net/img/categories_v2/nightlife/pub_", "suffix": ".png"}}], "chains": [], "closed_bucket": "LikelyOpen", "distance": 39, "geocodes": {"main": {"latitude": 55.853882, "longitude": -4.278629}, "roof": {"latitude": 55.853882, "longitude": -4.278629}}, "link": "/v3/places/4be3ed45f07b0f47721bf943", "location": {"address": "2-4 Govan Rd", "admin_region": "Scotland", "country": "GB", "formatted_address": "2-4 Govan Rd, Glasgow, Glasgow City, G51 1HS", "locality": "Glasgow", "post_town": "Glasgow", "postcode": "G51 1HS", "region": "Glasgow City"}, "name": "Grand Ole Opry", "related_places": {}, "timezone": "Europe/London"}, {"fsq_id": "4e468dca62e148603b735d92", "categories": [{"id": 13003, "name": "Bar", "short_name": "Bar", "plural_name": "Bars", "icon": {"prefix": "https://ss3.4sqi.net/img/categories_v2/nightlife/pub_", "suffix": ".png"}}], "chains": [], "closed_bucket": "VeryLikelyOpen", "distance": 53, "geocodes": {"main": {"latitude": 55.85359, "longitude": -4.278199}, "roof": {"latitude": 55.85359, "longitude": -4.278199}}, "link": "/v3/places/4e468dca62e148603b735d92", "location": {"country": "GB", "cross_street": "", "formatted_address": "Glasgow, Glasgow City", "locality": "Glasgow", "post_town": "Glasgow", "region": "Glasgow City"}, "name": "The Angel Bar", "related_places": {}, "timezone": "Europe/London"}, {"fsq_id": "4d6aca35d2596ea8ed536a20", "categories": [{"id": 13199, "name": "Indian Restaurant", "short_name": "Indian", "plural_name": "Indian Restaurants", "icon": {"prefix": "https://ss3.4sqi.net/img/categories_v2/food/indian_", "suffix": ".png"}}], "chains": [], "closed_bucket": "VeryLikelyOpen", "distance": 92, "geocodes": {"drop_off": {"latitude": 55.85369, "longitude": -4.277753}, "main": {"latitude": 55.853826, "longitude": -4.277751}, "roof": {"latitude": 55.853826, "longitude": -4.277751}}, "link": "/v3/places/4d6aca35d2596ea8ed536a20", "location": {"admin_region": "Scotland", "country": "GB", "cross_street": "", "formatted_address": "", "post_town": "Glasgow"}, "name": "Abi's Mr. India", "related_places": {}, "timezone": "Europe/London"}, {"fsq_id": "4c543e9230f92d7f9bb41bba", "categories": [{"id": 13018, "name": "Pub", "short_name": "Pub", "plural_name": "Pubs", "icon": {"prefix": "https://ss3.4sqi.net/img/categories_v2/nightlife/pub_", "suffix": ".png"}}], "chains": [], "closed_bucket": "Unsure", "distance": 189, "geocodes": {"main": {"latitude": 55.853784, "longitude": -4.277575}, "roof": {"latitude": 55.853784, "longitude": -4.277575}}, "link": "/v3/places/4c543e9230f92d7f9bb41bba", "location": {"address": "464-466 Paisley Rd", "admin_region": "Scotland", "country": "GB", "formatted_address": "464-466 Paisley Rd, Glasgow, Glasgow City, G5 8RE", "locality": "Glasgow", "post_town": "Glasgow", "postcode": "G5 8RE", "region": "Glasgow City"}, "name": "Quayside", "related_places": {}, "timezone": "Europe/London"}, {"fsq_id": "4f0de049e4b01660dcf9bfa4", "categories": [{"id": 13199, "name": "Indian Restaurant", "short_name": "Indian", "plural_name": "Indian Restaurants", "icon": {"prefix": "https://ss3.4sqi.net/img/categories_v2/food/indian_", "suffix": ".png"}}], "chains": [], "closed_bucket": "LikelyOpen", "distance": 193, "geocodes": {"main": {"latitude": 55.852412, "longitude": -4.277602}, "roof": {"latitude": 55.852412, "longitude": -4.277602}}, "link": "/v3/places/4f0de049e4b01660dcf9bfa4", "location": {"address": "64 Seaward St", "admin_region": "Scotland", "country": "GB", "cross_street": "", "formatted_address": "64 Seaward St, Glasgow, G41 1HJ", "locality": "Glasgow", "post_town": "Glasgow", "postcode": "G41 1HJ"}, "name": "Kabana Restaurant", "related_places": {}, "timezone": "Europe/London"}, {"fsq_id": "4bd80fbf0b779c744d4706a0", "categories": [{"id": 13009, "name": "Cocktail Bar", "short_name": "Cocktail", "plural_name": "Cocktail Bars", "icon": {"prefix": "https://ss3.4sqi.net/img/categories_v2/nightlife/cocktails_", "suffix": ".png"}}], "chains": [], "closed_bucket": "VeryLikelyOpen", "distance": 252, "geocodes": {"main": {"latitude": 55.852387, "longitude": -4.2762}, "roof": {"latitude": 55.852387, "longitude": -4.2762}}, "link": "/v3/places/4bd80fbf0b779c744d4706a0", "location": {"admin_region": "Scotland", "country": "GB", "cross_street": "", "formatted_address": "Glasgow, Glasgow City, G5 8RS", "locality": "Glasgow", "post_town": "Glasgow", "postcode": "G5 8RS", "region": "Glasgow City"}, "name": "LA Bartenders", "related_places": {}, "timezone": "Europe/London"}, {"fsq_id": "4c829e74e602b1f703549e7a", "categories": [{"id": 13199, "name": "Indian Restaurant", "short_name": "Indian", "plural_name": "Indian Restaurants", "icon": {"prefix": "https://ss3.4sqi.net/img/categories_v2/food/indian_", "suffix": ".png"}}], "chains": [], "closed_bucket": "VeryLikelyOpen", "distance": 254, "geocodes": {"main": {"latitude": 55.855214, "longitude": -4.275586}, "roof": {"latitude": 55.855214, "longitude": -4.275586}}, "link": "/v3/places/4c829e74e602b1f703549e7a", "location": {"address": "Springfield Quay", "country": "GB", "cross_street": "Paisley Rd", "formatted_address": "Springfield Quay (Paisley Rd)"}, "name": "Ashoka", "related_places": {}, "timezone": "Europe/London"}, {"fsq_id": "620a9876779d115bc147d7cf", "categories": [{"id": 13036, "name": "Tea Room", "short_name": "Tea Room", "plural_name": "Tea Rooms", "icon": {"prefix": "https://ss3.4sqi.net/img/categories_v2/food/tearoom_", "suffix": ".png"}}, {"id": 13199, "name": "Indian Restaurant", "short_name": "Indian", "plural_name": "Indian Restaurants", "icon": {"prefix": "https://ss3.4sqi.net/img/categories_v2/food/indian_", "suffix": ".png"}}], "chains": [], "closed_bucket": "LikelyOpen", "distance": 254, "geocodes": {"main": {"latitude": 55.855147, "longitude": -4.274918}, "roof": {"latitude": 55.855147, "longitude": -4.274918}}, "link": "/v3/places/620a9876779d115bc147d7cf", "location": {"address": "Unit D2, Springfield Quay, Paisley Rd", "admin_region": "Scotland", "country": "GB", "cross_street": "", "formatted_address": "Unit D2, Springfield Quay, Paisley Rd, Glasgow, Glasgow City, G5 8NP", "locality": "Glasgow", "post_town": "Glasgow", "postcode": "G5 8NP", "region": "Glasgow City"}, "name": "Chaiiwala", "related_places": {}, "timezone": "Europe/London"}, {"fsq_id": "5b54a574772fbc002ce8bc6d", "categories": [{"id": 13067, "name": "African Restaurant", "short_name": "African", "plural_name": "African Restaurants", "icon": {"prefix": "https://ss3.4sqi.net/img/categories_v2/food/african_", "suffix": ".png"}}], "chains": [], "closed_bucket": "VeryLikelyOpen", "distance": 337, "geocodes": {"main": {"latitude": 55.855129, "longitude": -4.274322}, "roof": {"latitude": 55.855129, "longitude": -4.274322}}, "link": "/v3/places/5b54a574772fbc002ce8bc6d", "location": {"address": "Springfield Quay, Paisley Rd", "address_extended": "Unit C2", "admin_region": "Scotland", "country": "GB", "cross_street": "", "formatted_address": "Springfield Quay, Paisley Rd, Glasgow, Glasgow City, G5 8NP", "locality": "Glasgow", "post_town": "Glasgow", "postcode": "G5 8NP", "region": "Glasgow City"}, "name": "Manjaros - Glasgow", "related_places": {}, "timezone": "Europe/London"}, {"fsq_id": "522a317b11d268d86c069a70", "categories": [{"id": 13302, "name": "Mediterranean Restaurant", "short_name": "Mediterranean", "plural_name": "Mediterranean Restaurants", "icon": {"prefix": "https://ss3.4sqi.net/img/categories_v2/food/mediterranean_", "suffix": ".png"}}, {"id": 13356, "name": "Turkish Restaurant", "short_name": "Turkish", "plural_name": "Turkish Restaurants", "icon": {"prefix": "https://ss3.4sqi.net/img/categories_v2/food/turkish_", "suffix": ".png"}}], "chains": [], "closed_bucket": "VeryLikelyOpen", "distance": 370, "geocodes": {"main": {"latitude": 55.8534, "longitude": -4.275986}, "roof": {"latitude": 55.8534, "longitude": -4.275986}}, "link": "/v3/places/522a317b11d268d86c069a70", "location": {"address": "480 Paisley Rd", "admin_region": "Scotland", "country": "GB", "cross_street": "", "formatted_address": "480 Paisley Rd, Glasgow, Glasgow City, G5 8RE", "locality": "Glasgow", "post_town": "Glasgow", "postcode": "G5 8RE", "region": "Glasgow City"}, "name": "3 Chef Hut", "related_places": {}, "timezone": "Europe/London"}, {"fsq_id": "5979cf38747ecd2ae6a2fdac", "categories": [{"id": 13065, "name": "Restaurant", "short_name": "Restaurant", "plural_name": "Restaurants", "icon": {"prefix": "https://ss3.4sqi.net/img/categories_v2/food/default_", "suffix": ".png"}}], "chains": [], "closed_bucket": "LikelyOpen", "distance": 504, "geocodes": {"main": {"latitude": 55.857931, "longitude": -4.282433}, "roof": {"latitude": 55.857931, "longitude": -4.282433}}, "link": "/v3/places/5979cf38747ecd2ae6a2fdac", "location": {"address": "Finnieston Quay", "admin_region": "Scotland", "country": "GB", "cross_street": "", "formatted_address": "Finnieston Quay, Glasgow, Glasgow City, G3 8HN", "locality": "Glasgow", "post_town": "Glasgow", "postcode": "G3 8HN", "region": "Glasgow City"}, "name": "Recess", "related_places": {"parent": {"fsq_id": "4f3fcd07e4b06010fc18ad01", "categories": [{"id": 19014, "name": "Hotel", "short_name": "Hotel", "plural_name": "Hotels", "icon": {"prefix": "https://ss3.4sqi.net/img/categories_v2/travel/hotel_", "suffix": ".png"}}], "name": "Hilton Garden Inn Glasgow City Centre"}}, "timezone": "Europe/London"}, {"fsq_id": "5b099a55b399f7002cd7bb21", "categories": [{"id": 13003, "name": "Bar", "short_name": "Bar", "plural_name": "Bars", "icon": {"prefix": "https://ss3.4sqi.net/img/categories_v2/nightlife/pub_", "suffix": ".png"}}, {"id": 13065, "name": "Restaurant", "short_name": "Restaurant", "plural_name": "Restaurants", "icon": {"prefix": "https://ss3.4sqi.net/img/categories_v2/food/default_", "suffix": ".png"}}], "chains": [], "closed_bucket": "VeryLikelyOpen", "distance": 530, "geocodes": {"drop_off": {"latitude": 55.858101, "longitude": -4.282673}, "main": {"latitude": 55.85829, "longitude": -4.28262}, "roof": {"latitude": 55.85829, "longitude": -4.28262}}, "link": "/v3/places/5b099a55b399f7002cd7bb21", "location": {"address": "Finnieston Quay", "admin_region": "Scotland", "country": "GB", "cross_street": "", "formatted_address": "Finnieston Quay, Glasgow, Glasgow City, G3 8HN", "locality": "Glasgow", "post_town": "Glasgow", "postcode": "G3 8HN", "region": "Glasgow City"}, "name": "OUIBar + KTCHN", "related_places": {"parent": {"fsq_id": "5af167bc6adbf5002c4339d2", "categories": [{"id": 19014, "name": "Hotel", "short_name": "Hotel", "plural_name": "Hotels", "icon": {"prefix": "https://ss3.4sqi.net/img/categories_v2/travel/hotel_", "suffix": ".png"}}], "name": "Radisson RED Glasgow"}}, "timezone": "Europe/London"}, {"fsq_id": "4eff394ac2ee2cc870ce8727", "categories": [{"id": 13099, "name": "Chinese Restaurant", "short_name": "Chinese", "plural_name": "Chinese Restaurants", "icon": {"prefix": "https://ss3.4sqi.net/img/categories_v2/food/asian_", "suffix": ".png"}}, {"id": 13145, "name": "Fast Food Restaurant", "short_name": "Fast Food", "plural_name": "Fast Food Restaurants", "icon": {"prefix": "https://ss3.4sqi.net/img/categories_v2/food/fastfood_", "suffix": ".png"}}], "chains": [], "closed_bucket": "Unsure", "distance": 576, "geocodes": {"main": {"latitude": 55.852801, "longitude": -4.288302}, "roof": {"latitude": 55.852801, "longitude": -4.288302}}, "link": "/v3/places/4eff394ac2ee2cc870ce8727", "location": {"address": "12 Lorne St", "admin_region": "Scotland", "country": "GB", "formatted_address": "12 Lorne St, Glasgow, Glasgow City, G51 1DP", "locality": "Glasgow", "post_town": "Glasgow", "postcode": "G51 1DP", "region": "Glasgow City"}, "name": "Golden City", "related_places": {}, "timezone": "Europe/London"}, {"fsq_id": "0d8150d9e19b42ee0ee54b26", "categories": [{"id": 13177, "name": "Greek Restaurant", "short_name": "Greek", "plural_name": "Greek Restaurants", "icon": {"prefix": "https://ss3.4sqi.net/img/categories_v2/food/greek_", "suffix": ".png"}}, {"id": 13338, "name": "Seafood Restaurant", "short_name": "Seafood", "plural_name": "Seafood Restaurants", "icon": {"prefix": "https://ss3.4sqi.net/img/categories_v2/food/seafood_", "suffix": ".png"}}], "chains": [], "closed_bucket": "VeryLikelyOpen", "distance": 583, "geocodes": {"drop_off": {"latitude": 55.85846, "longitude": -4.28295}, "main": {"latitude": 55.858521, "longitude": -4.283187}, "roof": {"latitude": 55.858521, "longitude": -4.283187}}, "link": "/v3/places/0d8150d9e19b42ee0ee54b26", "location": {"address": "28 Tunnel St", "address_extended": "Top Floor", "admin_region": "Scotland", "country": "GB", "formatted_address": "28 Tunnel St, Glasgow, Glasgow City, G3 8HL", "locality": "Glasgow", "post_town": "Glasgow", "postcode": "G3 8HL", "region": "Glasgow City"}, "name": "Mezze", "related_places": {}, "timezone": "Europe/London"}, {"fsq_id": "4f846259e4b0422a017948aa", "categories": [{"id": 13145, "name": "Fast Food Restaurant", "short_name": "Fast Food", "plural_name": "Fast Food Restaurants", "icon": {"prefix": "https://ss3.4sqi.net/img/categories_v2/food/fastfood_", "suffix": ".png"}}], "chains": [], "closed_bucket": "LikelyOpen", "distance": 592, "geocodes": {"main": {"latitude": 55.852486, "longitude": -4.288292}, "roof": {"latitude": 55.852486, "longitude": -4.288292}}, "link": "/v3/places/4f846259e4b0422a017948aa", "location": {"address": "240-242 Paisley Rd West", "admin_region": "Scotland", "country": "GB", "cross_street": "", "formatted_address": "240-242 Paisley Rd West, Glasgow, G51 1BU", "locality": "Glasgow", "post_town": "Glasgow", "postcode": "G51 1BU"}, "name": "Chicken Choice", "related_places": {}, "timezone": "Europe/London"}, {"fsq_id": "522e6ffa61fc96df51d2d674", "categories": [{"id": 13065, "name": "Restaurant", "short_name": "Restaurant", "plural_name": "Restaurants", "icon": {"prefix": "https://ss3.4sqi.net/img/categories_v2/food/default_", "suffix": ".png"}}], "chains": [], "closed_bucket": "LikelyOpen", "distance": 607, "geocodes": {"drop_off": {"latitude": 55.858807, "longitude": -4.28199}, "main": {"latitude": 55.859011, "longitude": -4.281976}, "roof": {"latitude": 55.859011, "longitude": -4.281976}}, "link": "/v3/places/522e6ffa61fc96df51d2d674", "location": {"address": "28 Tunnel St", "admin_region": "Scotland", "country": "GB", "formatted_address": "28 Tunnel St, Glasgow, G3 8HL", "locality": "Glasgow", "post_town": "Glasgow", "postcode": "G3 8HL"}, "name": "Rotunda Bar and Diner", "related_places": {}, "timezone": "Europe/London"}, {"fsq_id": "4be1ccf04283c9b6808954f8", "categories": [{"id": 13010, "name": "Dive Bar", "short_name": "Dive Bar", "plural_name": "Dive Bars", "icon": {"prefix": "https://ss3.4sqi.net/img/categories_v2/nightlife/divebar_", "suffix": ".png"}}], "chains": [], "closed_bucket": "LikelyOpen", "distance": 659, "geocodes": {"main": {"latitude": 55.85242, "longitude": -4.289446}, "roof": {"latitude": 55.85242, "longitude": -4.289446}}, "link": "/v3/places/4be1ccf04283c9b6808954f8", "location": {"address": "252 Paisley Rd West", "admin_region": "Scotland", "country": "GB", "cross_street": "", "formatted_address": "252 Paisley Rd West, Glasgow, Glasgow City, G51 1BS", "locality": "Glasgow", "post_town": "Glasgow", "postcode": "G51 1BS", "region": "Glasgow City"}, "name": "District Bar", "related_places": {}, "timezone": "Europe/London"}, {"fsq_id": "4dc3d3c218387d1bd512867f", "categories": [{"id": 13034, "name": "Caf\u00e9", "short_name": "Caf\u00e9", "plural_name": "Caf\u00e9s", "icon": {"prefix": "https://ss3.4sqi.net/img/categories_v2/food/cafe_", "suffix": ".png"}}, {"id": 13035, "name": "Coffee Shop", "short_name": "Coffee Shop", "plural_name": "Coffee Shops", "icon": {"prefix": "https://ss3.4sqi.net/img/categories_v2/food/coffeeshop_", "suffix": ".png"}}, {"id": 13065, "name": "Restaurant", "short_name": "Restaurant", "plural_name": "Restaurants", "icon": {"prefix": "https://ss3.4sqi.net/img/categories_v2/food/default_", "suffix": ".png"}}], "chains": [], "closed_bucket": "VeryLikelyOpen", "distance": 660, "geocodes": {"main": {"latitude": 55.85242, "longitude": -4.289446}, "roof": {"latitude": 55.85242, "longitude": -4.289446}}, "link": "/v3/places/4dc3d3c218387d1bd512867f", "location": {"address": "4-8 Harvie St", "admin_region": "Scotland", "country": "GB", "formatted_address": "4-8 Harvie St, Glasgow, Glasgow City, G51 1BW", "locality": "Glasgow", "post_town": "Glasgow", "postcode": "G51 1BW", "region": "Glasgow City"}, "name": "Kinning Perk", "related_places": {}, "timezone": "Europe/London"}, {"fsq_id": "5defe9dfe7ffb000089f41f5", "categories": [{"id": 13003, "name": "Bar", "short_name": "Bar", "plural_name": "Bars", "icon": {"prefix": "https://ss3.4sqi.net/img/categories_v2/nightlife/pub_", "suffix": ".png"}}], "chains": [], "closed_bucket": "VeryLikelyOpen", "distance": 680, "geocodes": {"main": {"latitude": 55.855794, "longitude": -4.289411}}, "link": "/v3/places/5defe9dfe7ffb000089f41f5", "location": {"admin_region": "Scotland", "country": "GB", "cross_street": "", "formatted_address": "G51 1TJ", "post_town": "Glasgow", "postcode": "G51 1TJ"}, "name": "Bar at the Village", "related_places": {}, "timezone": "Europe/London"}, {"fsq_id": "4eeac1fb2c5be26bbdf35923", "categories": [{"id": 13029, "name": "Brewery", "short_name": "Brewery", "plural_name": "Breweries", "icon": {"prefix": "https://ss3.4sqi.net/img/categories_v2/food/brewery_", "suffix": ".png"}}], "chains": [], "closed_bucket": "VeryLikelyOpen", "distance": 768, "geocodes": {"main": {"latitude": 55.853115, "longitude": -4.267148}, "roof": {"latitude": 55.853115, "longitude": -4.267148}}, "link": "/v3/places/4eeac1fb2c5be26bbdf35923", "location": {"country": "GB", "cross_street": "", "formatted_address": ""}, "name": "Homes", "related_places": {}, "timezone": "Europe/London"}, {"fsq_id": "52d99e9b498e5140a1fae25e", "categories": [{"id": 13003, "name": "Bar", "short_name": "Bar", "plural_name": "Bars", "icon": {"prefix": "https://ss3.4sqi.net/img/categories_v2/nightlife/pub_", "suffix": ".png"}}], "chains": [], "closed_bucket": "VeryLikelyOpen", "distance": 783, "geocodes": {"main": {"latitude": 55.859748, "longitude": -4.285679}, "roof": {"latitude": 55.859748, "longitude": -4.285679}}, "link": "/v3/places/52d99e9b498e5140a1fae25e", "location": {"country": "GB", "cross_street": "", "formatted_address": ""}, "name": "The Hydro Club", "related_places": {"parent": {"fsq_id": "4ecfe4e68b81b47395e67c15", "categories": [{"id": 10037, "name": "Concert Hall", "short_name": "Concert Hall", "plural_name": "Concert Halls", "icon": {"prefix": "https://ss3.4sqi.net/img/categories_v2/arts_entertainment/musicvenue_", "suffix": ".png"}}, {"id": 10039, "name": "Music Venue", "short_name": "Music Venue", "plural_name": "Music Venues", "icon": {"prefix": "https://ss3.4sqi.net/img/categories_v2/arts_entertainment/musicvenue_", "suffix": ".png"}}, {"id": 11039, "name": "Event Space", "short_name": "Event Space", "plural_name": "Event Spaces", "icon": {"prefix": "https://ss3.4sqi.net/img/categories_v2/building/eventspace_", "suffix": ".png"}}], "name": "The SSE Hydro"}}, "timezone": "Europe/London"}, {"fsq_id": "4cb44e701168a093a1764723", "categories": [{"id": 13072, "name": "Asian Restaurant", "short_name": "Asian", "plural_name": "Asian Restaurants", "icon": {"prefix": "https://ss3.4sqi.net/img/categories_v2/food/asian_", "suffix": ".png"}}], "chains": [], "closed_bucket": "VeryLikelyOpen", "distance": 834, "geocodes": {"drop_off": {"latitude": 55.849754, "longitude": -4.29029}, "main": {"latitude": 55.84958, "longitude": -4.290269}, "roof": {"latitude": 55.84958, "longitude": -4.290269}}, "link": "/v3/places/4cb44e701168a093a1764723", "location": {"address": "MacLellan St", "admin_region": "Scotland", "country": "GB", "cross_street": "maclellan st", "formatted_address": "MacLellan St (maclellan st), Kinning Park, Glasgow City, G41 1RR", "locality": "Kinning Park", "post_town": "Glasgow", "postcode": "G41 1RR", "region": "Glasgow City"}, "name": "Pakora Junction Snack Bar", "related_places": {}, "timezone": "Europe/London"}, {"fsq_id": "57058f4acd100bc677fa2089", "categories": [{"id": 13142, "name": "English Restaurant", "short_name": "English", "plural_name": "English Restaurants", "icon": {"prefix": "https://ss3.4sqi.net/img/categories_v2/food/default_", "suffix": ".png"}}], "chains": [], "closed_bucket": "VeryLikelyOpen", "distance": 855, "geocodes": {"main": {"latitude": 55.859105, "longitude": -4.269258}, "roof": {"latitude": 55.859105, "longitude": -4.269258}}, "link": "/v3/places/57058f4acd100bc677fa2089", "location": {"country": "GB", "cross_street": "", "formatted_address": ""}, "name": "Brasserie", "related_places": {"parent": {"fsq_id": "56254fc1498e5c23f35e57d6", "categories": [{"id": 19014, "name": "Hotel", "short_name": "Hotel", "plural_name": "Hotels", "icon": {"prefix": "https://ss3.4sqi.net/img/categories_v2/travel/hotel_", "suffix": ".png"}}], "name": "Hallmark Hotel Glasgow"}}, "timezone": "Europe/London"}, {"fsq_id": "5c1ce80c1c9e2e00250606e4", "categories": [{"id": 13309, "name": "Middle Eastern Restaurant", "short_name": "Middle Eastern", "plural_name": "Middle Eastern Restaurants", "icon": {"prefix": "https://ss3.4sqi.net/img/categories_v2/food/middleeastern_", "suffix": ".png"}}], "chains": [], "closed_bucket": "VeryLikelyOpen", "distance": 874, "geocodes": {"drop_off": {"latitude": 55.851991, "longitude": -4.292666}, "main": {"latitude": 55.851815, "longitude": -4.292651}, "roof": {"latitude": 55.851815, "longitude": -4.292651}}, "link": "/v3/places/5c1ce80c1c9e2e00250606e4", "location": {"admin_region": "Scotland", "country": "GB", "cross_street": "", "formatted_address": "Glasgow, Glasgow City, G51 1LX", "locality": "Glasgow", "post_town": "Glasgow", "postcode": "G51 1LX", "region": "Glasgow City"}, "name": "Shawarma Grill", "related_places": {}, "timezone": "Europe/London"}, {"fsq_id": "4f10b460e4b09e81d7e58920", "categories": [{"id": 13003, "name": "Bar", "short_name": "Bar", "plural_name": "Bars", "icon": {"prefix": "https://ss3.4sqi.net/img/categories_v2/nightlife/pub_", "suffix": ".png"}}, {"id": 17134, "name": "Tobacco Store", "short_name": "Tobacco Store", "plural_name": "Tobacco Stores", "icon": {"prefix": "https://ss3.4sqi.net/img/categories_v2/shops/tobacco_", "suffix": ".png"}}], "chains": [], "closed_bucket": "VeryLikelyOpen", "distance": 893, "geocodes": {"main": {"latitude": 55.8523, "longitude": -4.26481}, "roof": {"latitude": 55.8523, "longitude": -4.26481}}, "link": "/v3/places/4f10b460e4b09e81d7e58920", "location": {"address": "155 Wallace St", "country": "GB", "cross_street": "", "formatted_address": "155 Wallace St, Glasgow, Glasgow City", "locality": "Glasgow", "post_town": "Glasgow", "region": "Glasgow City"}, "name": "Lime light shisha", "related_places": {}, "timezone": "Europe/London"}, {"fsq_id": "59bf2a974c9be611fb9c76df", "categories": [{"id": 13309, "name": "Middle Eastern Restaurant", "short_name": "Middle Eastern", "plural_name": "Middle Eastern Restaurants", "icon": {"prefix": "https://ss3.4sqi.net/img/categories_v2/food/middleeastern_", "suffix": ".png"}}], "chains": [], "closed_bucket": "VeryLikelyOpen", "distance": 909, "geocodes": {"drop_off": {"latitude": 55.852391, "longitude": -4.2648}, "main": {"latitude": 55.8523, "longitude": -4.26481}, "roof": {"latitude": 55.8523, "longitude": -4.26481}}, "link": "/v3/places/59bf2a974c9be611fb9c76df", "location": {"address": "201-211 Wallace St", "admin_region": "Scotland", "country": "GB", "cross_street": "", "formatted_address": "201-211 Wallace St, Glasgow, Glasgow City, G5 8NT", "locality": "Glasgow", "post_town": "Glasgow", "postcode": "G5 8NT", "region": "Glasgow City"}, "name": "Syrian Pastries \u0627\u0644\u0645\u0639\u062c\u0646\u0627\u062a \u0627\u0644\u0633\u0648\u0631\u064a\u0629", "related_places": {"parent": {"fsq_id": "4b659aecf964a5201bf62ae3", "categories": [{"id": 17139, "name": "Warehouse or Wholesale Store", "short_name": "Warehouse or Wholesale Store", "plural_name": "Warehouse or Wholesale Stores", "icon": {"prefix": "https://ss3.4sqi.net/img/categories_v2/shops/default_", "suffix": ".png"}}], "name": "House of Sher"}}, "timezone": "Europe/London"}, {"fsq_id": "6eaa13dcc4144b81503d6190", "categories": [{"id": 13065, "name": "Restaurant", "short_name": "Restaurant", "plural_name": "Restaurants", "icon": {"prefix": "https://ss3.4sqi.net/img/categories_v2/food/default_", "suffix": ".png"}}], "chains": [], "closed_bucket": "LikelyOpen", "distance": 946, "geocodes": {"drop_off": {"latitude": 55.8457, "longitude": -4.275152}, "main": {"latitude": 55.845614, "longitude": -4.274871}, "roof": {"latitude": 55.845614, "longitude": -4.274871}}, "link": "/v3/places/6eaa13dcc4144b81503d6190", "location": {"address": "407 Shields Rd", "admin_region": "Scotland", "country": "GB", "formatted_address": "407 Shields Rd, Glasgow, Glasgow City, G41 1NY", "locality": "Glasgow", "post_town": "Glasgow", "postcode": "G41 1NY", "region": "Glasgow City"}, "name": "Jay's Gelato", "related_places": {}, "timezone": "Europe/London"}, {"fsq_id": "59e4f4ba4a1cc07f8b51f69d", "categories": [{"id": 13016, "name": "Lounge", "short_name": "Lounge", "plural_name": "Lounges", "icon": {"prefix": "https://ss3.4sqi.net/img/categories_v2/nightlife/default_", "suffix": ".png"}}], "chains": [], "closed_bucket": "VeryLikelyOpen", "distance": 951, "geocodes": {"main": {"latitude": 55.859833, "longitude": -4.26851}, "roof": {"latitude": 55.859833, "longitude": -4.26851}}, "link": "/v3/places/59e4f4ba4a1cc07f8b51f69d", "location": {"address": "Marriott Hotel", "admin_region": "Scotland", "country": "GB", "cross_street": "", "formatted_address": "Marriott Hotel, Glasgow, Glasgow City, G3 8RR", "locality": "Glasgow", "post_town": "Glasgow", "postcode": "G3 8RR", "region": "Glasgow City"}, "name": "The Brew Bar Lounge", "related_places": {"parent": {"fsq_id": "4b76346af964a5201a432ee3", "categories": [{"id": 19014, "name": "Hotel", "short_name": "Hotel", "plural_name": "Hotels", "icon": {"prefix": "https://ss3.4sqi.net/img/categories_v2/travel/hotel_", "suffix": ".png"}}], "name": "Marriott Hotels & Resorts"}}, "timezone": "Europe/London"}, {"fsq_id": "4b7ecbf0f964a5202e0030e3", "categories": [{"id": 13065, "name": "Restaurant", "short_name": "Restaurant", "plural_name": "Restaurants", "icon": {"prefix": "https://ss3.4sqi.net/img/categories_v2/food/default_", "suffix": ".png"}}], "chains": [], "closed_bucket": "VeryLikelyOpen", "distance": 958, "geocodes": {"main": {"latitude": 55.852083, "longitude": -4.294412}, "roof": {"latitude": 55.852083, "longitude": -4.294412}}, "link": "/v3/places/4b7ecbf0f964a5202e0030e3", "location": {"address": "1 Cessnock St", "admin_region": "Scotland", "country": "GB", "formatted_address": "1 Cessnock St, Glasgow, Glasgow City, G51 1AS", "locality": "Glasgow", "post_town": "Glasgow", "postcode": "G51 1AS", "region": "Glasgow City"}, "name": "Cessnock Subway", "related_places": {}, "timezone": "Europe/London"}, {"fsq_id": "531f79b9498ef8bf7eb56496", "categories": [{"id": 13072, "name": "Asian Restaurant", "short_name": "Asian", "plural_name": "Asian Restaurants", "icon": {"prefix": "https://ss3.4sqi.net/img/categories_v2/food/asian_", "suffix": ".png"}}], "chains": [], "closed_bucket": "VeryLikelyOpen", "distance": 959, "geocodes": {"main": {"latitude": 55.849454, "longitude": -4.292473}, "roof": {"latitude": 55.849454, "longitude": -4.292473}}, "link": "/v3/places/531f79b9498ef8bf7eb56496", "location": {"address": "562 Dumbarton Rd", "country": "GB", "cross_street": "", "formatted_address": "562 Dumbarton Rd, Glasgow, Glasgow City", "locality": "Glasgow", "post_town": "Glasgow", "region": "Glasgow City"}, "name": "The Pacific Bar & Kitsch Inn", "related_places": {}, "timezone": "Europe/London"}, {"fsq_id": "5bbcfcef811045002c628760", "categories": [{"id": 13099, "name": "Chinese Restaurant", "short_name": "Chinese", "plural_name": "Chinese Restaurants", "icon": {"prefix": "https://ss3.4sqi.net/img/categories_v2/food/asian_", "suffix": ".png"}}], "chains": [], "closed_bucket": "VeryLikelyOpen", "distance": 959, "geocodes": {"main": {"latitude": 55.851731, "longitude": -4.294121}, "roof": {"latitude": 55.851731, "longitude": -4.294121}}, "link": "/v3/places/5bbcfcef811045002c628760", "location": {"address": "387 Paisley Rd West", "admin_region": "Scotland", "country": "GB", "cross_street": "", "formatted_address": "387 Paisley Rd West, Glasgow, Glasgow City, G51 1LB", "locality": "Glasgow", "post_town": "Glasgow", "postcode": "G51 1LB", "region": "Glasgow City"}, "name": "New Star", "related_places": {}, "timezone": "Europe/London"}, {"fsq_id": "e65b7df612654ee3b2300285", "categories": [{"id": 11001, "name": "Advertising Agency", "short_name": "Advertising Agency", "plural_name": "Advertising Agencies", "icon": {"prefix": "https://ss3.4sqi.net/img/categories_v2/building/default_", "suffix": ".png"}}, {"id": 11112, "name": "Law Office", "short_name": "Law Office", "plural_name": "Law Offices", "icon": {"prefix": "https://ss3.4sqi.net/img/categories_v2/education/lawschool_", "suffix": ".png"}}, {"id": 11165, "name": "Storage Facility", "short_name": "Storage", "plural_name": "Storage Facilities", "icon": {"prefix": "https://ss3.4sqi.net/img/categories_v2/shops/storage_", "suffix": ".png"}}, {"id": 11171, "name": "Translation Service", "short_name": "Translation Service", "plural_name": "Translation Services", "icon": {"prefix": "https://ss3.4sqi.net/img/categories_v2/building/default_", "suffix": ".png"}}, {"id": 12085, "name": "Environmental Organization", "short_name": "Environmental Organization", "plural_name": "Environmental Organizations", "icon": {"prefix": "https://ss3.4sqi.net/img/categories_v2/building/default_", "suffix": ".png"}}, {"id": 13065, "name": "Restaurant", "short_name": "Restaurant", "plural_name": "Restaurants", "icon": {"prefix": "https://ss3.4sqi.net/img/categories_v2/food/default_", "suffix": ".png"}}], "chains": [], "closed_bucket": "Unsure", "distance": 280, "geocodes": {"main": {"latitude": 55.852435, "longitude": -4.275361}, "roof": {"latitude": 55.852435, "longitude": -4.275361}}, "link": "/v3/places/e65b7df612654ee3b2300285", "location": {"address": "27 Watt St", "admin_region": "Scotland", "country": "GB", "formatted_address": "27 Watt St, Glasgow, G5 8RR", "locality": "Glasgow", "post_town": "Glasgow", "postcode": "G5 8RR"}, "name": "Murgitroyd", "related_places": {}}, {"fsq_id": "2370645ae08239fb91e4a62b", "categories": [{"id": 13031, "name": "Burger Joint", "short_name": "Burgers", "plural_name": "Burger Joints", "icon": {"prefix": "https://ss3.4sqi.net/img/categories_v2/food/burger_", "suffix": ".png"}}], "chains": [], "closed_bucket": "LikelyOpen", "distance": 321, "geocodes": {"drop_off": {"latitude": 55.851649, "longitude": -4.282893}, "main": {"latitude": 55.851602, "longitude": -4.282553}, "roof": {"latitude": 55.851602, "longitude": -4.282553}}, "link": "/v3/places/2370645ae08239fb91e4a62b", "location": {"address": "99 Middlesex St", "admin_region": "Scotland", "country": "GB", "formatted_address": "99 Middlesex St, Glasgow", "locality": "Glasgow", "post_town": "Glasgow"}, "name": "Meat Jam", "related_places": {}}, {"fsq_id": "01d4bf6e1728474d1cddf118", "categories": [{"id": 13003, "name": "Bar", "short_name": "Bar", "plural_name": "Bars", "icon": {"prefix": "https://ss3.4sqi.net/img/categories_v2/nightlife/pub_", "suffix": ".png"}}], "chains": [], "closed_bucket": "Unsure", "distance": 800, "geocodes": {"main": {"latitude": 55.86094, "longitude": -4.280494}, "roof": {"latitude": 55.86094, "longitude": -4.280494}}, "link": "/v3/places/01d4bf6e1728474d1cddf118", "location": {"country": "GB", "formatted_address": "Glasgow", "locality": "Glasgow", "post_town": "Glasgow"}, "name": "Work O2 skypark", "related_places": {}}, {"fsq_id": "eeb2c44d771043ecff5eff32", "categories": [{"id": 13003, "name": "Bar", "short_name": "Bar", "plural_name": "Bars", "icon": {"prefix": "https://ss3.4sqi.net/img/categories_v2/nightlife/pub_", "suffix": ".png"}}], "chains": [], "closed_bucket": "Unsure", "distance": 931, "geocodes": {"main": {"latitude": 55.857009, "longitude": -4.265375}, "roof": {"latitude": 55.857009, "longitude": -4.265375}}, "link": "/v3/places/eeb2c44d771043ecff5eff32", "location": {"address": "9 Brown St", "admin_region": "Scotland", "country": "GB", "formatted_address": "9 Brown St, Glasgow", "locality": "Glasgow", "post_town": "Glasgow"}, "name": "Rat Trap Rock Club - Glasgow", "related_places": {}}], "context": {"geo_bounds": {"circle": {"center": {"latitude": 55.85378, "longitude": -4.279158}, "radius": 1000}}}}