{"results": [{"fsq_id": "4b4def09f964a5207adb26e3", "categories": [{"id": 13029, "name": "Brewery", "short_name": "Brewery", "plural_name": "Breweries", "icon": {"prefix": "https://ss3.4sqi.net/img/categories_v2/food/brewery_", "suffix": ".png"}}, {"id": 13003, "name": "Bar", "short_name": "Bar", "plural_name": "Bars", "icon": {"prefix": "https://ss3.4sqi.net/img/categories_v2/nightlife/pub_", "suffix": ".png"}}], "chains": [], "closed_bucket": "VeryLikelyOpen", "distance": 990, "geocodes": {"main": {"latitude": 55.850907, "longitude": -4.233765}, "roof": {"latitude": 55.850907, "longitude": -4.233765}}, "link": "/v3/places/4b4def09f964a5207adb26e3", "location": {"address": "Templeton Building, Glasgow Green", "address_extended": "Building 4", "admin_region": "Scotland", "country": "GB", "cross_street": "1 The Green", "formatted_address": "Templeton Building, Glasgow Green (1 The Green), Glasgow, Glasgow City, G40 1AW", "locality": "Glasgow", "post_town": "Glasgow", "postcode": "G40 1AW", "region": "Glasgow City"}, "name": "WEST Brewery, Bar & Restaurant", "related_places": {"parent": {"fsq_id": "4c0628d45753c92875743af1", "categories": [{"id": 11021, "name": "Business Center", "short_name": "Business Center", "plural_name": "Business Centers", "icon": {"prefix": "https://ss3.4sqi.net/img/categories_v2/building/default_", "suffix": ".png"}}], "name": "Templeton Business Centre"}}, "timezone": "Europe/London"}, {"fsq_id": "537dcf0d498e02df07785e2f", "categories": [{"id": 13003, "name": "Bar", "short_name": "Bar", "plural_name": "Bars", "icon": {"prefix": "https://ss3.4sqi.net/img/categories_v2/nightlife/pub_", "suffix": ".png"}}, {"id": 13029, "name": "Brewery", "short_name": "Brewery", "plural_name": "Breweries", "icon": {"prefix": "https://ss3.4sqi.net/img/categories_v2/food/brewery_", "suffix": ".png"}}], "chains": [], "closed_bucket": "Unsure", "distance": 602, "geocodes": {"main": {"latitude": 55.861185, "longitude": -4.234563}, "roof": {"latitude": 55.861185, "longitude": -4.234563}}, "link": "/v3/places/537dcf0d498e02df07785e2f", "location": {"address": "85 Drygate", "admin_region": "Scotland", "country": "GB", "cross_street": "", "formatted_address": "85 Drygate, Glasgow, G4 0UT", "locality": "Glasgow", "post_town": "Glasgow", "postcode": "G4 0UT"}, "name": "Drygate Brewing Co", "related_places": {"children": []}, "timezone": "Europe/London"}, {"fsq_id": "4b9b8c7cf964a520a80e36e3", "categories": [{"id": 13027, "name": "Bistro", "short_name": "Bistro", "plural_name": "Bistros", "icon": {"prefix": "https://ss3.4sqi.net/img/categories_v2/food/default_", "suffix": ".png"}}, {"id": 13032, "name": "Cafe, Coffee, and Tea House", "short_name": "Cafe, Coffee, and Tea House", "plural_name": "Cafes, Coffee, and Tea Houses", "icon": {"prefix": "https://ss3.4sqi.net/img/categories_v2/food/coffeeshop_", "suffix": ".png"}}, {"id": 13142, "name": "English Restaurant", "short_name": "English", "plural_name": "English Restaurants", "icon": {"prefix": "https://ss3.4sqi.net/img/categories_v2/food/default_", "suffix": ".png"}}], "chains": [], "closed_bucket": "VeryLikelyOpen", "distance": 244, "geocodes": {"main": {"latitude": 55.858488, "longitude": -4.22082}, "roof": {"latitude": 55.858488, "longitude": -4.22082}}, "link": "/v3/places/4b9b8c7cf964a520a80e36e3", "location": {"address": "443 Duke St", "admin_region": "Scotland", "country": "GB", "cross_street": "Hillfoot St", "formatted_address": "443 Duke St (Hillfoot St), Glasgow, Glasgow City, G31 1RY", "locality": "Glasgow", "post_town": "Glasgow", "postcode": "G31 1RY", "region": "Glasgow City"}, "name": "Tibo", "related_places": {}, "timezone": "Europe/London"}, {"fsq_id": "53dbc5b9498e95d9e033d82c", "categories": [{"id": 13018, "name": "Pub", "short_name": "Pub", "plural_name": "Pubs", "icon": {"prefix": "https://ss3.4sqi.net/img/categories_v2/nightlife/pub_", "suffix": ".png"}}, {"id": 13065, "name": "Restaurant", "short_name": "Restaurant", "plural_name": "Restaurants", "icon": {"prefix": "https://ss3.4sqi.net/img/categories_v2/food/default_", "suffix": ".png"}}], "chains": [], "closed_bucket": "VeryLikelyOpen", "distance": 75, "geocodes": {"drop_off": {"latitude": 55.858279, "longitude": -4.223371}, "main": {"latitude": 55.858133, "longitude": -4.223367}, "roof": {"latitude": 55.858133, "longitude": -4.223367}}, "link": "/v3/places/53dbc5b9498e95d9e033d82c", "location": {"address": "304 Duke St", "admin_region": "Scotland", "country": "GB", "cross_street": "", "formatted_address": "304 Duke St, Glasgow, Glasgow City, G31 1RZ", "locality": "Glasgow", "post_town": "Glasgow", "postcode": "G31 1RZ", "region": "Glasgow City"}, "name": "Redmond's", "related_places": {}, "timezone": "Europe/London"}, {"fsq_id": "4bd09e83caff9521ef31cff0", "categories": [{"id": 13034, "name": "Caf\u00e9", "short_name": "Caf\u00e9", "plural_name": "Caf\u00e9s", "icon": {"prefix": "https://ss3.4sqi.net/img/categories_v2/food/cafe_", "suffix": ".png"}}, {"id": 13035, "name": "Coffee Shop", "short_name": "Coffee Shop", "plural_name": "Coffee Shops", "icon": {"prefix": "https://ss3.4sqi.net/img/categories_v2/food/coffeeshop_", "suffix": ".png"}}, {"id": 13236, "name": "Italian Restaurant", "short_name": "Italian", "plural_name": "Italian Restaurants", "icon": {"prefix": "https://ss3.4sqi.net/img/categories_v2/food/italian_", "suffix": ".png"}}], "chains": [], "closed_bucket": "LikelyOpen", "distance": 326, "geocodes": {"main": {"latitude": 55.858517, "longitude": -4.219385}, "roof": {"latitude": 55.858517, "longitude": -4.219385}}, "link": "/v3/places/4bd09e83caff9521ef31cff0", "location": {"address": "473 Duke St", "admin_region": "Scotland", "country": "GB", "formatted_address": "473 Duke St, Glasgow, Glasgow City, G31 1RD", "locality": "Glasgow", "post_town": "Glasgow", "postcode": "G31 1RD", "region": "Glasgow City"}, "name": "Coia's Cafe", "related_places": {}, "timezone": "Europe/London"}, {"fsq_id": "55e8a27d498edabc99273e53", "categories": [{"id": 10039, "name": "Music Venue", "short_name": "Music Venue", "plural_name": "Music Venues", "icon": {"prefix": "https://ss3.4sqi.net/img/categories_v2/arts_entertainment/musicvenue_", "suffix": ".png"}}, {"id": 13003, "name": "Bar", "short_name": "Bar", "plural_name": "Bars", "icon": {"prefix": "https://ss3.4sqi.net/img/categories_v2/nightlife/pub_", "suffix": ".png"}}], "chains": [], "closed_bucket": "VeryLikelyOpen", "distance": 736, "geocodes": {"main": {"latitude": 55.854651, "longitude": -4.234613}, "roof": {"latitude": 55.854651, "longitude": -4.234613}}, "link": "/v3/places/55e8a27d498edabc99273e53", "location": {"address": "17 Bain Square", "admin_region": "Scotland", "country": "GB", "cross_street": "", "formatted_address": "17 Bain Square, Glasgow, Glasgow City, G40 2JZ", "locality": "Glasgow", "post_town": "Glasgow", "postcode": "G40 2JZ", "region": "Glasgow City"}, "name": "Saint Luke\u2019s", "related_places": {"children": []}, "timezone": "Europe/London"}, {"fsq_id": "59c6a66dc4df1d02e4877a35", "categories": [{"id": 13029, "name": "Brewery", "short_name": "Brewery", "plural_name": "Breweries", "icon": {"prefix": "https://ss3.4sqi.net/img/categories_v2/food/brewery_", "suffix": ".png"}}], "chains": [], "closed_bucket": "VeryLikelyOpen", "distance": 404, "geocodes": {"drop_off": {"latitude": 55.859145, "longitude": -4.230883}, "main": {"latitude": 55.859288, "longitude": -4.230863}, "roof": {"latitude": 55.859288, "longitude": -4.230863}}, "link": "/v3/places/59c6a66dc4df1d02e4877a35", "location": {"address": "161 Duke St", "admin_region": "Scotland", "country": "GB", "cross_street": "", "formatted_address": "161 Duke St, Glasgow, G31 1JD", "locality": "Glasgow", "post_town": "Glasgow", "postcode": "G31 1JD"}, "name": "Tennent\u2019s Caledonian Brewery Visitor Center", "related_places": {}, "timezone": "Europe/London"}, {"fsq_id": "6012f9703952083ba290bc6c", "categories": [{"id": 13031, "name": "Burger Joint", "short_name": "Burgers", "plural_name": "Burger Joints", "icon": {"prefix": "https://ss3.4sqi.net/img/categories_v2/food/burger_", "suffix": ".png"}}, {"id": 13145, "name": "Fast Food Restaurant", "short_name": "Fast Food", "plural_name": "Fast Food Restaurants", "icon": {"prefix": "https://ss3.4sqi.net/img/categories_v2/food/fastfood_", "suffix": ".png"}}], "chains": [{"id": "ab4a9b10-d68a-012e-5619-003048cad9da", "name": "Burger King"}], "closed_bucket": "LikelyOpen", "distance": 957, "geocodes": {"main": {"latitude": 55.854812, "longitude": -4.210414}, "roof": {"latitude": 55.854812, "longitude": -4.210414}}, "link": "/v3/places/6012f9703952083ba290bc6c", "location": {"address": "5 Biggar St", "admin_region": "Scotland", "country": "GB", "cross_street": "", "formatted_address": "5 Biggar St, Glasgow, Glasgow City, G31 4BH", "locality": "Glasgow", "post_town": "Glasgow", "postcode": "G31 4BH", "region": "Glasgow City"}, "name": "Burger King", "related_places": {}, "timezone": "Europe/London"}, {"fsq_id": "55a788d9498e189cc53ec2f2", "categories": [{"id": 13040, "name": "Dessert Shop", "short_name": "Desserts", "plural_name": "Dessert Shops", "icon": {"prefix": "https://ss3.4sqi.net/img/categories_v2/food/dessert_", "suffix": ".png"}}, {"id": 13065, "name": "Restaurant", "short_name": "Restaurant", "plural_name": "Restaurants", "icon": {"prefix": "https://ss3.4sqi.net/img/categories_v2/food/default_", "suffix": ".png"}}], "chains": [], "closed_bucket": "LikelyOpen", "distance": 143, "geocodes": {"drop_off": {"latitude": 55.858321, "longitude": -4.222218}, "main": {"latitude": 55.858199, "longitude": -4.222213}, "roof": {"latitude": 55.858199, "longitude": -4.222213}}, "link": "/v3/places/55a788d9498e189cc53ec2f2", "location": {"address": "330 Duke St", "admin_region": "Scotland", "country": "GB", "cross_street": "", "formatted_address": "330 Duke St, Glasgow, Glasgow City", "locality": "Glasgow", "post_town": "Glasgow", "region": "Glasgow City"}, "name": "Cheesecake Deli", "related_places": {}, "timezone": "Europe/London"}, {"fsq_id": "5c9fab4e872f7d002c938ad7", "categories": [{"id": 13018, "name": "Pub", "short_name": "Pub", "plural_name": "Pubs", "icon": {"prefix": "https://ss3.4sqi.net/img/categories_v2/nightlife/pub_", "suffix": ".png"}}, {"id": 13065, "name": "Restaurant", "short_name": "Restaurant", "plural_name": "Restaurants", "icon": {"prefix": "https://ss3.4sqi.net/img/categories_v2/food/default_", "suffix": ".png"}}], "chains": [], "closed_bucket": "LikelyOpen", "distance": 375, "geocodes": {"drop_off": {"latitude": 55.858434, "longitude": -4.218506}, "main": {"latitude": 55.858304, "longitude": -4.218503}, "roof": {"latitude": 55.858304, "longitude": -4.218503}}, "link": "/v3/places/5c9fab4e872f7d002c938ad7", "location": {"address": "380 Duke St", "admin_region": "Scotland", "country": "GB", "cross_street": "", "formatted_address": "380 Duke St, Glasgow, Glasgow City, G31 1DN", "locality": "Glasgow", "post_town": "Glasgow", "postcode": "G31 1DN", "region": "Glasgow City"}, "name": "The Palais Bar", "related_places": {}, "timezone": "Europe/London"}, {"fsq_id": "4be7af4fee96c928b042fdbf", "categories": [{"id": 13029, "name": "Brewery", "short_name": "Brewery", "plural_name": "Breweries", "icon": {"prefix": "https://ss3.4sqi.net/img/categories_v2/food/brewery_", "suffix": ".png"}}, {"id": 13065, "name": "Restaurant", "short_name": "Restaurant", "plural_name": "Restaurants", "icon": {"prefix": "https://ss3.4sqi.net/img/categories_v2/food/default_", "suffix": ".png"}}], "chains": [], "closed_bucket": "VeryLikelyOpen", "distance": 430, "geocodes": {"drop_off": {"latitude": 55.859145, "longitude": -4.230883}, "main": {"latitude": 55.859288, "longitude": -4.230863}, "roof": {"latitude": 55.859288, "longitude": -4.230863}}, "link": "/v3/places/4be7af4fee96c928b042fdbf", "location": {"address": "161 Duke St", "country": "GB", "cross_street": "", "formatted_address": "161 Duke St, Glasgow, Glasgow City", "locality": "Glasgow", "post_town": "Glasgow", "region": "Glasgow City"}, "name": "Wellpark Brewery", "related_places": {}, "timezone": "Europe/London"}, {"fsq_id": "579104ae498ed332e09a3393", "categories": [{"id": 13046, "name": "Ice Cream Parlor", "short_name": "Ice Cream", "plural_name": "Ice Cream Parlors", "icon": {"prefix": "https://ss3.4sqi.net/img/categories_v2/food/icecream_", "suffix": ".png"}}, {"id": 13065, "name": "Restaurant", "short_name": "Restaurant", "plural_name": "Restaurants", "icon": {"prefix": "https://ss3.4sqi.net/img/categories_v2/food/default_", "suffix": ".png"}}], "chains": [], "closed_bucket": "LikelyOpen", "distance": 468, "geocodes": {"drop_off": {"latitude": 55.858473, "longitude": -4.216898}, "main": {"latitude": 55.858605, "longitude": -4.216901}, "roof": {"latitude": 55.858605, "longitude": -4.216901}}, "link": "/v3/places/579104ae498ed332e09a3393", "location": {"address": "553 Duke St", "admin_region": "Scotland", "country": "GB", "cross_street": "", "formatted_address": "553 Duke St, Glasgow, Glasgow City, G31 1DL", "locality": "Glasgow", "post_town": "Glasgow", "postcode": "G31 1DL", "region": "Glasgow City"}, "name": "Black Vanilla", "related_places": {}, "timezone": "Europe/London"}, {"fsq_id": "4bdc6a35afe8c9b6a04e4f85", "categories": [{"id": 13145, "name": "Fast Food Restaurant", "short_name": "Fast Food", "plural_name": "Fast Food Restaurants", "icon": {"prefix": "https://ss3.4sqi.net/img/categories_v2/food/fastfood_", "suffix": ".png"}}], "chains": [], "closed_bucket": "VeryLikelyOpen", "distance": 469, "geocodes": {"main": {"latitude": 55.858332, "longitude": -4.217068}, "roof": {"latitude": 55.858332, "longitude": -4.217068}}, "link": "/v3/places/4bdc6a35afe8c9b6a04e4f85", "location": {"country": "GB", "cross_street": "", "formatted_address": "Glasgow, Glasgow City", "locality": "Glasgow", "post_town": "Glasgow", "region": "Glasgow City"}, "name": "Claudio's Chip Shop", "related_places": {}, "timezone": "Europe/London"}, {"fsq_id": "5b3e211c92e7a9002c617d9e", "categories": [{"id": 13064, "name": "Pizzeria", "short_name": "Pizza", "plural_name": "Pizzerias", "icon": {"prefix": "https://ss3.4sqi.net/img/categories_v2/food/pizza_", "suffix": ".png"}}], "chains": [], "closed_bucket": "VeryLikelyOpen", "distance": 488, "geocodes": {"main": {"latitude": 55.859217, "longitude": -4.232122}, "roof": {"latitude": 55.859217, "longitude": -4.232122}}, "link": "/v3/places/5b3e211c92e7a9002c617d9e", "location": {"address": "120 Duke St", "admin_region": "Scotland", "country": "GB", "cross_street": "", "formatted_address": "120 Duke St, Glasgow, Glasgow City, G4 0XW", "locality": "Glasgow", "post_town": "Glasgow", "postcode": "G4 0XW", "region": "Glasgow City"}, "name": "Baked Pizza Al Taglio", "related_places": {}, "timezone": "Europe/London"}, {"fsq_id": "4b681df9f964a520e2672be3", "categories": [{"id": 13032, "name": "Cafe, Coffee, and Tea House", "short_name": "Cafe, Coffee, and Tea House", "plural_name": "Cafes, Coffee, and Tea Houses", "icon": {"prefix": "https://ss3.4sqi.net/img/categories_v2/food/coffeeshop_", "suffix": ".png"}}, {"id": 13334, "name": "Sandwich Spot", "short_name": "Sandwich Spot", "plural_name": "Sandwich Spots", "icon": {"prefix": "https://ss3.4sqi.net/img/categories_v2/food/deli_", "suffix": ".png"}}], "chains": [], "closed_bucket": "VeryLikelyOpen", "distance": 522, "geocodes": {"main": {"latitude": 55.864392, "longitude": -4.221661}, "roof": {"latitude": 55.864392, "longitude": -4.221661}}, "link": "/v3/places/4b681df9f964a520e2672be3", "location": {"address": "417 Alexandra Parade", "admin_region": "Scotland", "country": "GB", "formatted_address": "417 Alexandra Parade, Glasgow, Glasgow City, G31 3AD", "locality": "Glasgow", "post_town": "Glasgow", "postcode": "G31 3AD", "region": "Glasgow City"}, "name": "Food on Parade", "related_places": {}, "timezone": "Europe/London"}, {"fsq_id": "62124f6c6923226d9893fea5", "categories": [{"id": 13034, "name": "Caf\u00e9", "short_name": "Caf\u00e9", "plural_name": "Caf\u00e9s", "icon": {"prefix": "https://ss3.4sqi.net/img/categories_v2/food/cafe_", "suffix": ".png"}}, {"id": 13145, "name": "Fast Food Restaurant", "short_name": "Fast Food", "plural_name": "Fast Food Restaurants", "icon": {"prefix": "https://ss3.4sqi.net/img/categories_v2/food/fastfood_", "suffix": ".png"}}], "chains": [], "closed_bucket": "LikelyOpen", "distance": 562, "geocodes": {"drop_off": {"latitude": 55.858436, "longitude": -4.215452}, "main": {"latitude": 55.858318, "longitude": -4.215456}, "roof": {"latitude": 55.858318, "longitude": -4.215456}}, "link": "/v3/places/62124f6c6923226d9893fea5", "location": {"address": "460 Duke St", "admin_region": "Scotland", "country": "GB", "cross_street": "", "formatted_address": "460 Duke St, Glasgow, G31 1QN", "locality": "Glasgow", "post_town": "Glasgow", "postcode": "G31 1QN"}, "name": "Fork n Knife Cafe", "related_places": {}, "timezone": "Europe/London"}, {"fsq_id": "4e9b25d24690c213355976c5", "categories": [{"id": 10037, "name": "Concert Hall", "short_name": "Concert Hall", "plural_name": "Concert Halls", "icon": {"prefix": "https://ss3.4sqi.net/img/categories_v2/arts_entertainment/musicvenue_", "suffix": ".png"}}, {"id": 13022, "name": "Sports Bar", "short_name": "Sports Bar", "plural_name": "Sports Bars", "icon": {"prefix": "https://ss3.4sqi.net/img/categories_v2/nightlife/sportsbar_", "suffix": ".png"}}], "chains": [], "closed_bucket": "VeryLikelyOpen", "distance": 581, "geocodes": {"main": {"latitude": 55.855608, "longitude": -4.23261}, "roof": {"latitude": 55.855608, "longitude": -4.23261}}, "link": "/v3/places/4e9b25d24690c213355976c5", "location": {"address": "36-40 Stevenson St West", "admin_region": "Scotland", "country": "GB", "cross_street": "", "formatted_address": "36-40 Stevenson St West, Glasgow, G40 2ST", "locality": "Glasgow", "post_town": "Glasgow", "postcode": "G40 2ST"}, "name": "Squirrel Bar", "related_places": {}, "timezone": "Europe/London"}, {"fsq_id": "4b944081f964a520427134e3", "categories": [{"id": 13003, "name": "Bar", "short_name": "Bar", "plural_name": "Bars", "icon": {"prefix": "https://ss3.4sqi.net/img/categories_v2/nightlife/pub_", "suffix": ".png"}}], "chains": [], "closed_bucket": "LikelyOpen", "distance": 627, "geocodes": {"main": {"latitude": 55.858269, "longitude": -4.214474}, "roof": {"latitude": 55.858269, "longitude": -4.214474}}, "link": "/v3/places/4b944081f964a520427134e3", "location": {"address": "476-480 Duke St", "admin_region": "Scotland", "country": "GB", "cross_street": "", "formatted_address": "476-480 Duke St, Glasgow, Glasgow City, G31 1QF", "locality": "Glasgow", "post_town": "Glasgow", "postcode": "G31 1QF", "region": "Glasgow City"}, "name": "The Crown Creighton", "related_places": {}, "timezone": "Europe/London"}, {"fsq_id": "4bd0b05eb221c9b60e35d4d0", "categories": [{"id": 13099, "name": "Chinese Restaurant", "short_name": "Chinese", "plural_name": "Chinese Restaurants", "icon": {"prefix": "https://ss3.4sqi.net/img/categories_v2/food/asian_", "suffix": ".png"}}], "chains": [], "closed_bucket": "VeryLikelyOpen", "distance": 630, "geocodes": {"main": {"latitude": 55.861383, "longitude": -4.216212}, "roof": {"latitude": 55.861383, "longitude": -4.216212}}, "link": "/v3/places/4bd0b05eb221c9b60e35d4d0", "location": {"country": "GB", "cross_street": "", "formatted_address": ""}, "name": "The Famous Wok", "related_places": {}, "timezone": "Europe/London"}, {"fsq_id": "5ccf37c095a722002c7feb7a", "categories": [{"id": 13199, "name": "Indian Restaurant", "short_name": "Indian", "plural_name": "Indian Restaurants", "icon": {"prefix": "https://ss3.4sqi.net/img/categories_v2/food/indian_", "suffix": ".png"}}], "chains": [], "closed_bucket": "VeryLikelyOpen", "distance": 631, "geocodes": {"main": {"latitude": 55.85822, "longitude": -4.214402}, "roof": {"latitude": 55.85822, "longitude": -4.214402}}, "link": "/v3/places/5ccf37c095a722002c7feb7a", "location": {"admin_region": "Scotland", "country": "GB", "cross_street": "", "formatted_address": "Glasgow, Glasgow City, G31 1QG", "locality": "Glasgow", "post_town": "Glasgow", "postcode": "G31 1QG", "region": "Glasgow City"}, "name": "The Red Tiffin", "related_places": {}, "timezone": "Europe/London"}, {"fsq_id": "4f521259e4b092980d6b21df", "categories": [{"id": 13018, "name": "Pub", "short_name": "Pub", "plural_name": "Pubs", "icon": {"prefix": "https://ss3.4sqi.net/img/categories_v2/nightlife/pub_", "suffix": ".png"}}], "chains": [], "closed_bucket": "VeryLikelyOpen", "distance": 748, "geocodes": {"drop_off": {"latitude": 55.858323, "longitude": -4.212501}, "main": {"latitude": 55.858169, "longitude": -4.212509}, "roof": {"latitude": 55.858169, "longitude": -4.212509}}, "link": "/v3/places/4f521259e4b092980d6b21df", "location": {"country": "GB", "cross_street": "", "formatted_address": ""}, "name": "Louden Tavern Limited", "related_places": {}, "timezone": "Europe/London"}, {"fsq_id": "4bc77c3f8b7c9c74008c36cf", "categories": [{"id": 13018, "name": "Pub", "short_name": "Pub", "plural_name": "Pubs", "icon": {"prefix": "https://ss3.4sqi.net/img/categories_v2/nightlife/pub_", "suffix": ".png"}}], "chains": [], "closed_bucket": "LikelyOpen", "distance": 757, "geocodes": {"main": {"latitude": 55.858516, "longitude": -4.213815}, "roof": {"latitude": 55.858516, "longitude": -4.213815}}, "link": "/v3/places/4bc77c3f8b7c9c74008c36cf", "location": {"address": "631 Duke St", "admin_region": "Scotland", "country": "GB", "cross_street": "", "formatted_address": "631 Duke St, Glasgow, Glasgow City, G31 1QA", "locality": "Glasgow", "post_town": "Glasgow", "postcode": "G31 1QA", "region": "Glasgow City"}, "name": "Duke Bar", "related_places": {}, "timezone": "Europe/London"}, {"fsq_id": "6163179622fff040770c2d38", "categories": [{"id": 13236, "name": "Italian Restaurant", "short_name": "Italian", "plural_name": "Italian Restaurants", "icon": {"prefix": "https://ss3.4sqi.net/img/categories_v2/food/italian_", "suffix": ".png"}}], "chains": [], "closed_bucket": "LikelyOpen", "distance": 786, "geocodes": {"main": {"latitude": 55.861895, "longitude": -4.23504}, "roof": {"latitude": 55.861895, "longitude": -4.23504}}, "link": "/v3/places/6163179622fff040770c2d38", "location": {"address": "28-32 Cathedral Square", "admin_region": "Scotland", "country": "GB", "cross_street": "", "formatted_address": "28-32 Cathedral Square, Glasgow, Glasgow City, G4 0XA", "locality": "Glasgow", "post_town": "Glasgow", "postcode": "G4 0XA", "region": "Glasgow City"}, "name": "Celentano's", "related_places": {}, "timezone": "Europe/London"}, {"fsq_id": "654378cbb2ee4d190a6aba1a", "categories": [{"id": 10037, "name": "Concert Hall", "short_name": "Concert Hall", "plural_name": "Concert Halls", "icon": {"prefix": "https://ss3.4sqi.net/img/categories_v2/arts_entertainment/musicvenue_", "suffix": ".png"}}, {"id": 10039, "name": "Music Venue", "short_name": "Music Venue", "plural_name": "Music Venues", "icon": {"prefix": "https://ss3.4sqi.net/img/categories_v2/arts_entertainment/musicvenue_", "suffix": ".png"}}, {"id": 13003, "name": "Bar", "short_name": "Bar", "plural_name": "Bars", "icon": {"prefix": "https://ss3.4sqi.net/img/categories_v2/nightlife/pub_", "suffix": ".png"}}], "chains": [], "closed_bucket": "Unsure", "distance": 813, "geocodes": {"main": {"latitude": 55.855229, "longitude": -4.236487}, "roof": {"latitude": 55.855229, "longitude": -4.236487}}, "link": "/v3/places/654378cbb2ee4d190a6aba1a", "location": {"address": "244 Gallowgate", "admin_region": "Scotland", "country": "GB", "formatted_address": "244 Gallowgate, Glasgow, G4 0TT", "locality": "Glasgow", "post_town": "Glasgow", "postcode": "G4 0TT"}, "name": "Margaret Mciver", "related_places": {}, "timezone": "Europe/London"}, {"fsq_id": "4f341989e4b0475137c794a6", "categories": [{"id": 10000, "name": "Arts and Entertainment", "short_name": "Arts & Entertainment", "plural_name": "Arts and Entertainment", "icon": {"prefix": "https://ss3.4sqi.net/img/categories_v2/arts_entertainment/default_", "suffix": ".png"}}, {"id": 13018, "name": "Pub", "short_name": "Pub", "plural_name": "Pubs", "icon": {"prefix": "https://ss3.4sqi.net/img/categories_v2/nightlife/pub_", "suffix": ".png"}}, {"id": 13022, "name": "Sports Bar", "short_name": "Sports Bar", "plural_name": "Sports Bars", "icon": {"prefix": "https://ss3.4sqi.net/img/categories_v2/nightlife/sportsbar_", "suffix": ".png"}}], "chains": [], "closed_bucket": "LikelyOpen", "distance": 815, "geocodes": {"main": {"latitude": 55.855539, "longitude": -4.236601}, "roof": {"latitude": 55.855539, "longitude": -4.236601}}, "link": "/v3/places/4f341989e4b0475137c794a6", "location": {"address": "251 Gallowgate", "admin_region": "Scotland", "country": "GB", "cross_street": "", "formatted_address": "251 Gallowgate, Glasgow, Glasgow City, G4 0TP", "locality": "Glasgow", "post_town": "Glasgow", "postcode": "G4 0TP", "region": "Glasgow City"}, "name": "The Emerald Isle", "related_places": {}, "timezone": "Europe/London"}, {"fsq_id": "4c93c21a72dd224b97a29391", "categories": [{"id": 13010, "name": "Dive Bar", "short_name": "Dive Bar", "plural_name": "Dive Bars", "icon": {"prefix": "https://ss3.4sqi.net/img/categories_v2/nightlife/divebar_", "suffix": ".png"}}, {"id": 13018, "name": "Pub", "short_name": "Pub", "plural_name": "Pubs", "icon": {"prefix": "https://ss3.4sqi.net/img/categories_v2/nightlife/pub_", "suffix": ".png"}}, {"id": 13022, "name": "Sports Bar", "short_name": "Sports Bar", "plural_name": "Sports Bars", "icon": {"prefix": "https://ss3.4sqi.net/img/categories_v2/nightlife/sportsbar_", "suffix": ".png"}}], "chains": [], "closed_bucket": "Unsure", "distance": 847, "geocodes": {"main": {"latitude": 55.858093, "longitude": -4.210125}, "roof": {"latitude": 55.858093, "longitude": -4.210125}}, "link": "/v3/places/4c93c21a72dd224b97a29391", "location": {"address": "600 Duke St", "admin_region": "Scotland", "country": "GB", "cross_street": "", "formatted_address": "600 Duke St, Glasgow, G31 1JX", "locality": "Glasgow", "post_town": "Glasgow", "postcode": "G31 1JX"}, "name": "The Bristol Bar", "related_places": {}, "timezone": "Europe/London"}, {"fsq_id": "5a00aa82012358052bebb72f", "categories": [{"id": 13324, "name": "Polish Restaurant", "short_name": "Polish", "plural_name": "Polish Restaurants", "icon": {"prefix": "https://ss3.4sqi.net/img/categories_v2/food/default_", "suffix": ".png"}}], "chains": [], "closed_bucket": "VeryLikelyOpen", "distance": 884, "geocodes": {"main": {"latitude": 55.855631, "longitude": -4.23776}, "roof": {"latitude": 55.855631, "longitude": -4.23776}}, "link": "/v3/places/5a00aa82012358052bebb72f", "location": {"admin_region": "Scotland", "country": "GB", "cross_street": "", "formatted_address": "Glasgow, Glasgow City, G1 5DX", "locality": "Glasgow", "post_town": "Glasgow", "postcode": "G1 5DX", "region": "Glasgow City"}, "name": "Soul Food Sisters", "related_places": {}, "timezone": "Europe/London"}, {"fsq_id": "4f9e40a8e4b01da401729dd5", "categories": [{"id": 13034, "name": "Caf\u00e9", "short_name": "Caf\u00e9", "plural_name": "Caf\u00e9s", "icon": {"prefix": "https://ss3.4sqi.net/img/categories_v2/food/cafe_", "suffix": ".png"}}, {"id": 13065, "name": "Restaurant", "short_name": "Restaurant", "plural_name": "Restaurants", "icon": {"prefix": "https://ss3.4sqi.net/img/categories_v2/food/default_", "suffix": ".png"}}], "chains": [], "closed_bucket": "VeryLikelyOpen", "distance": 907, "geocodes": {"main": {"latitude": 55.862558, "longitude": -4.236356}, "roof": {"latitude": 55.862558, "longitude": -4.236356}}, "link": "/v3/places/4f9e40a8e4b01da401729dd5", "location": {"country": "GB", "cross_street": "", "formatted_address": "", "post_town": "Glasgow"}, "name": "Aroma Coffee Bar", "related_places": {}, "timezone": "Europe/London"}, {"fsq_id": "49e702d4b6124784f1461470", "categories": [{"id": 13002, "name": "Bakery", "short_name": "Bakery", "plural_name": "Bakeries", "icon": {"prefix": "https://ss3.4sqi.net/img/categories_v2/food/bakery_", "suffix": ".png"}}, {"id": 13065, "name": "Restaurant", "short_name": "Restaurant", "plural_name": "Restaurants", "icon": {"prefix": "https://ss3.4sqi.net/img/categories_v2/food/default_", "suffix": ".png"}}], "chains": [], "closed_bucket": "Unsure", "distance": 914, "geocodes": {"main": {"latitude": 55.85853, "longitude": -4.209858}, "roof": {"latitude": 55.85853, "longitude": -4.209858}}, "link": "/v3/places/49e702d4b6124784f1461470", "location": {"address": "783 Duke St", "admin_region": "Scotland", "country": "GB", "formatted_address": "783 Duke St, Glasgow, G31 1LL", "locality": "Glasgow", "post_town": "Glasgow", "postcode": "G31 1LL"}, "name": "British Bakeries", "related_places": {}, "timezone": "Europe/London"}, {"fsq_id": "4e416f3cb0fb1399f6ec9063", "categories": [{"id": 13003, "name": "Bar", "short_name": "Bar", "plural_name": "Bars", "icon": {"prefix": "https://ss3.4sqi.net/img/categories_v2/nightlife/pub_", "suffix": ".png"}}], "chains": [], "closed_bucket": "LikelyOpen", "distance": 929, "geocodes": {"main": {"latitude": 55.851628, "longitude": -4.233121}, "roof": {"latitude": 55.851628, "longitude": -4.233121}}, "link": "/v3/places/4e416f3cb0fb1399f6ec9063", "location": {"address": "415 London Rd", "admin_region": "Scotland", "country": "GB", "cross_street": "", "formatted_address": "415 London Rd, Glasgow, Glasgow City, G40 1AG", "locality": "Glasgow", "post_town": "Glasgow", "postcode": "G40 1AG", "region": "Glasgow City"}, "name": "The Calton Bar", "related_places": {}, "timezone": "Europe/London"}, {"fsq_id": "5b198e232a7ab60039418405", "categories": [{"id": 13099, "name": "Chinese Restaurant", "short_name": "Chinese", "plural_name": "Chinese Restaurants", "icon": {"prefix": "https://ss3.4sqi.net/img/categories_v2/food/asian_", "suffix": ".png"}}], "chains": [], "closed_bucket": "VeryLikelyOpen", "distance": 929, "geocodes": {"main": {"latitude": 55.863022, "longitude": -4.212372}, "roof": {"latitude": 55.863022, "longitude": -4.212372}}, "link": "/v3/places/5b198e232a7ab60039418405", "location": {"admin_region": "Scotland", "country": "GB", "cross_street": "", "formatted_address": "Glasgow, Glasgow City, G31 3BT", "locality": "Glasgow", "post_town": "Glasgow", "postcode": "G31 3BT", "region": "Glasgow City"}, "name": "Zen Chinese Takeaway & Home Delivery", "related_places": {}, "timezone": "Europe/London"}, {"fsq_id": "54cc03c4498e6d15ecaa6007", "categories": [{"id": 13057, "name": "Gastropub", "short_name": "Gastropub", "plural_name": "Gastropubs", "icon": {"prefix": "https://ss3.4sqi.net/img/categories_v2/food/gastropub_", "suffix": ".png"}}], "chains": [], "closed_bucket": "VeryLikelyOpen", "distance": 946, "geocodes": {"main": {"latitude": 55.862069, "longitude": -4.238479}, "roof": {"latitude": 55.862069, "longitude": -4.238479}}, "link": "/v3/places/54cc03c4498e6d15ecaa6007", "location": {"country": "GB", "cross_street": "", "formatted_address": "", "post_town": "Glasgow"}, "name": "West Brewery Glasgow Green", "related_places": {}, "timezone": "Europe/London"}, {"fsq_id": "a74a7327f381472593c01157", "categories": [{"id": 13352, "name": "Thai Restaurant", "short_name": "Thai", "plural_name": "Thai Restaurants", "icon": {"prefix": "https://ss3.4sqi.net/img/categories_v2/food/thai_", "suffix": ".png"}}], "chains": [], "closed_bucket": "LikelyOpen", "distance": 976, "geocodes": {"main": {"latitude": 55.858007, "longitude": -4.208862}, "roof": {"latitude": 55.858007, "longitude": -4.208862}}, "link": "/v3/places/a74a7327f381472593c01157", "location": {"address": "636 Duke St", "admin_region": "Scotland", "country": "GB", "formatted_address": "636 Duke St, Glasgow, Glasgow City, G31 1JY", "locality": "Glasgow", "post_town": "Glasgow", "postcode": "G31 1JY", "region": "Glasgow City"}, "name": "Hungry Sumo", "related_places": {}, "timezone": "Europe/London"}, {"fsq_id": "4c4b38dbc668e21efd3dc6f9", "categories": [{"id": 13145, "name": "Fast Food Restaurant", "short_name": "Fast Food", "plural_name": "Fast Food Restaurants", "icon": {"prefix": "https://ss3.4sqi.net/img/categories_v2/food/fastfood_", "suffix": ".png"}}, {"id": 13199, "name": "Indian Restaurant", "short_name": "Indian", "plural_name": "Indian Restaurants", "icon": {"prefix": "https://ss3.4sqi.net/img/categories_v2/food/indian_", "suffix": ".png"}}], "chains": [], "closed_bucket": "VeryLikelyOpen", "distance": 978, "geocodes": {"main": {"latitude": 55.860358, "longitude": -4.238918}, "roof": {"latitude": 55.860358, "longitude": -4.238918}}, "link": "/v3/places/4c4b38dbc668e21efd3dc6f9", "location": {"address": "7 Duke St", "admin_region": "Scotland", "country": "GB", "cross_street": "", "formatted_address": "7 Duke St, Glasgow, G4 0UL", "locality": "Glasgow", "post_town": "Glasgow", "postcode": "G4 0UL"}, "name": "Curry Heaven", "related_places": {}, "timezone": "Europe/London"}, {"fsq_id": "564e2f83498e080c4c1a8508", "categories": [{"id": 13030, "name": "Buffet", "short_name": "Buffet", "plural_name": "Buffets", "icon": {"prefix": "https://ss3.4sqi.net/img/categories_v2/food/default_", "suffix": ".png"}}, {"id": 13145, "name": "Fast Food Restaurant", "short_name": "Fast Food", "plural_name": "Fast Food Restaurants", "icon": {"prefix": "https://ss3.4sqi.net/img/categories_v2/food/fastfood_", "suffix": ".png"}}, {"id": 13199, "name": "Indian Restaurant", "short_name": "Indian", "plural_name": "Indian Restaurants", "icon": {"prefix": "https://ss3.4sqi.net/img/categories_v2/food/indian_", "suffix": ".png"}}], "chains": [], "closed_bucket": "LikelyOpen", "distance": 991, "geocodes": {"main": {"latitude": 55.854164, "longitude": -4.238557}, "roof": {"latitude": 55.854164, "longitude": -4.238557}}, "link": "/v3/places/564e2f83498e080c4c1a8508", "location": {"address": "186 London Rd", "admin_region": "Scotland", "country": "GB", "cross_street": "London Road", "formatted_address": "186 London Rd (London Road), Glasgow, G40 1PB", "locality": "Glasgow", "post_town": "Glasgow", "postcode": "G40 1PB"}, "name": "Spicy Fusion", "related_places": {}, "timezone": "Europe/London"}, {"fsq_id": "4b2cfd8b80606aee2d73a34b", "categories": [{"id": 13035, "name": "Coffee Shop", "short_name": "Coffee Shop", "plural_name": "Coffee Shops", "icon": {"prefix": "https://ss3.4sqi.net/img/categories_v2/food/coffeeshop_", "suffix": ".png"}}, {"id": 13145, "name": "Fast Food Restaurant", "short_name": "Fast Food", "plural_name": "Fast Food Restaurants", "icon": {"prefix": "https://ss3.4sqi.net/img/categories_v2/food/fastfood_", "suffix": ".png"}}], "chains": [], "closed_bucket": "LikelyOpen", "distance": 179, "geocodes": {"drop_off": {"latitude": 55.858099, "longitude": -4.221906}, "main": {"latitude": 55.857968, "longitude": -4.221646}, "roof": {"latitude": 55.857968, "longitude": -4.221646}}, "link": "/v3/places/4b2cfd8b80606aee2d73a34b", "location": {"address": "172 Sword St", "admin_region": "Scotland", "country": "GB", "formatted_address": "172 Sword St, Glasgow, G31 1SE", "locality": "Glasgow", "post_town": "Glasgow", "postcode": "G31 1SE"}, "name": "Munchies Cafe Sword Street", "related_places": {}}, {"fsq_id": "93668994a4f3402dddfd9a96", "categories": [{"id": 13051, "name": "Fish and Chips Shop", "short_name": "Fish and Chips Shop", "plural_name": "Fish and Chips Shops", "icon": {"prefix": "https://ss3.4sqi.net/img/categories_v2/food/fishandchips_", "suffix": ".png"}}], "chains": [], "closed_bucket": "LikelyOpen", "distance": 358, "geocodes": {"drop_off": {"latitude": 55.858713, "longitude": -4.219154}, "main": {"latitude": 55.858705, "longitude": -4.218865}, "roof": {"latitude": 55.858705, "longitude": -4.218865}}, "link": "/v3/places/93668994a4f3402dddfd9a96", "location": {"address": "6 Whitehill St", "admin_region": "Scotland", "country": "GB", "formatted_address": "6 Whitehill St, Glasgow, G31 2LJ", "locality": "Glasgow", "post_town": "Glasgow", "postcode": "G31 2LJ"}, "name": "Coias 2", "related_places": {}}, {"fsq_id": "1228b4380b5a4e078c94cad7", "categories": [{"id": 13003, "name": "Bar", "short_name": "Bar", "plural_name": "Bars", "icon": {"prefix": "https://ss3.4sqi.net/img/categories_v2/nightlife/pub_", "suffix": ".png"}}, {"id": 13065, "name": "Restaurant", "short_name": "Restaurant", "plural_name": "Restaurants", "icon": {"prefix": "https://ss3.4sqi.net/img/categories_v2/food/default_", "suffix": ".png"}}], "chains": [], "closed_bucket": "Unsure", "distance": 569, "geocodes": {"main": {"latitude": 55.85827, "longitude": -4.215384}, "roof": {"latitude": 55.85827, "longitude": -4.215384}}, "link": "/v3/places/1228b4380b5a4e078c94cad7", "location": {"address": "468 Duke St", "admin_region": "Scotland", "country": "GB", "formatted_address": "468 Duke St, Glasgow, G31 1QN", "locality": "Glasgow", "post_town": "Glasgow", "postcode": "G31 1QN"}, "name": "The Alexander", "related_places": {}}, {"fsq_id": "b49dae770a6e4c8404d4a039", "categories": [{"id": 11056, "name": "Food and Beverage Service", "short_name": "Food Service", "plural_name": "Food and Beverage Services", "icon": {"prefix": "https://ss3.4sqi.net/img/categories_v2/shops/foodanddrink_", "suffix": ".png"}}, {"id": 13046, "name": "Ice Cream Parlor", "short_name": "Ice Cream", "plural_name": "Ice Cream Parlors", "icon": {"prefix": "https://ss3.4sqi.net/img/categories_v2/food/icecream_", "suffix": ".png"}}, {"id": 13065, "name": "Restaurant", "short_name": "Restaurant", "plural_name": "Restaurants", "icon": {"prefix": "https://ss3.4sqi.net/img/categories_v2/food/default_", "suffix": ".png"}}], "chains": [], "closed_bucket": "LikelyOpen", "distance": 879, "geocodes": {"main": {"latitude": 55.854763, "longitude": -4.237279}, "roof": {"latitude": 55.854763, "longitude": -4.237279}}, "link": "/v3/places/b49dae770a6e4c8404d4a039", "location": {"address": "Moncur St", "admin_region": "Scotland", "country": "GB", "formatted_address": "Moncur St, Glasgow, G40 2SL", "locality": "Glasgow", "post_town": "Glasgow", "postcode": "G40 2SL"}, "name": "Kandy Krunch", "related_places": {}}, {"fsq_id": "d355d462af024d763ddef7ce", "categories": [{"id": 13039, "name": "Deli", "short_name": "Deli", "plural_name": "Delis", "icon": {"prefix": "https://ss3.4sqi.net/img/categories_v2/food/deli_", "suffix": ".png"}}, {"id": 17029, "name": "Convenience Store", "short_name": "Convenience Store", "plural_name": "Convenience Stores", "icon": {"prefix": "https://ss3.4sqi.net/img/categories_v2/shops/conveniencestore_", "suffix": ".png"}}], "chains": [], "closed_bucket": "Unsure", "distance": 930, "geocodes": {"drop_off": {"latitude": 55.860727, "longitude": -4.238595}, "main": {"latitude": 55.86085, "longitude": -4.238617}, "roof": {"latitude": 55.86085, "longitude": -4.238617}}, "link": "/v3/places/d355d462af024d763ddef7ce", "location": {"address": "269 High St", "admin_region": "Scotland", "country": "GB", "formatted_address": "269 High St, Glasgow", "locality": "Glasgow", "post_town": "Glasgow"}, "name": "All in One Food and Cosmetics", "related_places": {}}, {"fsq_id": "e9d2a21f12f14dc6c39f5169", "categories": [{"id": 13025, "name": "Wine Bar", "short_name": "Wine Bar", "plural_name": "Wine Bars", "icon": {"prefix": "https://ss3.4sqi.net/img/categories_v2/food/winery_", "suffix": ".png"}}], "chains": [], "closed_bucket": "LikelyOpen", "distance": 969, "geocodes": {"drop_off": {"latitude": 55.849478, "longitude": -4.227618}, "main": {"latitude": 55.849571, "longitude": -4.227596}, "roof": {"latitude": 55.849571, "longitude": -4.227596}}, "link": "/v3/places/e9d2a21f12f14dc6c39f5169", "location": {"address": "603 London Rd", "admin_region": "Scotland", "country": "GB", "formatted_address": "603 London Rd, Glasgow, G40 1NE", "locality": "Glasgow", "post_town": "Glasgow", "postcode": "G40 1NE"}, "name": "The Station Bar", "related_places": {}}, {"fsq_id": "7a40746032f64f8c81de046c", "categories": [{"id": 13039, "name": "Deli", "short_name": "Deli", "plural_name": "Delis", "icon": {"prefix": "https://ss3.4sqi.net/img/categories_v2/food/deli_", "suffix": ".png"}}], "chains": [], "closed_bucket": "Unsure", "distance": 971, "geocodes": {"drop_off": {"latitude": 55.855808, "longitude": -4.239606}, "main": {"latitude": 55.855948, "longitude": -4.239591}, "roof": {"latitude": 55.855948, "longitude": -4.239591}}, "link": "/v3/places/7a40746032f64f8c81de046c", "location": {"country": "GB", "formatted_address": "Glasgow", "locality": "Glasgow", "post_town": "Glasgow"}, "name": "Baltika. Eastern European Food Store", "related_places": {}}], "context": {"geo_bounds": {"circle": {"center": {"latitude": 55.858123, "longitude": -4.224511}, "radius": 1000}}}}