{"results": [{"fsq_id": "4bb7a8451261d13a09a7e798", "categories": [{"id": 13024, "name": "Whisky Bar", "short_name": "Whisky Bar", "plural_name": "Whisky Bars", "icon": {"prefix": "https://ss3.4sqi.net/img/categories_v2/nightlife/whiskey_", "suffix": ".png"}}, {"id": 13025, "name": "Wine Bar", "short_name": "Wine Bar", "plural_name": "Wine Bars", "icon": {"prefix": "https://ss3.4sqi.net/img/categories_v2/food/winery_", "suffix": ".png"}}, {"id": 13065, "name": "Restaurant", "short_name": "Restaurant", "plural_name": "Restaurants", "icon": {"prefix": "https://ss3.4sqi.net/img/categories_v2/food/default_", "suffix": ".png"}}], "chains": [], "closed_bucket": "Unsure", "distance": 984, "geocodes": {"main": {"latitude": 55.862979, "longitude": -4.257673}, "roof": {"latitude": 55.862979, "longitude": -4.257673}}, "link": "/v3/places/4bb7a8451261d13a09a7e798", "location": {"address": "154 Hope St", "admin_region": "Scotland", "country": "GB", "cross_street": "W Regent St", "formatted_address": "154 Hope St (W Regent St), Glasgow, Glasgow City, G2 2TH", "locality": "Glasgow", "post_town": "Glasgow", "postcode": "G2 2TH", "region": "Glasgow City"}, "name": "The Pot Still", "related_places": {}, "timezone": "Europe/London"}, {"fsq_id": "4b1fe8d7f964a520a32a24e3", "categories": [{"id": 13003, "name": "Bar", "short_name": "Bar", "plural_name": "Bars", "icon": {"prefix": "https://ss3.4sqi.net/img/categories_v2/nightlife/pub_", "suffix": ".png"}}, {"id": 13057, "name": "Gastropub", "short_name": "Gastropub", "plural_name": "Gastropubs", "icon": {"prefix": "https://ss3.4sqi.net/img/categories_v2/food/gastropub_", "suffix": ".png"}}], "chains": [], "closed_bucket": "Unsure", "distance": 994, "geocodes": {"main": {"latitude": 55.864262, "longitude": -4.261041}, "roof": {"latitude": 55.864262, "longitude": -4.261041}}, "link": "/v3/places/4b1fe8d7f964a520a32a24e3", "location": {"address": "153 Bath St", "admin_region": "Scotland", "country": "GB", "formatted_address": "153 Bath St, Glasgow, Glasgow City, G2 4SQ", "locality": "Glasgow", "post_town": "Glasgow", "postcode": "G2 4SQ", "region": "Glasgow City"}, "name": "The Butterfly & the Pig", "related_places": {}, "timezone": "Europe/London"}, {"fsq_id": "4b852d7bf964a5207d4f31e3", "categories": [{"id": 13024, "name": "Whisky Bar", "short_name": "Whisky Bar", "plural_name": "Whisky Bars", "icon": {"prefix": "https://ss3.4sqi.net/img/categories_v2/nightlife/whiskey_", "suffix": ".png"}}], "chains": [], "closed_bucket": "Unsure", "distance": 849, "geocodes": {"main": {"latitude": 55.864143, "longitude": -4.271445}, "roof": {"latitude": 55.864143, "longitude": -4.271445}}, "link": "/v3/places/4b852d7bf964a5207d4f31e3", "location": {"address": "153 North St", "admin_region": "Scotland", "country": "GB", "formatted_address": "153 North St, Glasgow, Glasgow City, G3 7DA", "locality": "Glasgow", "post_town": "Glasgow", "postcode": "G3 7DA", "region": "Glasgow City"}, "name": "Bon Accord", "related_places": {}, "timezone": "Europe/London"}, {"fsq_id": "4c54b19ea724e21e442cc8f6", "categories": [{"id": 10032, "name": "Night Club", "short_name": "Night Club", "plural_name": "Night Clubs", "icon": {"prefix": "https://ss3.4sqi.net/img/categories_v2/nightlife/nightclub_", "suffix": ".png"}}, {"id": 13003, "name": "Bar", "short_name": "Bar", "plural_name": "Bars", "icon": {"prefix": "https://ss3.4sqi.net/img/categories_v2/nightlife/pub_", "suffix": ".png"}}], "chains": [], "closed_bucket": "Unsure", "distance": 763, "geocodes": {"main": {"latitude": 55.858106, "longitude": -4.257209}, "roof": {"latitude": 55.858106, "longitude": -4.257209}}, "link": "/v3/places/4c54b19ea724e21e442cc8f6", "location": {"address": "22 Jamaica St", "admin_region": "Scotland", "country": "GB", "formatted_address": "22 Jamaica St, Glasgow, Glasgow City, G1 4QD", "locality": "Glasgow", "post_town": "Glasgow", "postcode": "G1 4QD", "region": "Glasgow City"}, "name": "Sub Club", "related_places": {}, "timezone": "Europe/London"}, {"fsq_id": "53c583cf498e63ea4da3718c", "categories": [{"id": 13303, "name": "Mexican Restaurant", "short_name": "Mexican", "plural_name": "Mexican Restaurants", "icon": {"prefix": "https://ss3.4sqi.net/img/categories_v2/food/mexican_", "suffix": ".png"}}, {"id": 13347, "name": "Tapas Restaurant", "short_name": "Tapas", "plural_name": "Tapas Restaurants", "icon": {"prefix": "https://ss3.4sqi.net/img/categories_v2/food/tapas_", "suffix": ".png"}}], "chains": [], "closed_bucket": "Unsure", "distance": 946, "geocodes": {"main": {"latitude": 55.861321, "longitude": -4.256256}, "roof": {"latitude": 55.861321, "longitude": -4.256256}}, "link": "/v3/places/53c583cf498e63ea4da3718c", "location": {"address": "89 St Vincent St", "admin_region": "Scotland", "country": "GB", "cross_street": "", "formatted_address": "89 St Vincent St, Glasgow, G2 5TF", "locality": "Glasgow", "post_town": "Glasgow", "postcode": "G2 5TF"}, "name": "Topolabamba", "related_places": {}, "timezone": "Europe/London"}, {"fsq_id": "4ade0865f964a5208b6721e3", "categories": [{"id": 13025, "name": "Wine Bar", "short_name": "Wine Bar", "plural_name": "Wine Bars", "icon": {"prefix": "https://ss3.4sqi.net/img/categories_v2/food/winery_", "suffix": ".png"}}, {"id": 13034, "name": "Caf\u00e9", "short_name": "Caf\u00e9", "plural_name": "Caf\u00e9s", "icon": {"prefix": "https://ss3.4sqi.net/img/categories_v2/food/cafe_", "suffix": ".png"}}, {"id": 13377, "name": "Vegan and Vegetarian Restaurant", "short_name": "Vegan and Vegetarian Restaurant", "plural_name": "Vegan and Vegetarian Restaurants", "icon": {"prefix": "https://ss3.4sqi.net/img/categories_v2/food/vegetarian_", "suffix": ".png"}}], "chains": [], "closed_bucket": "Unsure", "distance": 849, "geocodes": {"main": {"latitude": 55.861123, "longitude": -4.257896}, "roof": {"latitude": 55.861123, "longitude": -4.257896}}, "link": "/v3/places/4ade0865f964a5208b6721e3", "location": {"address": "20-28 Renfield Lane", "admin_region": "Scotland", "country": "GB", "formatted_address": "20-28 Renfield Lane, Glasgow, Glasgow City, G2 5AR", "locality": "Glasgow", "post_town": "Glasgow", "postcode": "G2 5AR", "region": "Glasgow City"}, "name": "Stereo", "related_places": {}, "timezone": "Europe/London"}, {"fsq_id": "4b27e8ecf964a520268c24e3", "categories": [{"id": 10039, "name": "Music Venue", "short_name": "Music Venue", "plural_name": "Music Venues", "icon": {"prefix": "https://ss3.4sqi.net/img/categories_v2/arts_entertainment/musicvenue_", "suffix": ".png"}}, {"id": 13025, "name": "Wine Bar", "short_name": "Wine Bar", "plural_name": "Wine Bars", "icon": {"prefix": "https://ss3.4sqi.net/img/categories_v2/food/winery_", "suffix": ".png"}}, {"id": 13065, "name": "Restaurant", "short_name": "Restaurant", "plural_name": "Restaurants", "icon": {"prefix": "https://ss3.4sqi.net/img/categories_v2/food/default_", "suffix": ".png"}}], "chains": [], "closed_bucket": "Unsure", "distance": 685, "geocodes": {"main": {"latitude": 55.862627, "longitude": -4.264775}, "roof": {"latitude": 55.862627, "longitude": -4.264775}}, "link": "/v3/places/4b27e8ecf964a520268c24e3", "location": {"address": "272a St Vincent St", "admin_region": "Scotland", "country": "GB", "formatted_address": "272a St Vincent St, Glasgow, Glasgow City, G2 5RL", "locality": "Glasgow", "post_town": "Glasgow", "postcode": "G2 5RL", "region": "Glasgow City"}, "name": "King Tut's Wah Wah Hut", "related_places": {}, "timezone": "Europe/London"}, {"fsq_id": "5aa9491069e77b5f8b64713a", "categories": [{"id": 13145, "name": "Fast Food Restaurant", "short_name": "Fast Food", "plural_name": "Fast Food Restaurants", "icon": {"prefix": "https://ss3.4sqi.net/img/categories_v2/food/fastfood_", "suffix": ".png"}}], "chains": [], "closed_bucket": "Unsure", "distance": 931, "geocodes": {"main": {"latitude": 55.860611, "longitude": -4.255778}, "roof": {"latitude": 55.860611, "longitude": -4.255778}}, "link": "/v3/places/5aa9491069e77b5f8b64713a", "location": {"address": "28 Gordon St", "admin_region": "Scotland", "country": "GB", "cross_street": "", "formatted_address": "28 Gordon St, Glasgow, Glasgow City, G1 3PW", "locality": "Glasgow", "post_town": "Glasgow", "postcode": "G1 3PW", "region": "Glasgow City"}, "name": "Tantrum Doughnuts", "related_places": {"children": []}, "timezone": "Europe/London"}, {"fsq_id": "4b8d5addf964a5209df632e3", "categories": [{"id": 13199, "name": "Indian Restaurant", "short_name": "Indian", "plural_name": "Indian Restaurants", "icon": {"prefix": "https://ss3.4sqi.net/img/categories_v2/food/indian_", "suffix": ".png"}}], "chains": [], "closed_bucket": "VeryLikelyOpen", "distance": 796, "geocodes": {"main": {"latitude": 55.857888, "longitude": -4.281346}, "roof": {"latitude": 55.857888, "longitude": -4.281346}}, "link": "/v3/places/4b8d5addf964a5209df632e3", "location": {"address": "181 Finnieston St", "admin_region": "Scotland", "country": "GB", "cross_street": "", "formatted_address": "181 Finnieston St, Glasgow, Glasgow City, G3 8HE", "locality": "Glasgow", "post_town": "Glasgow", "postcode": "G3 8HE", "region": "Glasgow City"}, "name": "India Quay", "related_places": {}, "timezone": "Europe/London"}, {"fsq_id": "58c980c433a245307737992d", "categories": [{"id": 13003, "name": "Bar", "short_name": "Bar", "plural_name": "Bars", "icon": {"prefix": "https://ss3.4sqi.net/img/categories_v2/nightlife/pub_", "suffix": ".png"}}], "chains": [], "closed_bucket": "VeryLikelyOpen", "distance": 726, "geocodes": {"drop_off": {"latitude": 55.860263, "longitude": -4.259283}, "main": {"latitude": 55.860359, "longitude": -4.259275}, "roof": {"latitude": 55.860359, "longitude": -4.259275}}, "link": "/v3/places/58c980c433a245307737992d", "location": {"address": "6-8 Waterloo St", "admin_region": "Scotland", "country": "GB", "cross_street": "", "formatted_address": "6-8 Waterloo St, Glasgow, G2 6DA", "locality": "Glasgow", "post_town": "Glasgow", "postcode": "G2 6DA"}, "name": "The Smoking Fox", "related_places": {}, "timezone": "Europe/London"}, {"fsq_id": "57b3526b498ef25faac11255", "categories": [{"id": 13177, "name": "Greek Restaurant", "short_name": "Greek", "plural_name": "Greek Restaurants", "icon": {"prefix": "https://ss3.4sqi.net/img/categories_v2/food/greek_", "suffix": ".png"}}], "chains": [], "closed_bucket": "LikelyOpen", "distance": 917, "geocodes": {"main": {"latitude": 55.862257, "longitude": -4.258316}, "roof": {"latitude": 55.862257, "longitude": -4.258316}}, "link": "/v3/places/57b3526b498ef25faac11255", "location": {"address": "161 Hope St", "admin_region": "Scotland", "country": "GB", "cross_street": "", "formatted_address": "161 Hope St, Glasgow, Glasgow City, G2 2UQ", "locality": "Glasgow", "post_town": "Glasgow", "postcode": "G2 2UQ", "region": "Glasgow City"}, "name": "Halloumi", "related_places": {}, "timezone": "Europe/London"}, {"fsq_id": "58037931d67cf45e38f69da8", "categories": [{"id": 13199, "name": "Indian Restaurant", "short_name": "Indian", "plural_name": "Indian Restaurants", "icon": {"prefix": "https://ss3.4sqi.net/img/categories_v2/food/indian_", "suffix": ".png"}}], "chains": [], "closed_bucket": "VeryLikelyOpen", "distance": 967, "geocodes": {"drop_off": {"latitude": 55.861395, "longitude": -4.255884}, "main": {"latitude": 55.861236, "longitude": -4.255903}, "roof": {"latitude": 55.861236, "longitude": -4.255903}}, "link": "/v3/places/58037931d67cf45e38f69da8", "location": {"address": "79 St Vincent St", "admin_region": "Scotland", "country": "GB", "cross_street": "", "formatted_address": "79 St Vincent St, Glasgow, Glasgow City, G2 5TF", "locality": "Glasgow", "post_town": "Glasgow", "postcode": "G2 5TF", "region": "Glasgow City"}, "name": "Chaakoo Bombay Cafe", "related_places": {}, "timezone": "Europe/London"}, {"fsq_id": "5180eb5a498e2b4ff6c7ab2f", "categories": [{"id": 13013, "name": "Hotel Bar", "short_name": "Hotel Bar", "plural_name": "Hotel Bars", "icon": {"prefix": "https://ss3.4sqi.net/img/categories_v2/travel/hotel_bar_", "suffix": ".png"}}], "chains": [], "closed_bucket": "VeryLikelyOpen", "distance": 568, "geocodes": {"main": {"latitude": 55.858813, "longitude": -4.260524}, "roof": {"latitude": 55.858813, "longitude": -4.260524}}, "link": "/v3/places/5180eb5a498e2b4ff6c7ab2f", "location": {"country": "GB", "cross_street": "", "formatted_address": ""}, "name": "The Atrium, Radisson Blu", "related_places": {"parent": {"fsq_id": "4b6385b5f964a5208f802ae3", "categories": [{"id": 19014, "name": "Hotel", "short_name": "Hotel", "plural_name": "Hotels", "icon": {"prefix": "https://ss3.4sqi.net/img/categories_v2/travel/hotel_", "suffix": ".png"}}], "name": "Radisson Blu Hotel, Glasgow"}}, "timezone": "Europe/London"}, {"fsq_id": "5de800781a9c7d0008fa7469", "categories": [{"id": 13236, "name": "Italian Restaurant", "short_name": "Italian", "plural_name": "Italian Restaurants", "icon": {"prefix": "https://ss3.4sqi.net/img/categories_v2/food/italian_", "suffix": ".png"}}], "chains": [], "closed_bucket": "Unsure", "distance": 896, "geocodes": {"drop_off": {"latitude": 55.859744, "longitude": -4.255787}, "main": {"latitude": 55.859725, "longitude": -4.255611}, "roof": {"latitude": 55.859725, "longitude": -4.255611}}, "link": "/v3/places/5de800781a9c7d0008fa7469", "location": {"address": "60-70 Mitchell St", "admin_region": "Scotland", "country": "GB", "cross_street": "Mitchell Lane", "formatted_address": "60-70 Mitchell St (Mitchell Lane), Glasgow, Glasgow City", "locality": "Glasgow", "post_town": "Glasgow", "region": "Glasgow City"}, "name": "Sugo", "related_places": {}, "timezone": "Europe/London"}, {"fsq_id": "4b925a6ef964a520f3f333e3", "categories": [{"id": 13338, "name": "Seafood Restaurant", "short_name": "Seafood", "plural_name": "Seafood Restaurants", "icon": {"prefix": "https://ss3.4sqi.net/img/categories_v2/food/seafood_", "suffix": ".png"}}], "chains": [], "closed_bucket": "VeryLikelyOpen", "distance": 844, "geocodes": {"main": {"latitude": 55.862739, "longitude": -4.260959}, "roof": {"latitude": 55.862739, "longitude": -4.260959}}, "link": "/v3/places/4b925a6ef964a520f3f333e3", "location": {"address": "225a West George St", "admin_region": "Scotland", "country": "GB", "cross_street": "", "formatted_address": "225a West George St, Glasgow, G2 2ND", "locality": "Glasgow", "post_town": "Glasgow", "postcode": "G2 2ND"}, "name": "Gamba", "related_places": {}, "timezone": "Europe/London"}, {"fsq_id": "4d1e398e6e8c3704d4cee49f", "categories": [{"id": 13009, "name": "Cocktail Bar", "short_name": "Cocktail", "plural_name": "Cocktail Bars", "icon": {"prefix": "https://ss3.4sqi.net/img/categories_v2/nightlife/cocktails_", "suffix": ".png"}}, {"id": 13352, "name": "Thai Restaurant", "short_name": "Thai", "plural_name": "Thai Restaurants", "icon": {"prefix": "https://ss3.4sqi.net/img/categories_v2/food/thai_", "suffix": ".png"}}], "chains": [], "closed_bucket": "LikelyOpen", "distance": 951, "geocodes": {"main": {"latitude": 55.864914, "longitude": -4.26439}, "roof": {"latitude": 55.864914, "longitude": -4.26439}}, "link": "/v3/places/4d1e398e6e8c3704d4cee49f", "location": {"address": "214 Bath St", "admin_region": "Scotland", "country": "GB", "formatted_address": "214 Bath St, Glasgow, Glasgow City, G2 4HW", "locality": "Glasgow", "post_town": "Glasgow", "postcode": "G2 4HW", "region": "Glasgow City"}, "name": "Tiki Bar & Kitsch Inn", "related_places": {}, "timezone": "Europe/London"}, {"fsq_id": "5371be2f498e5399f8fc2010", "categories": [{"id": 13034, "name": "Caf\u00e9", "short_name": "Caf\u00e9", "plural_name": "Caf\u00e9s", "icon": {"prefix": "https://ss3.4sqi.net/img/categories_v2/food/cafe_", "suffix": ".png"}}, {"id": 13035, "name": "Coffee Shop", "short_name": "Coffee Shop", "plural_name": "Coffee Shops", "icon": {"prefix": "https://ss3.4sqi.net/img/categories_v2/food/coffeeshop_", "suffix": ".png"}}, {"id": 13065, "name": "Restaurant", "short_name": "Restaurant", "plural_name": "Restaurants", "icon": {"prefix": "https://ss3.4sqi.net/img/categories_v2/food/default_", "suffix": ".png"}}], "chains": [], "closed_bucket": "Unsure", "distance": 821, "geocodes": {"main": {"latitude": 55.8604, "longitude": -4.257629}, "roof": {"latitude": 55.8604, "longitude": -4.257629}}, "link": "/v3/places/5371be2f498e5399f8fc2010", "location": {"address": "79 Gordon St", "admin_region": "Scotland", "country": "GB", "cross_street": "", "formatted_address": "79 Gordon St, Glasgow, Glasgow City, G1 3SQ", "locality": "Glasgow", "post_town": "Glasgow", "postcode": "G1 3SQ", "region": "Glasgow City"}, "name": "Gordon Street Coffee", "related_places": {}, "timezone": "Europe/London"}, {"fsq_id": "4b4df610f964a52050dc26e3", "categories": [{"id": 13007, "name": "Beer Garden", "short_name": "Beer Garden", "plural_name": "Beer Gardens", "icon": {"prefix": "https://ss3.4sqi.net/img/categories_v2/nightlife/beergarden_", "suffix": ".png"}}, {"id": 13018, "name": "Pub", "short_name": "Pub", "plural_name": "Pubs", "icon": {"prefix": "https://ss3.4sqi.net/img/categories_v2/nightlife/pub_", "suffix": ".png"}}, {"id": 13064, "name": "Pizzeria", "short_name": "Pizza", "plural_name": "Pizzerias", "icon": {"prefix": "https://ss3.4sqi.net/img/categories_v2/food/pizza_", "suffix": ".png"}}], "chains": [], "closed_bucket": "Unsure", "distance": 982, "geocodes": {"main": {"latitude": 55.860258, "longitude": -4.254576}, "roof": {"latitude": 55.860258, "longitude": -4.254576}}, "link": "/v3/places/4b4df610f964a52050dc26e3", "location": {"address": "9 Gordon St", "admin_region": "Scotland", "country": "GB", "cross_street": "", "formatted_address": "9 Gordon St, Glasgow, Glasgow City, G1 3PL", "locality": "Glasgow", "post_town": "Glasgow", "postcode": "G1 3PL", "region": "Glasgow City"}, "name": "Republic Bier Halle", "related_places": {}, "timezone": "Europe/London"}, {"fsq_id": "5644eccf498e44610759212b", "categories": [{"id": 13006, "name": "Beer Bar", "short_name": "Beer Bar", "plural_name": "Beer Bars", "icon": {"prefix": "https://ss3.4sqi.net/img/categories_v2/nightlife/pub_", "suffix": ".png"}}, {"id": 13065, "name": "Restaurant", "short_name": "Restaurant", "plural_name": "Restaurants", "icon": {"prefix": "https://ss3.4sqi.net/img/categories_v2/food/default_", "suffix": ".png"}}], "chains": [], "closed_bucket": "VeryLikelyOpen", "distance": 744, "geocodes": {"main": {"latitude": 55.861276, "longitude": -4.259828}, "roof": {"latitude": 55.861276, "longitude": -4.259828}}, "link": "/v3/places/5644eccf498e44610759212b", "location": {"address": "30 Bothwell St", "admin_region": "Scotland", "country": "GB", "cross_street": "", "formatted_address": "30 Bothwell St, Glasgow, Glasgow City, G2 6NU", "locality": "Glasgow", "post_town": "Glasgow", "postcode": "G2 6NU", "region": "Glasgow City"}, "name": "Bavaria Brauhaus", "related_places": {}, "timezone": "Europe/London"}, {"fsq_id": "57e32fed498e1b7a265a1ad2", "categories": [{"id": 13064, "name": "Pizzeria", "short_name": "Pizza", "plural_name": "Pizzerias", "icon": {"prefix": "https://ss3.4sqi.net/img/categories_v2/food/pizza_", "suffix": ".png"}}], "chains": [], "closed_bucket": "LikelyOpen", "distance": 966, "geocodes": {"main": {"latitude": 55.861503, "longitude": -4.255841}, "roof": {"latitude": 55.861503, "longitude": -4.255841}}, "link": "/v3/places/57e32fed498e1b7a265a1ad2", "location": {"address": "90 St Vincent St", "admin_region": "Scotland", "country": "GB", "cross_street": "", "formatted_address": "90 St Vincent St, Glasgow, G2 5UB", "locality": "Glasgow", "post_town": "Glasgow", "postcode": "G2 5UB"}, "name": "Pizza Punks", "related_places": {}, "timezone": "Europe/London"}, {"fsq_id": "4db2d7b65da3a76f441ad601", "categories": [{"id": 13034, "name": "Caf\u00e9", "short_name": "Caf\u00e9", "plural_name": "Caf\u00e9s", "icon": {"prefix": "https://ss3.4sqi.net/img/categories_v2/food/cafe_", "suffix": ".png"}}, {"id": 13036, "name": "Tea Room", "short_name": "Tea Room", "plural_name": "Tea Rooms", "icon": {"prefix": "https://ss3.4sqi.net/img/categories_v2/food/tearoom_", "suffix": ".png"}}, {"id": 13065, "name": "Restaurant", "short_name": "Restaurant", "plural_name": "Restaurants", "icon": {"prefix": "https://ss3.4sqi.net/img/categories_v2/food/default_", "suffix": ".png"}}], "chains": [], "closed_bucket": "Unsure", "distance": 984, "geocodes": {"main": {"latitude": 55.860052, "longitude": -4.2545}, "roof": {"latitude": 55.860052, "longitude": -4.2545}}, "link": "/v3/places/4db2d7b65da3a76f441ad601", "location": {"address": "97 Buchanan St", "admin_region": "Scotland", "country": "GB", "formatted_address": "97 Buchanan St, Glasgow, Glasgow City, G1 3HF", "locality": "Glasgow", "post_town": "Glasgow", "postcode": "G1 3HF", "region": "Glasgow City"}, "name": "Willow Tea Rooms", "related_places": {"children": []}, "timezone": "Europe/London"}, {"fsq_id": "5c02e01ad552c7002c2c58fc", "categories": [{"id": 13236, "name": "Italian Restaurant", "short_name": "Italian", "plural_name": "Italian Restaurants", "icon": {"prefix": "https://ss3.4sqi.net/img/categories_v2/food/italian_", "suffix": ".png"}}], "chains": [], "closed_bucket": "LikelyOpen", "distance": 922, "geocodes": {"drop_off": {"latitude": 55.86051, "longitude": -4.256066}, "main": {"latitude": 55.860648, "longitude": -4.25606}, "roof": {"latitude": 55.860648, "longitude": -4.25606}}, "link": "/v3/places/5c02e01ad552c7002c2c58fc", "location": {"address": "40 Gordon St", "admin_region": "Scotland", "country": "GB", "cross_street": "", "formatted_address": "40 Gordon St, Glasgow, Glasgow City, G1 3PU", "locality": "Glasgow", "post_town": "Glasgow", "postcode": "G1 3PU", "region": "Glasgow City"}, "name": "La Vita Spuntini", "related_places": {}, "timezone": "Europe/London"}, {"fsq_id": "4d41b2e94acd236a9f7cfca9", "categories": [{"id": 13051, "name": "Fish and Chips Shop", "short_name": "Fish and Chips Shop", "plural_name": "Fish and Chips Shops", "icon": {"prefix": "https://ss3.4sqi.net/img/categories_v2/food/fishandchips_", "suffix": ".png"}}, {"id": 13145, "name": "Fast Food Restaurant", "short_name": "Fast Food", "plural_name": "Fast Food Restaurants", "icon": {"prefix": "https://ss3.4sqi.net/img/categories_v2/food/fastfood_", "suffix": ".png"}}, {"id": 13352, "name": "Thai Restaurant", "short_name": "Thai", "plural_name": "Thai Restaurants", "icon": {"prefix": "https://ss3.4sqi.net/img/categories_v2/food/thai_", "suffix": ".png"}}], "chains": [], "closed_bucket": "Unsure", "distance": 695, "geocodes": {"main": {"latitude": 55.858587, "longitude": -4.25803}, "roof": {"latitude": 55.858587, "longitude": -4.25803}}, "link": "/v3/places/4d41b2e94acd236a9f7cfca9", "location": {"address": "208 Argyle St", "admin_region": "Scotland", "country": "GB", "formatted_address": "208 Argyle St, Glasgow, Glasgow City, G2 8HA", "locality": "Glasgow", "post_town": "Glasgow", "postcode": "G2 8HA", "region": "Glasgow City"}, "name": "Blue Lagoon", "related_places": {}, "timezone": "Europe/London"}, {"fsq_id": "596e6d68d48ec155ebe2eba6", "categories": [{"id": 13065, "name": "Restaurant", "short_name": "Restaurant", "plural_name": "Restaurants", "icon": {"prefix": "https://ss3.4sqi.net/img/categories_v2/food/default_", "suffix": ".png"}}], "chains": [], "closed_bucket": "VeryLikelyOpen", "distance": 395, "geocodes": {"main": {"latitude": 55.860033, "longitude": -4.268691}, "roof": {"latitude": 55.860033, "longitude": -4.268691}}, "link": "/v3/places/596e6d68d48ec155ebe2eba6", "location": {"address": "500 Argyle St", "admin_region": "Scotland", "country": "GB", "cross_street": "", "formatted_address": "500 Argyle St, Glasgow, Glasgow City, G3 8RR", "locality": "Glasgow", "post_town": "Glasgow", "postcode": "G3 8RR", "region": "Glasgow City"}, "name": "Cast Iron Grill", "related_places": {"parent": {"fsq_id": "4b76346af964a5201a432ee3", "categories": [{"id": 19014, "name": "Hotel", "short_name": "Hotel", "plural_name": "Hotels", "icon": {"prefix": "https://ss3.4sqi.net/img/categories_v2/travel/hotel_", "suffix": ".png"}}], "name": "Marriott Hotels & Resorts"}}, "timezone": "Europe/London"}, {"fsq_id": "5515b46c498edbb34c84b689", "categories": [{"id": 13030, "name": "Buffet", "short_name": "Buffet", "plural_name": "Buffets", "icon": {"prefix": "https://ss3.4sqi.net/img/categories_v2/food/default_", "suffix": ".png"}}], "chains": [], "closed_bucket": "VeryLikelyOpen", "distance": 387, "geocodes": {"main": {"latitude": 55.853525, "longitude": -4.27196}, "roof": {"latitude": 55.853525, "longitude": -4.27196}}, "link": "/v3/places/5515b46c498edbb34c84b689", "location": {"address": "251 Paisley Rd", "admin_region": "Scotland", "country": "GB", "cross_street": "", "formatted_address": "251 Paisley Rd, Glasgow, G5 8RA", "locality": "Glasgow", "post_town": "Glasgow", "postcode": "G5 8RA"}, "name": "Cook & Indi's World Buffet", "related_places": {}, "timezone": "Europe/London"}, {"fsq_id": "59298d15780eee6f1f6d4af3", "categories": [{"id": 13032, "name": "Cafe, Coffee, and Tea House", "short_name": "Cafe, Coffee, and Tea House", "plural_name": "Cafes, Coffee, and Tea Houses", "icon": {"prefix": "https://ss3.4sqi.net/img/categories_v2/food/coffeeshop_", "suffix": ".png"}}, {"id": 13043, "name": "Donut Shop", "short_name": "Donuts", "plural_name": "Donut Shops", "icon": {"prefix": "https://ss3.4sqi.net/img/categories_v2/food/donuts_", "suffix": ".png"}}, {"id": 13065, "name": "Restaurant", "short_name": "Restaurant", "plural_name": "Restaurants", "icon": {"prefix": "https://ss3.4sqi.net/img/categories_v2/food/default_", "suffix": ".png"}}], "chains": [{"id": "d5719cc0-d890-0132-61d3-7a163eb2a6fc", "name": "Tim Hortons"}], "closed_bucket": "VeryLikelyOpen", "distance": 777, "geocodes": {"drop_off": {"latitude": 55.858351, "longitude": -4.256985}, "main": {"latitude": 55.858489, "longitude": -4.256975}, "roof": {"latitude": 55.858489, "longitude": -4.256975}}, "link": "/v3/places/59298d15780eee6f1f6d4af3", "location": {"address": "184 Argyle St", "admin_region": "Scotland", "country": "GB", "cross_street": "", "formatted_address": "184 Argyle St, Glasgow, Glasgow City, G2 8HA", "locality": "Glasgow", "post_town": "Glasgow", "postcode": "G2 8HA", "region": "Glasgow City"}, "name": "Tim Hortons", "related_places": {}, "timezone": "Europe/London"}, {"fsq_id": "4b511ac5f964a520ad4227e3", "categories": [{"id": 13009, "name": "Cocktail Bar", "short_name": "Cocktail", "plural_name": "Cocktail Bars", "icon": {"prefix": "https://ss3.4sqi.net/img/categories_v2/nightlife/cocktails_", "suffix": ".png"}}, {"id": 13025, "name": "Wine Bar", "short_name": "Wine Bar", "plural_name": "Wine Bars", "icon": {"prefix": "https://ss3.4sqi.net/img/categories_v2/food/winery_", "suffix": ".png"}}], "chains": [], "closed_bucket": "LikelyOpen", "distance": 969, "geocodes": {"main": {"latitude": 55.862311, "longitude": -4.257372}, "roof": {"latitude": 55.862311, "longitude": -4.257372}}, "link": "/v3/places/4b511ac5f964a520ad4227e3", "location": {"address": "151 West George St", "admin_region": "Scotland", "country": "GB", "formatted_address": "151 West George St, Glasgow, Glasgow City, G2 2JJ", "locality": "Glasgow", "post_town": "Glasgow", "postcode": "G2 2JJ", "region": "Glasgow City"}, "name": "Blue Dog", "related_places": {}, "timezone": "Europe/London"}, {"fsq_id": "5660ab33498eb6bd97dbc68a", "categories": [{"id": 13003, "name": "Bar", "short_name": "Bar", "plural_name": "Bars", "icon": {"prefix": "https://ss3.4sqi.net/img/categories_v2/nightlife/pub_", "suffix": ".png"}}, {"id": 13337, "name": "Scottish Restaurant", "short_name": "Scottish", "plural_name": "Scottish Restaurants", "icon": {"prefix": "https://ss3.4sqi.net/img/categories_v2/food/default_", "suffix": ".png"}}, {"id": 13383, "name": "Steakhouse", "short_name": "Steakhouse", "plural_name": "Steakhouses", "icon": {"prefix": "https://ss3.4sqi.net/img/categories_v2/food/steakhouse_", "suffix": ".png"}}], "chains": [], "closed_bucket": "VeryLikelyOpen", "distance": 946, "geocodes": {"main": {"latitude": 55.865054, "longitude": -4.265621}, "roof": {"latitude": 55.865054, "longitude": -4.265621}}, "link": "/v3/places/5660ab33498eb6bd97dbc68a", "location": {"address": "244A Bath St", "admin_region": "Scotland", "country": "GB", "cross_street": "", "formatted_address": "244A Bath St, Glasgow, G2 4JW", "locality": "Glasgow", "post_town": "Glasgow", "postcode": "G2 4JW"}, "name": "Mini Grill", "related_places": {}, "timezone": "Europe/London"}, {"fsq_id": "4b856efdf964a5209b5d31e3", "categories": [{"id": 13018, "name": "Pub", "short_name": "Pub", "plural_name": "Pubs", "icon": {"prefix": "https://ss3.4sqi.net/img/categories_v2/nightlife/pub_", "suffix": ".png"}}, {"id": 13065, "name": "Restaurant", "short_name": "Restaurant", "plural_name": "Restaurants", "icon": {"prefix": "https://ss3.4sqi.net/img/categories_v2/food/default_", "suffix": ".png"}}], "chains": [], "closed_bucket": "Unsure", "distance": 934, "geocodes": {"main": {"latitude": 55.861358, "longitude": -4.256537}, "roof": {"latitude": 55.861358, "longitude": -4.256537}}, "link": "/v3/places/4b856efdf964a5209b5d31e3", "location": {"address": "91 St. Vincent St", "admin_region": "Scotland", "country": "GB", "formatted_address": "91 St. Vincent St, Glasgow, Glasgow City, G2 5TF", "locality": "Glasgow", "post_town": "Glasgow", "postcode": "G2 5TF", "region": "Glasgow City"}, "name": "Drum & Monkey", "related_places": {}, "timezone": "Europe/London"}, {"fsq_id": "5851b284d21e030e684bcabc", "categories": [{"id": 13135, "name": "Cuban Restaurant", "short_name": "Cuban", "plural_name": "Cuban Restaurants", "icon": {"prefix": "https://ss3.4sqi.net/img/categories_v2/food/cuban_", "suffix": ".png"}}, {"id": 13009, "name": "Cocktail Bar", "short_name": "Cocktail", "plural_name": "Cocktail Bars", "icon": {"prefix": "https://ss3.4sqi.net/img/categories_v2/nightlife/cocktails_", "suffix": ".png"}}], "chains": [], "closed_bucket": "VeryLikelyOpen", "distance": 960, "geocodes": {"main": {"latitude": 55.861843, "longitude": -4.256342}, "roof": {"latitude": 55.861843, "longitude": -4.256342}}, "link": "/v3/places/5851b284d21e030e684bcabc", "location": {"address": "36 Renfield St", "admin_region": "Scotland", "country": "GB", "cross_street": "", "formatted_address": "36 Renfield St, Glasgow, Glasgow City, G2 1LU", "locality": "Glasgow", "post_town": "Glasgow", "postcode": "G2 1LU", "region": "Glasgow City"}, "name": "Revoluci\u00f3n de Cuba Glasgow", "related_places": {}, "timezone": "Europe/London"}, {"fsq_id": "4b64b2d3f964a52043c92ae3", "categories": [{"id": 13018, "name": "Pub", "short_name": "Pub", "plural_name": "Pubs", "icon": {"prefix": "https://ss3.4sqi.net/img/categories_v2/nightlife/pub_", "suffix": ".png"}}, {"id": 13145, "name": "Fast Food Restaurant", "short_name": "Fast Food", "plural_name": "Fast Food Restaurants", "icon": {"prefix": "https://ss3.4sqi.net/img/categories_v2/food/fastfood_", "suffix": ".png"}}], "chains": [], "closed_bucket": "VeryLikelyOpen", "distance": 961, "geocodes": {"main": {"latitude": 55.858304, "longitude": -4.253746}, "roof": {"latitude": 55.858304, "longitude": -4.253746}}, "link": "/v3/places/4b64b2d3f964a52043c92ae3", "location": {"address": "62 Argyll Arcade", "address_extended": "Unit 62", "admin_region": "Scotland", "country": "GB", "cross_street": "108 Argyle St", "formatted_address": "62 Argyll Arcade (108 Argyle St), Glasgow, Glasgow City, G2 8BG", "locality": "Glasgow", "post_town": "Glasgow", "postcode": "G2 8BG", "region": "Glasgow City"}, "name": "Sloans", "related_places": {"parent": {"fsq_id": "4c2308289a67a5932f75dd87", "categories": [{"id": 17115, "name": "Shopping Plaza", "short_name": "Shopping Plaza", "plural_name": "Shopping Plazas", "icon": {"prefix": "https://ss3.4sqi.net/img/categories_v2/shops/mall_", "suffix": ".png"}}], "name": "Argyll Arcade"}}, "timezone": "Europe/London"}, {"fsq_id": "4b0e7c03f964a520e65723e3", "categories": [{"id": 13314, "name": "New American Restaurant", "short_name": "New American", "plural_name": "New American Restaurants", "icon": {"prefix": "https://ss3.4sqi.net/img/categories_v2/food/newamerican_", "suffix": ".png"}}], "chains": [], "closed_bucket": "Unsure", "distance": 1001, "geocodes": {"drop_off": {"latitude": 55.861124, "longitude": -4.253798}, "main": {"latitude": 55.860476, "longitude": -4.254443}, "roof": {"latitude": 55.860476, "longitude": -4.254443}}, "link": "/v3/places/4b0e7c03f964a520e65723e3", "location": {"address": "113 Buchanan St", "admin_region": "Scotland", "country": "GB", "cross_street": "Gordon St", "formatted_address": "113 Buchanan St (Gordon St), Glasgow, Glasgow City, G1 3HF", "locality": "Glasgow", "post_town": "Glasgow", "postcode": "G1 3HF", "region": "Glasgow City"}, "name": "TGI Fridays", "related_places": {}, "timezone": "Europe/London"}, {"fsq_id": "4c1f634c920076b0f4a3c4e9", "categories": [{"id": 13018, "name": "Pub", "short_name": "Pub", "plural_name": "Pubs", "icon": {"prefix": "https://ss3.4sqi.net/img/categories_v2/nightlife/pub_", "suffix": ".png"}}], "chains": [], "closed_bucket": "LikelyOpen", "distance": 846, "geocodes": {"main": {"latitude": 55.856685, "longitude": -4.255344}, "roof": {"latitude": 55.856685, "longitude": -4.255344}}, "link": "/v3/places/4c1f634c920076b0f4a3c4e9", "location": {"address": "40 Howard St", "admin_region": "Scotland", "country": "GB", "formatted_address": "40 Howard St, Glasgow, G1 4EE", "locality": "Glasgow", "post_town": "Glasgow", "postcode": "G1 4EE"}, "name": "Hootenanny", "related_places": {}, "timezone": "Europe/London"}, {"fsq_id": "4b894198f964a520602632e3", "categories": [{"id": 13018, "name": "Pub", "short_name": "Pub", "plural_name": "Pubs", "icon": {"prefix": "https://ss3.4sqi.net/img/categories_v2/nightlife/pub_", "suffix": ".png"}}, {"id": 13057, "name": "Gastropub", "short_name": "Gastropub", "plural_name": "Gastropubs", "icon": {"prefix": "https://ss3.4sqi.net/img/categories_v2/food/gastropub_", "suffix": ".png"}}], "chains": [{"id": "07841cd9-3716-4bd6-8ebd-ad13070b3125", "name": "J D Wetherspoon"}], "closed_bucket": "VeryLikelyOpen", "distance": 598, "geocodes": {"main": {"latitude": 55.858831, "longitude": -4.260209}, "roof": {"latitude": 55.858831, "longitude": -4.260209}}, "link": "/v3/places/4b894198f964a520602632e3", "location": {"address": "260-292 Argyle St", "admin_region": "Scotland", "country": "GB", "formatted_address": "260-292 Argyle St, Glasgow, Glasgow City, G2 8QW", "locality": "Glasgow", "post_town": "Glasgow", "postcode": "G2 8QW", "region": "Glasgow City"}, "name": "The Sir John Moore", "related_places": {}, "timezone": "Europe/London"}, {"fsq_id": "57c9a370498e646cd0826aa1", "categories": [{"id": 13003, "name": "Bar", "short_name": "Bar", "plural_name": "Bars", "icon": {"prefix": "https://ss3.4sqi.net/img/categories_v2/nightlife/pub_", "suffix": ".png"}}, {"id": 13055, "name": "Fried Chicken Joint", "short_name": "Fried Chicken", "plural_name": "Fried Chicken Joints", "icon": {"prefix": "https://ss3.4sqi.net/img/categories_v2/food/friedchicken_", "suffix": ".png"}}], "chains": [], "closed_bucket": "LikelyOpen", "distance": 945, "geocodes": {"main": {"latitude": 55.863345, "longitude": -4.259576}, "roof": {"latitude": 55.863345, "longitude": -4.259576}}, "link": "/v3/places/57c9a370498e646cd0826aa1", "location": {"address": "111 West Regent St", "admin_region": "Scotland", "country": "GB", "cross_street": "", "formatted_address": "111 West Regent St, Glasgow, Glasgow City, G2 2RU", "locality": "Glasgow", "post_town": "Glasgow", "postcode": "G2 2RU", "region": "Glasgow City"}, "name": "Buck's Bar", "related_places": {}, "timezone": "Europe/London"}, {"fsq_id": "53776f4d498e2945af514bd4", "categories": [{"id": 13314, "name": "New American Restaurant", "short_name": "New American", "plural_name": "New American Restaurants", "icon": {"prefix": "https://ss3.4sqi.net/img/categories_v2/food/newamerican_", "suffix": ".png"}}, {"id": 13317, "name": "Persian Restaurant", "short_name": "Persian", "plural_name": "Persian Restaurants", "icon": {"prefix": "https://ss3.4sqi.net/img/categories_v2/food/middleeastern_", "suffix": ".png"}}], "chains": [], "closed_bucket": "VeryLikelyOpen", "distance": 433, "geocodes": {"main": {"latitude": 55.853483, "longitude": -4.264391}, "roof": {"latitude": 55.853483, "longitude": -4.264391}}, "link": "/v3/places/53776f4d498e2945af514bd4", "location": {"address": "146-148 Nelson St", "admin_region": "Scotland", "country": "GB", "cross_street": "", "formatted_address": "146-148 Nelson St, Glasgow", "locality": "Glasgow", "post_town": "Glasgow"}, "name": "Sholeh Persian Restaurant", "related_places": {}, "timezone": "Europe/London"}, {"fsq_id": "4c87ab04821e9eb0f6cc8d89", "categories": [{"id": 13018, "name": "Pub", "short_name": "Pub", "plural_name": "Pubs", "icon": {"prefix": "https://ss3.4sqi.net/img/categories_v2/nightlife/pub_", "suffix": ".png"}}, {"id": 13065, "name": "Restaurant", "short_name": "Restaurant", "plural_name": "Restaurants", "icon": {"prefix": "https://ss3.4sqi.net/img/categories_v2/food/default_", "suffix": ".png"}}], "chains": [{"id": "07841cd9-3716-4bd6-8ebd-ad13070b3125", "name": "J D Wetherspoon"}], "closed_bucket": "Unsure", "distance": 742, "geocodes": {"main": {"latitude": 55.857567, "longitude": -4.257438}, "roof": {"latitude": 55.857567, "longitude": -4.257438}}, "link": "/v3/places/4c87ab04821e9eb0f6cc8d89", "location": {"address": "36 Jamaica St", "admin_region": "Scotland", "country": "GB", "formatted_address": "36 Jamaica St, Glasgow, Glasgow City, G1 4QD", "locality": "Glasgow", "post_town": "Glasgow", "postcode": "G1 4QD", "region": "Glasgow City"}, "name": "The Crystal Palace", "related_places": {}, "timezone": "Europe/London"}, {"fsq_id": "4bd818635cf276b06e6e9c00", "categories": [{"id": 13039, "name": "Deli", "short_name": "Deli", "plural_name": "Delis", "icon": {"prefix": "https://ss3.4sqi.net/img/categories_v2/food/deli_", "suffix": ".png"}}, {"id": 13145, "name": "Fast Food Restaurant", "short_name": "Fast Food", "plural_name": "Fast Food Restaurants", "icon": {"prefix": "https://ss3.4sqi.net/img/categories_v2/food/fastfood_", "suffix": ".png"}}, {"id": 13334, "name": "Sandwich Spot", "short_name": "Sandwich Spot", "plural_name": "Sandwich Spots", "icon": {"prefix": "https://ss3.4sqi.net/img/categories_v2/food/deli_", "suffix": ".png"}}], "chains": [{"id": "ab4bee40-d68a-012e-5619-003048cad9da", "name": "Subway"}], "closed_bucket": "VeryLikelyOpen", "distance": 832, "geocodes": {"main": {"latitude": 55.860206, "longitude": -4.257343}, "roof": {"latitude": 55.860206, "longitude": -4.257343}}, "link": "/v3/places/4bd818635cf276b06e6e9c00", "location": {"address": "107 Union St", "admin_region": "Scotland", "country": "GB", "formatted_address": "107 Union St, Glasgow, G1 3TA", "locality": "Glasgow", "post_town": "Glasgow", "postcode": "G1 3TA"}, "name": "Subway", "related_places": {}, "timezone": "Europe/London"}, {"fsq_id": "4e27e9bc091a1ba18da85029", "categories": [{"id": 13013, "name": "Hotel Bar", "short_name": "Hotel Bar", "plural_name": "Hotel Bars", "icon": {"prefix": "https://ss3.4sqi.net/img/categories_v2/travel/hotel_bar_", "suffix": ".png"}}], "chains": [], "closed_bucket": "VeryLikelyOpen", "distance": 555, "geocodes": {"main": {"latitude": 55.861526, "longitude": -4.268386}, "roof": {"latitude": 55.861526, "longitude": -4.268386}}, "link": "/v3/places/4e27e9bc091a1ba18da85029", "location": {"address": "1 William St", "admin_region": "Scotland", "country": "GB", "formatted_address": "1 William St, Glasgow, Glasgow City, G3 8HT", "locality": "Glasgow", "post_town": "Glasgow", "postcode": "G3 8HT", "region": "Glasgow City"}, "name": "Hilton Glasgow - Executive Lounge", "related_places": {}, "timezone": "Europe/London"}, {"fsq_id": "4ba3d156f964a520c76238e3", "categories": [{"id": 13003, "name": "Bar", "short_name": "Bar", "plural_name": "Bars", "icon": {"prefix": "https://ss3.4sqi.net/img/categories_v2/nightlife/pub_", "suffix": ".png"}}, {"id": 13049, "name": "Diner", "short_name": "Diner", "plural_name": "Diners", "icon": {"prefix": "https://ss3.4sqi.net/img/categories_v2/food/diner_", "suffix": ".png"}}], "chains": [], "closed_bucket": "LikelyOpen", "distance": 841, "geocodes": {"main": {"latitude": 55.857183, "longitude": -4.25585}, "roof": {"latitude": 55.857183, "longitude": -4.25585}}, "link": "/v3/places/4ba3d156f964a520c76238e3", "location": {"address": "46-48 St. Enoch Square", "admin_region": "Scotland", "country": "GB", "formatted_address": "46-48 St. Enoch Square, Glasgow, Glasgow City, G1 4DH", "locality": "Glasgow", "post_town": "Glasgow", "postcode": "G1 4DH", "region": "Glasgow City"}, "name": "Times Square", "related_places": {}, "timezone": "Europe/London"}, {"fsq_id": "4bc6b4a3bf29c9b6fb41fa2a", "categories": [{"id": 13145, "name": "Fast Food Restaurant", "short_name": "Fast Food", "plural_name": "Fast Food Restaurants", "icon": {"prefix": "https://ss3.4sqi.net/img/categories_v2/food/fastfood_", "suffix": ".png"}}, {"id": 13334, "name": "Sandwich Spot", "short_name": "Sandwich Spot", "plural_name": "Sandwich Spots", "icon": {"prefix": "https://ss3.4sqi.net/img/categories_v2/food/deli_", "suffix": ".png"}}], "chains": [{"id": "2fcf0650-9c63-0132-6632-3c15c2dde6c8", "name": "Pret a Manger"}], "closed_bucket": "VeryLikelyOpen", "distance": 942, "geocodes": {"main": {"latitude": 55.860325, "longitude": -4.255244}, "roof": {"latitude": 55.860325, "longitude": -4.255244}}, "link": "/v3/places/4bc6b4a3bf29c9b6fb41fa2a", "location": {"address": "27 Gordon St", "admin_region": "Scotland", "country": "GB", "formatted_address": "27 Gordon St, Glasgow, Glasgow City, G1 3PL", "locality": "Glasgow", "post_town": "Glasgow", "postcode": "G1 3PL", "region": "Glasgow City"}, "name": "Pret a Manger", "related_places": {}, "timezone": "Europe/London"}, {"fsq_id": "4b6cb584f964a520104e2ce3", "categories": [{"id": 13051, "name": "Fish and Chips Shop", "short_name": "Fish and Chips Shop", "plural_name": "Fish and Chips Shops", "icon": {"prefix": "https://ss3.4sqi.net/img/categories_v2/food/fishandchips_", "suffix": ".png"}}, {"id": 13145, "name": "Fast Food Restaurant", "short_name": "Fast Food", "plural_name": "Fast Food Restaurants", "icon": {"prefix": "https://ss3.4sqi.net/img/categories_v2/food/fastfood_", "suffix": ".png"}}, {"id": 13338, "name": "Seafood Restaurant", "short_name": "Seafood", "plural_name": "Seafood Restaurants", "icon": {"prefix": "https://ss3.4sqi.net/img/categories_v2/food/seafood_", "suffix": ".png"}}], "chains": [], "closed_bucket": "LikelyOpen", "distance": 856, "geocodes": {"main": {"latitude": 55.86037, "longitude": -4.257243}, "roof": {"latitude": 55.86037, "longitude": -4.257243}}, "link": "/v3/places/4b6cb584f964a520104e2ce3", "location": {"address": "Gordon St", "admin_region": "Scotland", "country": "GB", "cross_street": "", "formatted_address": "Gordon St, Glasgow, Glasgow City, G1 3SL", "locality": "Glasgow", "post_town": "Glasgow", "postcode": "G1 3SL", "region": "Glasgow City"}, "name": "Blue Lagoon", "related_places": {}, "timezone": "Europe/London"}, {"fsq_id": "4ec5648a99112324370bb043", "categories": [{"id": 13006, "name": "Beer Bar", "short_name": "Beer Bar", "plural_name": "Beer Bars", "icon": {"prefix": "https://ss3.4sqi.net/img/categories_v2/nightlife/pub_", "suffix": ".png"}}, {"id": 13022, "name": "Sports Bar", "short_name": "Sports Bar", "plural_name": "Sports Bars", "icon": {"prefix": "https://ss3.4sqi.net/img/categories_v2/nightlife/sportsbar_", "suffix": ".png"}}, {"id": 13065, "name": "Restaurant", "short_name": "Restaurant", "plural_name": "Restaurants", "icon": {"prefix": "https://ss3.4sqi.net/img/categories_v2/food/default_", "suffix": ".png"}}], "chains": [], "closed_bucket": "VeryLikelyOpen", "distance": 723, "geocodes": {"main": {"latitude": 55.856681, "longitude": -4.257271}, "roof": {"latitude": 55.856681, "longitude": -4.257271}}, "link": "/v3/places/4ec5648a99112324370bb043", "location": {"address": "77 Jamaica St", "admin_region": "Scotland", "country": "GB", "formatted_address": "77 Jamaica St, Glasgow, G1 4NN", "locality": "Glasgow", "post_town": "Glasgow", "postcode": "G1 4NN"}, "name": "Mint & Lime", "related_places": {"parent": {"fsq_id": "4bc783b893bdeee1537837ae", "categories": [{"id": 19013, "name": "Hostel", "short_name": "Hostel", "plural_name": "Hostels", "icon": {"prefix": "https://ss3.4sqi.net/img/categories_v2/travel/hostel_", "suffix": ".png"}}, {"id": 19014, "name": "Hotel", "short_name": "Hotel", "plural_name": "Hotels", "icon": {"prefix": "https://ss3.4sqi.net/img/categories_v2/travel/hotel_", "suffix": ".png"}}], "name": "Euro Hostel Glasgow"}}, "timezone": "Europe/London"}, {"fsq_id": "4bf6d6a613aed13aeb4aeaf7", "categories": [{"id": 13018, "name": "Pub", "short_name": "Pub", "plural_name": "Pubs", "icon": {"prefix": "https://ss3.4sqi.net/img/categories_v2/nightlife/pub_", "suffix": ".png"}}, {"id": 13065, "name": "Restaurant", "short_name": "Restaurant", "plural_name": "Restaurants", "icon": {"prefix": "https://ss3.4sqi.net/img/categories_v2/food/default_", "suffix": ".png"}}], "chains": [{"id": "07841cd9-3716-4bd6-8ebd-ad13070b3125", "name": "J D Wetherspoon"}], "closed_bucket": "Unsure", "distance": 976, "geocodes": {"main": {"latitude": 55.862317, "longitude": -4.257267}, "roof": {"latitude": 55.862317, "longitude": -4.257267}}, "link": "/v3/places/4bf6d6a613aed13aeb4aeaf7", "location": {"address": "151 West George St", "admin_region": "Scotland", "country": "GB", "formatted_address": "151 West George St, Glasgow, Glasgow City, G2 2JJ", "locality": "Glasgow", "post_town": "Glasgow", "postcode": "G2 2JJ", "region": "Glasgow City"}, "name": "The Society Room (Wetherspoon)", "related_places": {}, "timezone": "Europe/London"}, {"fsq_id": "4bebee7362c0c928e5a5e2d4", "categories": [{"id": 13031, "name": "Burger Joint", "short_name": "Burgers", "plural_name": "Burger Joints", "icon": {"prefix": "https://ss3.4sqi.net/img/categories_v2/food/burger_", "suffix": ".png"}}, {"id": 13145, "name": "Fast Food Restaurant", "short_name": "Fast Food", "plural_name": "Fast Food Restaurants", "icon": {"prefix": "https://ss3.4sqi.net/img/categories_v2/food/fastfood_", "suffix": ".png"}}], "chains": [{"id": "ab4a3530-d68a-012e-5619-003048cad9da", "name": "McDonald's"}], "closed_bucket": "VeryLikelyOpen", "distance": 972, "geocodes": {"main": {"latitude": 55.862645, "longitude": -4.280161}, "roof": {"latitude": 55.862645, "longitude": -4.280161}}, "link": "/v3/places/4bebee7362c0c928e5a5e2d4", "location": {"address": "The Clydeway Centre Skypark", "admin_region": "Scotland", "country": "GB", "cross_street": "at Finnieston St.", "formatted_address": "The Clydeway Centre Skypark (at Finnieston St.), Glasgow, Glasgow City, G3 8JU", "locality": "Glasgow", "post_town": "Glasgow", "postcode": "G3 8JU", "region": "Glasgow City"}, "name": "McDonald's", "related_places": {}, "timezone": "Europe/London"}, {"fsq_id": "620a9876779d115bc147d7cf", "categories": [{"id": 13036, "name": "Tea Room", "short_name": "Tea Room", "plural_name": "Tea Rooms", "icon": {"prefix": "https://ss3.4sqi.net/img/categories_v2/food/tearoom_", "suffix": ".png"}}, {"id": 13199, "name": "Indian Restaurant", "short_name": "Indian", "plural_name": "Indian Restaurants", "icon": {"prefix": "https://ss3.4sqi.net/img/categories_v2/food/indian_", "suffix": ".png"}}], "chains": [], "closed_bucket": "LikelyOpen", "distance": 463, "geocodes": {"main": {"latitude": 55.855147, "longitude": -4.274918}, "roof": {"latitude": 55.855147, "longitude": -4.274918}}, "link": "/v3/places/620a9876779d115bc147d7cf", "location": {"address": "Unit D2, Springfield Quay, Paisley Rd", "admin_region": "Scotland", "country": "GB", "cross_street": "", "formatted_address": "Unit D2, Springfield Quay, Paisley Rd, Glasgow, Glasgow City, G5 8NP", "locality": "Glasgow", "post_town": "Glasgow", "postcode": "G5 8NP", "region": "Glasgow City"}, "name": "Chaiiwala", "related_places": {}, "timezone": "Europe/London"}, {"fsq_id": "5aada5cddee770732c3ce4aa", "categories": [{"id": 13013, "name": "Hotel Bar", "short_name": "Hotel Bar", "plural_name": "Hotel Bars", "icon": {"prefix": "https://ss3.4sqi.net/img/categories_v2/travel/hotel_bar_", "suffix": ".png"}}], "chains": [], "closed_bucket": "VeryLikelyOpen", "distance": 538, "geocodes": {"main": {"latitude": 55.861423, "longitude": -4.269259}, "roof": {"latitude": 55.861423, "longitude": -4.269259}}, "link": "/v3/places/5aada5cddee770732c3ce4aa", "location": {"admin_region": "Scotland", "country": "GB", "cross_street": "", "formatted_address": "Glasgow, Glasgow City, G3 8HT", "locality": "Glasgow", "post_town": "Glasgow", "postcode": "G3 8HT", "region": "Glasgow City"}, "name": "Whisky Mist", "related_places": {"parent": {"fsq_id": "4b705970f964a5207c142de3", "categories": [{"id": 19014, "name": "Hotel", "short_name": "Hotel", "plural_name": "Hotels", "icon": {"prefix": "https://ss3.4sqi.net/img/categories_v2/travel/hotel_", "suffix": ".png"}}], "name": "Hilton Glasgow"}}, "timezone": "Europe/London"}, {"fsq_id": "55f9de65498ec7b66169d8a6", "categories": [{"id": 10000, "name": "Arts and Entertainment", "short_name": "Arts & Entertainment", "plural_name": "Arts and Entertainment", "icon": {"prefix": "https://ss3.4sqi.net/img/categories_v2/arts_entertainment/default_", "suffix": ".png"}}, {"id": 13003, "name": "Bar", "short_name": "Bar", "plural_name": "Bars", "icon": {"prefix": "https://ss3.4sqi.net/img/categories_v2/nightlife/pub_", "suffix": ".png"}}, {"id": 13057, "name": "Gastropub", "short_name": "Gastropub", "plural_name": "Gastropubs", "icon": {"prefix": "https://ss3.4sqi.net/img/categories_v2/food/gastropub_", "suffix": ".png"}}], "chains": [], "closed_bucket": "VeryLikelyOpen", "distance": 670, "geocodes": {"main": {"latitude": 55.860245, "longitude": -4.260358}, "roof": {"latitude": 55.860245, "longitude": -4.260358}}, "link": "/v3/places/55f9de65498ec7b66169d8a6", "location": {"address": "29 Waterloo St", "admin_region": "Scotland", "country": "GB", "cross_street": "", "formatted_address": "29 Waterloo St, Glasgow, G2 6BZ", "locality": "Glasgow", "post_town": "Glasgow", "postcode": "G2 6BZ"}, "name": "The Admiral Woods", "related_places": {}, "timezone": "Europe/London"}, {"fsq_id": "4e468dca62e148603b735d92", "categories": [{"id": 13003, "name": "Bar", "short_name": "Bar", "plural_name": "Bars", "icon": {"prefix": "https://ss3.4sqi.net/img/categories_v2/nightlife/pub_", "suffix": ".png"}}], "chains": [], "closed_bucket": "VeryLikelyOpen", "distance": 672, "geocodes": {"main": {"latitude": 55.85359, "longitude": -4.278199}, "roof": {"latitude": 55.85359, "longitude": -4.278199}}, "link": "/v3/places/4e468dca62e148603b735d92", "location": {"country": "GB", "cross_street": "", "formatted_address": "Glasgow, Glasgow City", "locality": "Glasgow", "post_town": "Glasgow", "region": "Glasgow City"}, "name": "The Angel Bar", "related_places": {}, "timezone": "Europe/London"}, {"fsq_id": "5e5d68cb6f5546000826e6c1", "categories": [{"id": 13191, "name": "Halal Restaurant", "short_name": "Halal", "plural_name": "Halal Restaurants", "icon": {"prefix": "https://ss3.4sqi.net/img/categories_v2/food/halal_", "suffix": ".png"}}], "chains": [], "closed_bucket": "VeryLikelyOpen", "distance": 708, "geocodes": {"main": {"latitude": 55.853909, "longitude": -4.258763}, "roof": {"latitude": 55.853909, "longitude": -4.258763}}, "link": "/v3/places/5e5d68cb6f5546000826e6c1", "location": {"admin_region": "Scotland", "country": "GB", "cross_street": "", "formatted_address": "Glasgow, Glasgow City, G5 9HR", "locality": "Glasgow", "post_town": "Glasgow", "postcode": "G5 9HR", "region": "Glasgow City"}, "name": "Palmtree Kitchen", "related_places": {}, "timezone": "Europe/London"}], "context": {"geo_bounds": {"circle": {"center": {"latitude": 55.85658, "longitude": -4.26887}, "radius": 1000}}}}