{"results": [{"fsq_id": "5286115d498ec9fe4a6399e1", "categories": [{"id": 13003, "name": "Bar", "short_name": "Bar", "plural_name": "Bars", "icon": {"prefix": "https://ss3.4sqi.net/img/categories_v2/nightlife/pub_", "suffix": ".png"}}], "chains": [], "closed_bucket": "VeryLikelyOpen", "distance": 561, "geocodes": {"main": {"latitude": 55.899976, "longitude": -4.34937}, "roof": {"latitude": 55.899976, "longitude": -4.34937}}, "link": "/v3/places/5286115d498ec9fe4a6399e1", "location": {"address": "2131 Great Western Rd", "admin_region": "Scotland", "country": "GB", "cross_street": "", "formatted_address": "2131 Great Western Rd, Glasgow, G13 2XX", "locality": "Glasgow", "post_town": "Glasgow", "postcode": "G13 2XX"}, "name": "Lincoln Inn", "related_places": {}, "timezone": "Europe/London"}, {"fsq_id": "accbb81ab6624a405753c4a2", "categories": [{"id": 13003, "name": "Bar", "short_name": "Bar", "plural_name": "Bars", "icon": {"prefix": "https://ss3.4sqi.net/img/categories_v2/nightlife/pub_", "suffix": ".png"}}], "chains": [], "closed_bucket": "Unsure", "distance": 565, "geocodes": {"main": {"latitude": 55.89946, "longitude": -4.348266}, "roof": {"latitude": 55.89946, "longitude": -4.348266}}, "link": "/v3/places/accbb81ab6624a405753c4a2", "location": {"address": "2131 Great Western Rd", "admin_region": "Scotland", "country": "GB", "formatted_address": "2131 Great Western Rd, Glasgow, Glasgow City, G13 2XX", "locality": "Glasgow", "post_town": "Glasgow", "postcode": "G13 2XX", "region": "Glasgow City"}, "name": "Urban Pub Company", "related_places": {}, "timezone": "Europe/London"}, {"fsq_id": "5a74f7530868a223468c857a", "categories": [{"id": 13145, "name": "Fast Food Restaurant", "short_name": "Fast Food", "plural_name": "Fast Food Restaurants", "icon": {"prefix": "https://ss3.4sqi.net/img/categories_v2/food/fastfood_", "suffix": ".png"}}, {"id": 13199, "name": "Indian Restaurant", "short_name": "Indian", "plural_name": "Indian Restaurants", "icon": {"prefix": "https://ss3.4sqi.net/img/categories_v2/food/indian_", "suffix": ".png"}}], "chains": [], "closed_bucket": "VeryLikelyOpen", "distance": 575, "geocodes": {"main": {"latitude": 55.900061, "longitude": -4.349724}, "roof": {"latitude": 55.900061, "longitude": -4.349724}}, "link": "/v3/places/5a74f7530868a223468c857a", "location": {"address": "2139 Great Western Rd", "admin_region": "Scotland", "country": "GB", "cross_street": "", "formatted_address": "2139 Great Western Rd, Glasgow, Glasgow City, G13 2XX", "locality": "Glasgow", "post_town": "Glasgow", "postcode": "G13 2XX", "region": "Glasgow City"}, "name": "Freddies Food Club", "related_places": {}, "timezone": "Europe/London"}, {"fsq_id": "5d2119266d22da002362806d", "categories": [{"id": 13099, "name": "Chinese Restaurant", "short_name": "Chinese", "plural_name": "Chinese Restaurants", "icon": {"prefix": "https://ss3.4sqi.net/img/categories_v2/food/asian_", "suffix": ".png"}}, {"id": 13145, "name": "Fast Food Restaurant", "short_name": "Fast Food", "plural_name": "Fast Food Restaurants", "icon": {"prefix": "https://ss3.4sqi.net/img/categories_v2/food/fastfood_", "suffix": ".png"}}], "chains": [], "closed_bucket": "LikelyOpen", "distance": 620, "geocodes": {"main": {"latitude": 55.89052, "longitude": -4.358081}, "roof": {"latitude": 55.89052, "longitude": -4.358081}}, "link": "/v3/places/5d2119266d22da002362806d", "location": {"address": "247 Alderman Rd", "admin_region": "Scotland", "country": "GB", "cross_street": "", "formatted_address": "247 Alderman Rd, Glasgow, Glasgow City, G13 3AY", "locality": "Glasgow", "post_town": "Glasgow", "postcode": "G13 3AY", "region": "Glasgow City"}, "name": "Knightswood Chinese Takeaway", "related_places": {}, "timezone": "Europe/London"}, {"fsq_id": "a14cde36f7b2dcc6c897a4a9", "categories": [{"id": 13145, "name": "Fast Food Restaurant", "short_name": "Fast Food", "plural_name": "Fast Food Restaurants", "icon": {"prefix": "https://ss3.4sqi.net/img/categories_v2/food/fastfood_", "suffix": ".png"}}, {"id": 13199, "name": "Indian Restaurant", "short_name": "Indian", "plural_name": "Indian Restaurants", "icon": {"prefix": "https://ss3.4sqi.net/img/categories_v2/food/indian_", "suffix": ".png"}}], "chains": [], "closed_bucket": "VeryLikelyOpen", "distance": 719, "geocodes": {"drop_off": {"latitude": 55.890254, "longitude": -4.359708}, "main": {"latitude": 55.890107, "longitude": -4.359752}, "roof": {"latitude": 55.890107, "longitude": -4.359752}}, "link": "/v3/places/a14cde36f7b2dcc6c897a4a9", "location": {"address": "53 Killoch Dr", "country": "GB", "formatted_address": "53 Killoch Dr, Glasgow, Glasgow City", "locality": "Glasgow", "post_town": "Glasgow", "region": "Glasgow City"}, "name": "Papa Ali Takeaway", "related_places": {}, "timezone": "Europe/London"}, {"fsq_id": "1f21d2624218420bf600e853", "categories": [{"id": 13065, "name": "Restaurant", "short_name": "Restaurant", "plural_name": "Restaurants", "icon": {"prefix": "https://ss3.4sqi.net/img/categories_v2/food/default_", "suffix": ".png"}}], "chains": [], "closed_bucket": "VeryLikelyOpen", "distance": 747, "geocodes": {"main": {"latitude": 55.901598, "longitude": -4.361459}, "roof": {"latitude": 55.901598, "longitude": -4.361459}}, "link": "/v3/places/1f21d2624218420bf600e853", "location": {"address": "15 Moraine Ave", "admin_region": "Scotland", "country": "GB", "formatted_address": "15 Moraine Ave, Glasgow, G15 6HD", "locality": "Glasgow", "post_town": "Glasgow", "postcode": "G15 6HD"}, "name": "Wok Star Chinese Takeaway", "related_places": {}, "timezone": "Europe/London"}, {"fsq_id": "504d807be4b050eb2b06e3a4", "categories": [{"id": 13099, "name": "Chinese Restaurant", "short_name": "Chinese", "plural_name": "Chinese Restaurants", "icon": {"prefix": "https://ss3.4sqi.net/img/categories_v2/food/asian_", "suffix": ".png"}}], "chains": [], "closed_bucket": "VeryLikelyOpen", "distance": 751, "geocodes": {"main": {"latitude": 55.889251, "longitude": -4.355409}, "roof": {"latitude": 55.889251, "longitude": -4.355409}}, "link": "/v3/places/504d807be4b050eb2b06e3a4", "location": {"country": "GB", "cross_street": "", "formatted_address": ""}, "name": "Manchurian Restaurant", "related_places": {}, "timezone": "Europe/London"}, {"fsq_id": "502be8dbe4b040ca227fbdb0", "categories": [{"id": 13051, "name": "Fish and Chips Shop", "short_name": "Fish and Chips Shop", "plural_name": "Fish and Chips Shops", "icon": {"prefix": "https://ss3.4sqi.net/img/categories_v2/food/fishandchips_", "suffix": ".png"}}], "chains": [], "closed_bucket": "LikelyOpen", "distance": 868, "geocodes": {"main": {"latitude": 55.890217, "longitude": -4.364247}, "roof": {"latitude": 55.890217, "longitude": -4.364247}}, "link": "/v3/places/502be8dbe4b040ca227fbdb0", "location": {"address": "253 Alderman Rd", "admin_region": "Scotland", "country": "GB", "cross_street": "", "formatted_address": "253 Alderman Rd, Glasgow, Glasgow City", "locality": "Glasgow", "post_town": "Glasgow", "region": "Glasgow City"}, "name": "Mario's", "related_places": {}, "timezone": "Europe/London"}, {"fsq_id": "5b58b512492814002c927ffc", "categories": [{"id": 13099, "name": "Chinese Restaurant", "short_name": "Chinese", "plural_name": "Chinese Restaurants", "icon": {"prefix": "https://ss3.4sqi.net/img/categories_v2/food/asian_", "suffix": ".png"}}], "chains": [], "closed_bucket": "LikelyOpen", "distance": 870, "geocodes": {"drop_off": {"latitude": 55.903441, "longitude": -4.351584}, "main": {"latitude": 55.903634, "longitude": -4.351699}, "roof": {"latitude": 55.903634, "longitude": -4.351699}}, "link": "/v3/places/5b58b512492814002c927ffc", "location": {"address": "300 Rotherwood Ave", "admin_region": "Scotland", "country": "GB", "cross_street": "", "formatted_address": "300 Rotherwood Ave, Glasgow, Glasgow City, G13 2AY", "locality": "Glasgow", "post_town": "Glasgow", "postcode": "G13 2AY", "region": "Glasgow City"}, "name": "Ho\u2019s Chinese", "related_places": {}, "timezone": "Europe/London"}, {"fsq_id": "5159ceebe4b02bc22a86c0bf", "categories": [{"id": 13145, "name": "Fast Food Restaurant", "short_name": "Fast Food", "plural_name": "Fast Food Restaurants", "icon": {"prefix": "https://ss3.4sqi.net/img/categories_v2/food/fastfood_", "suffix": ".png"}}, {"id": 13199, "name": "Indian Restaurant", "short_name": "Indian", "plural_name": "Indian Restaurants", "icon": {"prefix": "https://ss3.4sqi.net/img/categories_v2/food/indian_", "suffix": ".png"}}], "chains": [], "closed_bucket": "VeryLikelyOpen", "distance": 890, "geocodes": {"main": {"latitude": 55.90378, "longitude": -4.352826}, "roof": {"latitude": 55.90378, "longitude": -4.352826}}, "link": "/v3/places/5159ceebe4b02bc22a86c0bf", "location": {"address": "477 Blairdardie Rd", "admin_region": "Scotland", "country": "GB", "cross_street": "", "formatted_address": "477 Blairdardie Rd, Glasgow, G15 6JP", "locality": "Glasgow", "post_town": "Glasgow", "postcode": "G15 6JP"}, "name": "Little India", "related_places": {}, "timezone": "Europe/London"}, {"fsq_id": "a02588b06db2420e55d7272c", "categories": [{"id": 13051, "name": "Fish and Chips Shop", "short_name": "Fish and Chips Shop", "plural_name": "Fish and Chips Shops", "icon": {"prefix": "https://ss3.4sqi.net/img/categories_v2/food/fishandchips_", "suffix": ".png"}}, {"id": 13145, "name": "Fast Food Restaurant", "short_name": "Fast Food", "plural_name": "Fast Food Restaurants", "icon": {"prefix": "https://ss3.4sqi.net/img/categories_v2/food/fastfood_", "suffix": ".png"}}, {"id": 13334, "name": "Sandwich Spot", "short_name": "Sandwich Spot", "plural_name": "Sandwich Spots", "icon": {"prefix": "https://ss3.4sqi.net/img/categories_v2/food/deli_", "suffix": ".png"}}], "chains": [], "closed_bucket": "Unsure", "distance": 637, "geocodes": {"main": {"latitude": 55.890562, "longitude": -4.358258}, "roof": {"latitude": 55.890562, "longitude": -4.358258}}, "link": "/v3/places/a02588b06db2420e55d7272c", "location": {"address": "253 Alderman Rd", "admin_region": "Scotland", "country": "GB", "formatted_address": "253 Alderman Rd, Glasgow, G13 3AY", "locality": "Glasgow", "post_town": "Glasgow", "postcode": "G13 3AY"}, "name": "Marios Fast Foods", "related_places": {}}], "context": {"geo_bounds": {"circle": {"center": {"latitude": 55.895974, "longitude": -4.354877}, "radius": 1000}}}}