{"results": [{"fsq_id": "4bb7a8451261d13a09a7e798", "categories": [{"id": 13024, "name": "Whisky Bar", "short_name": "Whisky Bar", "plural_name": "Whisky Bars", "icon": {"prefix": "https://ss3.4sqi.net/img/categories_v2/nightlife/whiskey_", "suffix": ".png"}}, {"id": 13025, "name": "Wine Bar", "short_name": "Wine Bar", "plural_name": "Wine Bars", "icon": {"prefix": "https://ss3.4sqi.net/img/categories_v2/food/winery_", "suffix": ".png"}}, {"id": 13065, "name": "Restaurant", "short_name": "Restaurant", "plural_name": "Restaurants", "icon": {"prefix": "https://ss3.4sqi.net/img/categories_v2/food/default_", "suffix": ".png"}}], "chains": [], "closed_bucket": "Unsure", "distance": 911, "geocodes": {"main": {"latitude": 55.862979, "longitude": -4.257673}, "roof": {"latitude": 55.862979, "longitude": -4.257673}}, "link": "/v3/places/4bb7a8451261d13a09a7e798", "location": {"address": "154 Hope St", "admin_region": "Scotland", "country": "GB", "cross_street": "W Regent St", "formatted_address": "154 Hope St (W Regent St), Glasgow, Glasgow City, G2 2TH", "locality": "Glasgow", "post_town": "Glasgow", "postcode": "G2 2TH", "region": "Glasgow City"}, "name": "The Pot Still", "related_places": {}, "timezone": "Europe/London"}, {"fsq_id": "4b1fe8d7f964a520a32a24e3", "categories": [{"id": 13003, "name": "Bar", "short_name": "Bar", "plural_name": "Bars", "icon": {"prefix": "https://ss3.4sqi.net/img/categories_v2/nightlife/pub_", "suffix": ".png"}}, {"id": 13057, "name": "Gastropub", "short_name": "Gastropub", "plural_name": "Gastropubs", "icon": {"prefix": "https://ss3.4sqi.net/img/categories_v2/food/gastropub_", "suffix": ".png"}}], "chains": [], "closed_bucket": "Unsure", "distance": 735, "geocodes": {"main": {"latitude": 55.864262, "longitude": -4.261041}, "roof": {"latitude": 55.864262, "longitude": -4.261041}}, "link": "/v3/places/4b1fe8d7f964a520a32a24e3", "location": {"address": "153 Bath St", "admin_region": "Scotland", "country": "GB", "formatted_address": "153 Bath St, Glasgow, Glasgow City, G2 4SQ", "locality": "Glasgow", "post_town": "Glasgow", "postcode": "G2 4SQ", "region": "Glasgow City"}, "name": "The Butterfly & the Pig", "related_places": {}, "timezone": "Europe/London"}, {"fsq_id": "4b27e8ecf964a520268c24e3", "categories": [{"id": 10039, "name": "Music Venue", "short_name": "Music Venue", "plural_name": "Music Venues", "icon": {"prefix": "https://ss3.4sqi.net/img/categories_v2/arts_entertainment/musicvenue_", "suffix": ".png"}}, {"id": 13025, "name": "Wine Bar", "short_name": "Wine Bar", "plural_name": "Wine Bars", "icon": {"prefix": "https://ss3.4sqi.net/img/categories_v2/food/winery_", "suffix": ".png"}}, {"id": 13065, "name": "Restaurant", "short_name": "Restaurant", "plural_name": "Restaurants", "icon": {"prefix": "https://ss3.4sqi.net/img/categories_v2/food/default_", "suffix": ".png"}}], "chains": [], "closed_bucket": "Unsure", "distance": 1001, "geocodes": {"main": {"latitude": 55.862627, "longitude": -4.264775}, "roof": {"latitude": 55.862627, "longitude": -4.264775}}, "link": "/v3/places/4b27e8ecf964a520268c24e3", "location": {"address": "272a St Vincent St", "admin_region": "Scotland", "country": "GB", "formatted_address": "272a St Vincent St, Glasgow, Glasgow City, G2 5RL", "locality": "Glasgow", "post_town": "Glasgow", "postcode": "G2 5RL", "region": "Glasgow City"}, "name": "King Tut's Wah Wah Hut", "related_places": {}, "timezone": "Europe/London"}, {"fsq_id": "51a5f43f498e79ac73e0febc", "categories": [{"id": 13065, "name": "Restaurant", "short_name": "Restaurant", "plural_name": "Restaurants", "icon": {"prefix": "https://ss3.4sqi.net/img/categories_v2/food/default_", "suffix": ".png"}}, {"id": 13003, "name": "Bar", "short_name": "Bar", "plural_name": "Bars", "icon": {"prefix": "https://ss3.4sqi.net/img/categories_v2/nightlife/pub_", "suffix": ".png"}}], "chains": [], "closed_bucket": "Unsure", "distance": 824, "geocodes": {"main": {"latitude": 55.86363, "longitude": -4.26011}, "roof": {"latitude": 55.86363, "longitude": -4.26011}}, "link": "/v3/places/51a5f43f498e79ac73e0febc", "location": {"address": "142 West Regent St", "admin_region": "Scotland", "country": "GB", "formatted_address": "142 West Regent St, Glasgow, G2 2RQ", "locality": "Glasgow", "post_town": "Glasgow", "postcode": "G2 2RQ"}, "name": "Meat Bar", "related_places": {}, "timezone": "Europe/London"}, {"fsq_id": "57b3526b498ef25faac11255", "categories": [{"id": 13177, "name": "Greek Restaurant", "short_name": "Greek", "plural_name": "Greek Restaurants", "icon": {"prefix": "https://ss3.4sqi.net/img/categories_v2/food/greek_", "suffix": ".png"}}], "chains": [], "closed_bucket": "LikelyOpen", "distance": 987, "geocodes": {"main": {"latitude": 55.862257, "longitude": -4.258316}, "roof": {"latitude": 55.862257, "longitude": -4.258316}}, "link": "/v3/places/57b3526b498ef25faac11255", "location": {"address": "161 Hope St", "admin_region": "Scotland", "country": "GB", "cross_street": "", "formatted_address": "161 Hope St, Glasgow, Glasgow City, G2 2UQ", "locality": "Glasgow", "post_town": "Glasgow", "postcode": "G2 2UQ", "region": "Glasgow City"}, "name": "Halloumi", "related_places": {}, "timezone": "Europe/London"}, {"fsq_id": "536e50f2498e80034a00e575", "categories": [{"id": 10000, "name": "Arts and Entertainment", "short_name": "Arts & Entertainment", "plural_name": "Arts and Entertainment", "icon": {"prefix": "https://ss3.4sqi.net/img/categories_v2/arts_entertainment/default_", "suffix": ".png"}}, {"id": 13018, "name": "Pub", "short_name": "Pub", "plural_name": "Pubs", "icon": {"prefix": "https://ss3.4sqi.net/img/categories_v2/nightlife/pub_", "suffix": ".png"}}, {"id": 13065, "name": "Restaurant", "short_name": "Restaurant", "plural_name": "Restaurants", "icon": {"prefix": "https://ss3.4sqi.net/img/categories_v2/food/default_", "suffix": ".png"}}], "chains": [], "closed_bucket": "VeryLikelyOpen", "distance": 742, "geocodes": {"main": {"latitude": 55.864532, "longitude": -4.25814}, "roof": {"latitude": 55.864532, "longitude": -4.25814}}, "link": "/v3/places/536e50f2498e80034a00e575", "location": {"address": "57-59 Sauchiehall Lane", "admin_region": "Scotland", "country": "GB", "cross_street": "", "formatted_address": "57-59 Sauchiehall Lane, Glasgow, G2 4AB", "locality": "Glasgow", "post_town": "Glasgow", "postcode": "G2 4AB"}, "name": "Malones Irish Bar", "related_places": {}, "timezone": "Europe/London"}, {"fsq_id": "5b3ce578bed48300393b04e7", "categories": [{"id": 13065, "name": "Restaurant", "short_name": "Restaurant", "plural_name": "Restaurants", "icon": {"prefix": "https://ss3.4sqi.net/img/categories_v2/food/default_", "suffix": ".png"}}], "chains": [], "closed_bucket": "VeryLikelyOpen", "distance": 652, "geocodes": {"drop_off": {"latitude": 55.865139, "longitude": -4.26108}, "main": {"latitude": 55.864996, "longitude": -4.261098}, "roof": {"latitude": 55.864996, "longitude": -4.261098}}, "link": "/v3/places/5b3ce578bed48300393b04e7", "location": {"address": "217 Sauchiehall St", "admin_region": "Scotland", "country": "GB", "cross_street": "", "formatted_address": "217 Sauchiehall St, Glasgow, Glasgow City, G2 3EX", "locality": "Glasgow", "post_town": "Glasgow", "postcode": "G2 3EX", "region": "Glasgow City"}, "name": "Mackintosh at the Willow", "related_places": {}, "timezone": "Europe/London"}, {"fsq_id": "4b925a6ef964a520f3f333e3", "categories": [{"id": 13338, "name": "Seafood Restaurant", "short_name": "Seafood", "plural_name": "Seafood Restaurants", "icon": {"prefix": "https://ss3.4sqi.net/img/categories_v2/food/seafood_", "suffix": ".png"}}], "chains": [], "closed_bucket": "VeryLikelyOpen", "distance": 910, "geocodes": {"main": {"latitude": 55.862739, "longitude": -4.260959}, "roof": {"latitude": 55.862739, "longitude": -4.260959}}, "link": "/v3/places/4b925a6ef964a520f3f333e3", "location": {"address": "225a West George St", "admin_region": "Scotland", "country": "GB", "cross_street": "", "formatted_address": "225a West George St, Glasgow, G2 2ND", "locality": "Glasgow", "post_town": "Glasgow", "postcode": "G2 2ND"}, "name": "Gamba", "related_places": {}, "timezone": "Europe/London"}, {"fsq_id": "4d1e398e6e8c3704d4cee49f", "categories": [{"id": 13009, "name": "Cocktail Bar", "short_name": "Cocktail", "plural_name": "Cocktail Bars", "icon": {"prefix": "https://ss3.4sqi.net/img/categories_v2/nightlife/cocktails_", "suffix": ".png"}}, {"id": 13352, "name": "Thai Restaurant", "short_name": "Thai", "plural_name": "Thai Restaurants", "icon": {"prefix": "https://ss3.4sqi.net/img/categories_v2/food/thai_", "suffix": ".png"}}], "chains": [], "closed_bucket": "LikelyOpen", "distance": 735, "geocodes": {"main": {"latitude": 55.864914, "longitude": -4.26439}, "roof": {"latitude": 55.864914, "longitude": -4.26439}}, "link": "/v3/places/4d1e398e6e8c3704d4cee49f", "location": {"address": "214 Bath St", "admin_region": "Scotland", "country": "GB", "formatted_address": "214 Bath St, Glasgow, Glasgow City, G2 4HW", "locality": "Glasgow", "post_town": "Glasgow", "postcode": "G2 4HW", "region": "Glasgow City"}, "name": "Tiki Bar & Kitsch Inn", "related_places": {}, "timezone": "Europe/London"}, {"fsq_id": "53220210498e48f21ce03d27", "categories": [{"id": 13018, "name": "Pub", "short_name": "Pub", "plural_name": "Pubs", "icon": {"prefix": "https://ss3.4sqi.net/img/categories_v2/nightlife/pub_", "suffix": ".png"}}, {"id": 10041, "name": "Rock Club", "short_name": "Rock Club", "plural_name": "Rock Clubs", "icon": {"prefix": "https://ss3.4sqi.net/img/categories_v2/arts_entertainment/musicvenue_rockclub_", "suffix": ".png"}}], "chains": [], "closed_bucket": "LikelyOpen", "distance": 787, "geocodes": {"drop_off": {"latitude": 55.864044, "longitude": -4.258178}, "main": {"latitude": 55.864162, "longitude": -4.258164}, "roof": {"latitude": 55.864162, "longitude": -4.258164}}, "link": "/v3/places/53220210498e48f21ce03d27", "location": {"address": "100 Bath St", "admin_region": "Scotland", "country": "GB", "cross_street": "", "formatted_address": "100 Bath St, Glasgow, Glasgow City, G2 2EN", "locality": "Glasgow", "post_town": "Glasgow", "postcode": "G2 2EN", "region": "Glasgow City"}, "name": "The Howlin' Wolf", "related_places": {}, "timezone": "Europe/London"}, {"fsq_id": "4b2bc508f964a52095ba24e3", "categories": [{"id": 10032, "name": "Night Club", "short_name": "Night Club", "plural_name": "Night Clubs", "icon": {"prefix": "https://ss3.4sqi.net/img/categories_v2/nightlife/nightclub_", "suffix": ".png"}}, {"id": 13003, "name": "Bar", "short_name": "Bar", "plural_name": "Bars", "icon": {"prefix": "https://ss3.4sqi.net/img/categories_v2/nightlife/pub_", "suffix": ".png"}}, {"id": 13065, "name": "Restaurant", "short_name": "Restaurant", "plural_name": "Restaurants", "icon": {"prefix": "https://ss3.4sqi.net/img/categories_v2/food/default_", "suffix": ".png"}}], "chains": [], "closed_bucket": "Unsure", "distance": 765, "geocodes": {"main": {"latitude": 55.865913, "longitude": -4.269046}, "roof": {"latitude": 55.865913, "longitude": -4.269046}}, "link": "/v3/places/4b2bc508f964a52095ba24e3", "location": {"address": "421 Sauchiehall St", "admin_region": "Scotland", "country": "GB", "formatted_address": "421 Sauchiehall St, Glasgow, G2 3LG", "locality": "Glasgow", "post_town": "Glasgow", "postcode": "G2 3LG"}, "name": "Nice N Sleazy", "related_places": {"children": []}, "timezone": "Europe/London"}, {"fsq_id": "5595668c498e02153643a82f", "categories": [{"id": 13018, "name": "Pub", "short_name": "Pub", "plural_name": "Pubs", "icon": {"prefix": "https://ss3.4sqi.net/img/categories_v2/nightlife/pub_", "suffix": ".png"}}, {"id": 13065, "name": "Restaurant", "short_name": "Restaurant", "plural_name": "Restaurants", "icon": {"prefix": "https://ss3.4sqi.net/img/categories_v2/food/default_", "suffix": ".png"}}], "chains": [], "closed_bucket": "LikelyOpen", "distance": 759, "geocodes": {"main": {"latitude": 55.8722, "longitude": -4.272393}, "roof": {"latitude": 55.8722, "longitude": -4.272393}}, "link": "/v3/places/5595668c498e02153643a82f", "location": {"address": "Great Western Rd 171", "admin_region": "Scotland", "country": "GB", "cross_street": "", "formatted_address": "Great Western Rd 171, Glasgow, Glasgow City, G4 9AW", "locality": "Glasgow", "post_town": "Glasgow", "postcode": "G4 9AW", "region": "Glasgow City"}, "name": "The Hug and Pint", "related_places": {}, "timezone": "Europe/London"}, {"fsq_id": "5c86ae8b356b49002ceb208d", "categories": [{"id": 13145, "name": "Fast Food Restaurant", "short_name": "Fast Food", "plural_name": "Fast Food Restaurants", "icon": {"prefix": "https://ss3.4sqi.net/img/categories_v2/food/fastfood_", "suffix": ".png"}}, {"id": 13360, "name": "Doner Restaurant", "short_name": "Doner", "plural_name": "Doner Restaurants", "icon": {"prefix": "https://ss3.4sqi.net/img/categories_v2/food/turkish_", "suffix": ".png"}}], "chains": [], "closed_bucket": "VeryLikelyOpen", "distance": 947, "geocodes": {"drop_off": {"latitude": 55.862837, "longitude": -4.256197}, "main": {"latitude": 55.862759, "longitude": -4.255984}, "roof": {"latitude": 55.862759, "longitude": -4.255984}}, "link": "/v3/places/5c86ae8b356b49002ceb208d", "location": {"address": "52-56 Renfield St", "admin_region": "Scotland", "country": "GB", "cross_street": "", "formatted_address": "52-56 Renfield St, Glasgow, Glasgow City, G2 1NF", "locality": "Glasgow", "post_town": "Glasgow", "postcode": "G2 1NF", "region": "Glasgow City"}, "name": "German Doner Kebab", "related_places": {}, "timezone": "Europe/London"}, {"fsq_id": "5308d0cf498ed47c6be2359f", "categories": [{"id": 13065, "name": "Restaurant", "short_name": "Restaurant", "plural_name": "Restaurants", "icon": {"prefix": "https://ss3.4sqi.net/img/categories_v2/food/default_", "suffix": ".png"}}], "chains": [{"id": "2fceefe0-9c63-0132-6632-3c15c2dde6c8", "name": "Nando's"}], "closed_bucket": "VeryLikelyOpen", "distance": 663, "geocodes": {"main": {"latitude": 55.865258, "longitude": -4.262963}, "roof": {"latitude": 55.865258, "longitude": -4.262963}}, "link": "/v3/places/5308d0cf498ed47c6be2359f", "location": {"address": "263 Sauchiehall St", "admin_region": "Scotland", "country": "GB", "cross_street": "", "formatted_address": "263 Sauchiehall St, Glasgow, Glasgow City, G2 3EZ", "locality": "Glasgow", "post_town": "Glasgow", "postcode": "G2 3EZ", "region": "Glasgow City"}, "name": "Nando's", "related_places": {}, "timezone": "Europe/London"}, {"fsq_id": "4bc0841cf8219c7407a4b110", "categories": [{"id": 13025, "name": "Wine Bar", "short_name": "Wine Bar", "plural_name": "Wine Bars", "icon": {"prefix": "https://ss3.4sqi.net/img/categories_v2/food/winery_", "suffix": ".png"}}, {"id": 13065, "name": "Restaurant", "short_name": "Restaurant", "plural_name": "Restaurants", "icon": {"prefix": "https://ss3.4sqi.net/img/categories_v2/food/default_", "suffix": ".png"}}], "chains": [], "closed_bucket": "Unsure", "distance": 768, "geocodes": {"drop_off": {"latitude": 55.86418, "longitude": -4.259336}, "main": {"latitude": 55.864042, "longitude": -4.259352}, "roof": {"latitude": 55.864042, "longitude": -4.259352}}, "link": "/v3/places/4bc0841cf8219c7407a4b110", "location": {"address": "117 Bath St", "admin_region": "Scotland", "country": "GB", "formatted_address": "117 Bath St, Glasgow, Glasgow City, G2 2SZ", "locality": "Glasgow", "post_town": "Glasgow", "postcode": "G2 2SZ", "region": "Glasgow City"}, "name": "Bloc", "related_places": {}, "timezone": "Europe/London"}, {"fsq_id": "59ef5c4a464d6574847a3e51", "categories": [{"id": 13068, "name": "American Restaurant", "short_name": "American", "plural_name": "American Restaurants", "icon": {"prefix": "https://ss3.4sqi.net/img/categories_v2/food/default_", "suffix": ".png"}}, {"id": 13145, "name": "Fast Food Restaurant", "short_name": "Fast Food", "plural_name": "Fast Food Restaurants", "icon": {"prefix": "https://ss3.4sqi.net/img/categories_v2/food/fastfood_", "suffix": ".png"}}, {"id": 13306, "name": "Taco Restaurant", "short_name": "Tacos", "plural_name": "Taco Restaurants", "icon": {"prefix": "https://ss3.4sqi.net/img/categories_v2/food/taco_", "suffix": ".png"}}], "chains": [], "closed_bucket": "LikelyOpen", "distance": 662, "geocodes": {"drop_off": {"latitude": 55.865116, "longitude": -4.262344}, "main": {"latitude": 55.865137, "longitude": -4.262329}, "roof": {"latitude": 55.865137, "longitude": -4.262329}}, "link": "/v3/places/59ef5c4a464d6574847a3e51", "location": {"address": "245 Sauchiehall St", "admin_region": "Scotland", "country": "GB", "cross_street": "", "formatted_address": "245 Sauchiehall St, Glasgow, Glasgow City, G2 3EZ", "locality": "Glasgow", "post_town": "Glasgow", "postcode": "G2 3EZ", "region": "Glasgow City"}, "name": "Taco Bell", "related_places": {}, "timezone": "Europe/London"}, {"fsq_id": "5978ce654b78c544a43aedc7", "categories": [{"id": 13024, "name": "Whisky Bar", "short_name": "Whisky Bar", "plural_name": "Whisky Bars", "icon": {"prefix": "https://ss3.4sqi.net/img/categories_v2/nightlife/whiskey_", "suffix": ".png"}}, {"id": 13337, "name": "Scottish Restaurant", "short_name": "Scottish", "plural_name": "Scottish Restaurants", "icon": {"prefix": "https://ss3.4sqi.net/img/categories_v2/food/default_", "suffix": ".png"}}], "chains": [], "closed_bucket": "LikelyOpen", "distance": 573, "geocodes": {"drop_off": {"latitude": 55.866425, "longitude": -4.256584}, "main": {"latitude": 55.866503, "longitude": -4.256834}, "roof": {"latitude": 55.866503, "longitude": -4.256834}}, "link": "/v3/places/5978ce654b78c544a43aedc7", "location": {"address": "325 Hope St", "admin_region": "Scotland", "country": "GB", "cross_street": "", "formatted_address": "325 Hope St, Glasgow, Glasgow City, G2 3PT", "locality": "Glasgow", "post_town": "Glasgow", "postcode": "G2 3PT", "region": "Glasgow City"}, "name": "Ardnamurchan", "related_places": {}, "timezone": "Europe/London"}, {"fsq_id": "513b8a7ee4b06b29ffe1c862", "categories": [{"id": 13199, "name": "Indian Restaurant", "short_name": "Indian", "plural_name": "Indian Restaurants", "icon": {"prefix": "https://ss3.4sqi.net/img/categories_v2/food/indian_", "suffix": ".png"}}], "chains": [], "closed_bucket": "VeryLikelyOpen", "distance": 820, "geocodes": {"drop_off": {"latitude": 55.863891, "longitude": -4.256875}, "main": {"latitude": 55.863761, "longitude": -4.25689}, "roof": {"latitude": 55.863761, "longitude": -4.25689}}, "link": "/v3/places/513b8a7ee4b06b29ffe1c862", "location": {"address": "61 Bath St", "admin_region": "Scotland", "country": "GB", "cross_street": "", "formatted_address": "61 Bath St, Glasgow, Glasgow City, G2 2DG", "locality": "Glasgow", "post_town": "Glasgow", "postcode": "G2 2DG", "region": "Glasgow City"}, "name": "Rishi's Indian Aroma", "related_places": {}, "timezone": "Europe/London"}, {"fsq_id": "4bf1216817880f4768f12937", "categories": [{"id": 13236, "name": "Italian Restaurant", "short_name": "Italian", "plural_name": "Italian Restaurants", "icon": {"prefix": "https://ss3.4sqi.net/img/categories_v2/food/italian_", "suffix": ".png"}}], "chains": [], "closed_bucket": "VeryLikelyOpen", "distance": 780, "geocodes": {"drop_off": {"latitude": 55.864046, "longitude": -4.259521}, "main": {"latitude": 55.864036, "longitude": -4.259457}, "roof": {"latitude": 55.864036, "longitude": -4.259457}}, "link": "/v3/places/4bf1216817880f4768f12937", "location": {"address": "121 Bath St", "admin_region": "Scotland", "country": "GB", "formatted_address": "121 Bath St, Glasgow, Glasgow City, G2 2SZ", "locality": "Glasgow", "post_town": "Glasgow", "postcode": "G2 2SZ", "region": "Glasgow City"}, "name": "Sarti", "related_places": {}, "timezone": "Europe/London"}, {"fsq_id": "4bab4addf964a5204f9e3ae3", "categories": [{"id": 13102, "name": "Cantonese Restaurant", "short_name": "Cantonese", "plural_name": "Cantonese Restaurants", "icon": {"prefix": "https://ss3.4sqi.net/img/categories_v2/food/asian_", "suffix": ".png"}}, {"id": 13106, "name": "Dim Sum Restaurant", "short_name": "Dim Sum", "plural_name": "Dim Sum Restaurants", "icon": {"prefix": "https://ss3.4sqi.net/img/categories_v2/food/dimsum_", "suffix": ".png"}}], "chains": [], "closed_bucket": "VeryLikelyOpen", "distance": 915, "geocodes": {"main": {"latitude": 55.878664, "longitude": -4.255065}, "roof": {"latitude": 55.878664, "longitude": -4.255065}}, "link": "/v3/places/4bab4addf964a5204f9e3ae3", "location": {"address": "The Point, 29 Saracen St", "address_extended": "Unit 7", "admin_region": "Scotland", "country": "GB", "cross_street": "Saracen St at Possil Rd", "formatted_address": "The Point, 29 Saracen St (Saracen St at Possil Rd), Glasgow, Glasgow City, G22 5HT", "locality": "Glasgow", "post_town": "Glasgow", "postcode": "G22 5HT", "region": "Glasgow City"}, "name": "See Woo Restaurant", "related_places": {}, "timezone": "Europe/London"}, {"fsq_id": "574ae9f9498ec64084369fa2", "categories": [{"id": 13002, "name": "Bakery", "short_name": "Bakery", "plural_name": "Bakeries", "icon": {"prefix": "https://ss3.4sqi.net/img/categories_v2/food/bakery_", "suffix": ".png"}}, {"id": 13027, "name": "Bistro", "short_name": "Bistro", "plural_name": "Bistros", "icon": {"prefix": "https://ss3.4sqi.net/img/categories_v2/food/default_", "suffix": ".png"}}], "chains": [], "closed_bucket": "LikelyOpen", "distance": 807, "geocodes": {"drop_off": {"latitude": 55.863466, "longitude": -4.259636}, "main": {"latitude": 55.863605, "longitude": -4.259619}, "roof": {"latitude": 55.863605, "longitude": -4.259619}}, "link": "/v3/places/574ae9f9498ec64084369fa2", "location": {"address": "130 West Regent St", "admin_region": "Scotland", "country": "GB", "cross_street": "", "formatted_address": "130 West Regent St, Glasgow, Glasgow City, G2 2RQ", "locality": "Glasgow", "post_town": "Glasgow", "postcode": "G2 2RQ", "region": "Glasgow City"}, "name": "Kcal Kitchen", "related_places": {}, "timezone": "Europe/London"}, {"fsq_id": "4c2f3cf866e40f47117fc18b", "categories": [{"id": 13003, "name": "Bar", "short_name": "Bar", "plural_name": "Bars", "icon": {"prefix": "https://ss3.4sqi.net/img/categories_v2/nightlife/pub_", "suffix": ".png"}}, {"id": 13065, "name": "Restaurant", "short_name": "Restaurant", "plural_name": "Restaurants", "icon": {"prefix": "https://ss3.4sqi.net/img/categories_v2/food/default_", "suffix": ".png"}}], "chains": [], "closed_bucket": "VeryLikelyOpen", "distance": 845, "geocodes": {"main": {"latitude": 55.868415, "longitude": -4.273189}, "roof": {"latitude": 55.868415, "longitude": -4.273189}}, "link": "/v3/places/4c2f3cf866e40f47117fc18b", "location": {"address": "1 Lynedoch St", "admin_region": "Scotland", "country": "GB", "formatted_address": "1 Lynedoch St, Glasgow, Glasgow City, G3 6EF", "locality": "Glasgow", "post_town": "Glasgow", "postcode": "G3 6EF", "region": "Glasgow City"}, "name": "The Drake", "related_places": {}, "timezone": "Europe/London"}, {"fsq_id": "4b8e5f7df964a520851f33e3", "categories": [{"id": 13276, "name": "Sushi Restaurant", "short_name": "Sushi", "plural_name": "Sushi Restaurants", "icon": {"prefix": "https://ss3.4sqi.net/img/categories_v2/food/sushi_", "suffix": ".png"}}], "chains": [], "closed_bucket": "VeryLikelyOpen", "distance": 797, "geocodes": {"main": {"latitude": 55.865949, "longitude": -4.269328}, "roof": {"latitude": 55.865949, "longitude": -4.269328}}, "link": "/v3/places/4b8e5f7df964a520851f33e3", "location": {"address": "441 Sauchiehall St", "admin_region": "Scotland", "country": "GB", "formatted_address": "441 Sauchiehall St, Glasgow, Glasgow City, G2 3LG", "locality": "Glasgow", "post_town": "Glasgow", "postcode": "G2 3LG", "region": "Glasgow City"}, "name": "Nanakusa", "related_places": {}, "timezone": "Europe/London"}, {"fsq_id": "524ec20911d2e6a1074094b5", "categories": [{"id": 13099, "name": "Chinese Restaurant", "short_name": "Chinese", "plural_name": "Chinese Restaurants", "icon": {"prefix": "https://ss3.4sqi.net/img/categories_v2/food/asian_", "suffix": ".png"}}], "chains": [], "closed_bucket": "LikelyOpen", "distance": 577, "geocodes": {"main": {"latitude": 55.869686, "longitude": -4.269372}, "roof": {"latitude": 55.869686, "longitude": -4.269372}}, "link": "/v3/places/524ec20911d2e6a1074094b5", "location": {"address": "175 St Georges Rd", "admin_region": "Scotland", "country": "GB", "cross_street": "", "formatted_address": "175 St Georges Rd, Glasgow, G3 6JD", "locality": "Glasgow", "post_town": "Glasgow", "postcode": "G3 6JD"}, "name": "Ka Ka Lok", "related_places": {}, "timezone": "Europe/London"}, {"fsq_id": "4b511ac5f964a520ad4227e3", "categories": [{"id": 13009, "name": "Cocktail Bar", "short_name": "Cocktail", "plural_name": "Cocktail Bars", "icon": {"prefix": "https://ss3.4sqi.net/img/categories_v2/nightlife/cocktails_", "suffix": ".png"}}, {"id": 13025, "name": "Wine Bar", "short_name": "Wine Bar", "plural_name": "Wine Bars", "icon": {"prefix": "https://ss3.4sqi.net/img/categories_v2/food/winery_", "suffix": ".png"}}], "chains": [], "closed_bucket": "LikelyOpen", "distance": 964, "geocodes": {"main": {"latitude": 55.862311, "longitude": -4.257372}, "roof": {"latitude": 55.862311, "longitude": -4.257372}}, "link": "/v3/places/4b511ac5f964a520ad4227e3", "location": {"address": "151 West George St", "admin_region": "Scotland", "country": "GB", "formatted_address": "151 West George St, Glasgow, Glasgow City, G2 2JJ", "locality": "Glasgow", "post_town": "Glasgow", "postcode": "G2 2JJ", "region": "Glasgow City"}, "name": "Blue Dog", "related_places": {}, "timezone": "Europe/London"}, {"fsq_id": "5660ab33498eb6bd97dbc68a", "categories": [{"id": 13003, "name": "Bar", "short_name": "Bar", "plural_name": "Bars", "icon": {"prefix": "https://ss3.4sqi.net/img/categories_v2/nightlife/pub_", "suffix": ".png"}}, {"id": 13337, "name": "Scottish Restaurant", "short_name": "Scottish", "plural_name": "Scottish Restaurants", "icon": {"prefix": "https://ss3.4sqi.net/img/categories_v2/food/default_", "suffix": ".png"}}, {"id": 13383, "name": "Steakhouse", "short_name": "Steakhouse", "plural_name": "Steakhouses", "icon": {"prefix": "https://ss3.4sqi.net/img/categories_v2/food/steakhouse_", "suffix": ".png"}}], "chains": [], "closed_bucket": "VeryLikelyOpen", "distance": 752, "geocodes": {"main": {"latitude": 55.865054, "longitude": -4.265621}, "roof": {"latitude": 55.865054, "longitude": -4.265621}}, "link": "/v3/places/5660ab33498eb6bd97dbc68a", "location": {"address": "244A Bath St", "admin_region": "Scotland", "country": "GB", "cross_street": "", "formatted_address": "244A Bath St, Glasgow, G2 4JW", "locality": "Glasgow", "post_town": "Glasgow", "postcode": "G2 4JW"}, "name": "Mini Grill", "related_places": {}, "timezone": "Europe/London"}, {"fsq_id": "4c2cc4946e77b7131c71775d", "categories": [{"id": 13106, "name": "Dim Sum Restaurant", "short_name": "Dim Sum", "plural_name": "Dim Sum Restaurants", "icon": {"prefix": "https://ss3.4sqi.net/img/categories_v2/food/dimsum_", "suffix": ".png"}}, {"id": 13338, "name": "Seafood Restaurant", "short_name": "Seafood", "plural_name": "Seafood Restaurants", "icon": {"prefix": "https://ss3.4sqi.net/img/categories_v2/food/seafood_", "suffix": ".png"}}], "chains": [], "closed_bucket": "Unsure", "distance": 384, "geocodes": {"main": {"latitude": 55.868928, "longitude": -4.261428}, "roof": {"latitude": 55.868928, "longitude": -4.261428}}, "link": "/v3/places/4c2cc4946e77b7131c71775d", "location": {"address": "42 New City Rd", "address_extended": "Unit 9-10", "admin_region": "Scotland", "country": "GB", "cross_street": "", "formatted_address": "42 New City Rd, Glasgow, Glasgow City, G4 9JT", "locality": "Glasgow", "post_town": "Glasgow", "postcode": "G4 9JT", "region": "Glasgow City"}, "name": "Chinatown Restaurant", "related_places": {}, "timezone": "Europe/London"}, {"fsq_id": "4ba284cdf964a520660038e3", "categories": [{"id": 13148, "name": "French Restaurant", "short_name": "French", "plural_name": "French Restaurants", "icon": {"prefix": "https://ss3.4sqi.net/img/categories_v2/food/french_", "suffix": ".png"}}, {"id": 13302, "name": "Mediterranean Restaurant", "short_name": "Mediterranean", "plural_name": "Mediterranean Restaurants", "icon": {"prefix": "https://ss3.4sqi.net/img/categories_v2/food/mediterranean_", "suffix": ".png"}}], "chains": [], "closed_bucket": "Unsure", "distance": 752, "geocodes": {"main": {"latitude": 55.865239, "longitude": -4.254062}, "roof": {"latitude": 55.865239, "longitude": -4.254062}}, "link": "/v3/places/4ba284cdf964a520660038e3", "location": {"address": "161 West Nile St", "admin_region": "Scotland", "country": "GB", "cross_street": "at Renfield Street", "formatted_address": "161 West Nile St (at Renfield Street), Glasgow, Glasgow City, G1 2RL", "locality": "Glasgow", "post_town": "Glasgow", "postcode": "G1 2RL", "region": "Glasgow City"}, "name": "La Bonne Auberge", "related_places": {}, "timezone": "Europe/London"}, {"fsq_id": "58010b1638fa810125548805", "categories": [{"id": 13034, "name": "Caf\u00e9", "short_name": "Caf\u00e9", "plural_name": "Caf\u00e9s", "icon": {"prefix": "https://ss3.4sqi.net/img/categories_v2/food/cafe_", "suffix": ".png"}}, {"id": 13065, "name": "Restaurant", "short_name": "Restaurant", "plural_name": "Restaurants", "icon": {"prefix": "https://ss3.4sqi.net/img/categories_v2/food/default_", "suffix": ".png"}}], "chains": [], "closed_bucket": "VeryLikelyOpen", "distance": 959, "geocodes": {"main": {"latitude": 55.863829, "longitude": -4.251987}, "roof": {"latitude": 55.863829, "longitude": -4.251987}}, "link": "/v3/places/58010b1638fa810125548805", "location": {"address": "John Lewis", "admin_region": "Scotland", "country": "GB", "cross_street": "Buchanan Galleries", "formatted_address": "John Lewis (Buchanan Galleries), Glasgow, Glasgow City", "locality": "Glasgow", "post_town": "Glasgow", "region": "Glasgow City"}, "name": "The Cafe by Benugo", "related_places": {"parent": {"fsq_id": "4b4489b4f964a5203cf625e3", "categories": [{"id": 17114, "name": "Shopping Mall", "short_name": "Mall", "plural_name": "Shopping Malls", "icon": {"prefix": "https://ss3.4sqi.net/img/categories_v2/shops/mall_", "suffix": ".png"}}], "name": "Buchanan Galleries"}}, "timezone": "Europe/London"}, {"fsq_id": "62bb356216142710197291d0", "categories": [{"id": 13035, "name": "Coffee Shop", "short_name": "Coffee Shop", "plural_name": "Coffee Shops", "icon": {"prefix": "https://ss3.4sqi.net/img/categories_v2/food/coffeeshop_", "suffix": ".png"}}, {"id": 13065, "name": "Restaurant", "short_name": "Restaurant", "plural_name": "Restaurants", "icon": {"prefix": "https://ss3.4sqi.net/img/categories_v2/food/default_", "suffix": ".png"}}], "chains": [], "closed_bucket": "LikelyOpen", "distance": 629, "geocodes": {"drop_off": {"latitude": 55.86525, "longitude": -4.261972}, "main": {"latitude": 55.865421, "longitude": -4.261952}, "roof": {"latitude": 55.865421, "longitude": -4.261952}}, "link": "/v3/places/62bb356216142710197291d0", "location": {"address": "254 Sauchiehall St", "admin_region": "Scotland", "country": "GB", "cross_street": "", "formatted_address": "254 Sauchiehall St, Glasgow, Glasgow City, G2 3EH", "locality": "Glasgow", "post_town": "Glasgow", "postcode": "G2 3EH", "region": "Glasgow City"}, "name": "Black Sheep Coffee - Sauchiehall Street", "related_places": {}, "timezone": "Europe/London"}, {"fsq_id": "4b7025a4f964a520dd082de3", "categories": [{"id": 13039, "name": "Deli", "short_name": "Deli", "plural_name": "Delis", "icon": {"prefix": "https://ss3.4sqi.net/img/categories_v2/food/deli_", "suffix": ".png"}}, {"id": 13145, "name": "Fast Food Restaurant", "short_name": "Fast Food", "plural_name": "Fast Food Restaurants", "icon": {"prefix": "https://ss3.4sqi.net/img/categories_v2/food/fastfood_", "suffix": ".png"}}, {"id": 13334, "name": "Sandwich Spot", "short_name": "Sandwich Spot", "plural_name": "Sandwich Spots", "icon": {"prefix": "https://ss3.4sqi.net/img/categories_v2/food/deli_", "suffix": ".png"}}], "chains": [{"id": "ab4bee40-d68a-012e-5619-003048cad9da", "name": "Subway"}], "closed_bucket": "VeryLikelyOpen", "distance": 766, "geocodes": {"main": {"latitude": 55.864434, "longitude": -4.257086}, "roof": {"latitude": 55.864434, "longitude": -4.257086}}, "link": "/v3/places/4b7025a4f964a520dd082de3", "location": {"address": "198 Hope St", "admin_region": "Scotland", "country": "GB", "formatted_address": "198 Hope St, Glasgow, G2 2UG", "locality": "Glasgow", "post_town": "Glasgow", "postcode": "G2 2UG"}, "name": "Subway", "related_places": {}, "timezone": "Europe/London"}, {"fsq_id": "4b1144caf964a520837923e3", "categories": [{"id": 13003, "name": "Bar", "short_name": "Bar", "plural_name": "Bars", "icon": {"prefix": "https://ss3.4sqi.net/img/categories_v2/nightlife/pub_", "suffix": ".png"}}, {"id": 13073, "name": "Australian Restaurant", "short_name": "Australian", "plural_name": "Australian Restaurants", "icon": {"prefix": "https://ss3.4sqi.net/img/categories_v2/food/australian_", "suffix": ".png"}}], "chains": [], "closed_bucket": "Unsure", "distance": 739, "geocodes": {"main": {"latitude": 55.865021, "longitude": -4.255106}, "roof": {"latitude": 55.865021, "longitude": -4.255106}}, "link": "/v3/places/4b1144caf964a520837923e3", "location": {"address": "128 Renfield St", "admin_region": "Scotland", "country": "GB", "formatted_address": "128 Renfield St, Glasgow, Glasgow City, G2 3AL", "locality": "Glasgow", "post_town": "Glasgow", "postcode": "G2 3AL", "region": "Glasgow City"}, "name": "Walkabout", "related_places": {}, "timezone": "Europe/London"}, {"fsq_id": "57c9a370498e646cd0826aa1", "categories": [{"id": 13003, "name": "Bar", "short_name": "Bar", "plural_name": "Bars", "icon": {"prefix": "https://ss3.4sqi.net/img/categories_v2/nightlife/pub_", "suffix": ".png"}}, {"id": 13055, "name": "Fried Chicken Joint", "short_name": "Fried Chicken", "plural_name": "Fried Chicken Joints", "icon": {"prefix": "https://ss3.4sqi.net/img/categories_v2/food/friedchicken_", "suffix": ".png"}}], "chains": [], "closed_bucket": "LikelyOpen", "distance": 851, "geocodes": {"main": {"latitude": 55.863345, "longitude": -4.259576}, "roof": {"latitude": 55.863345, "longitude": -4.259576}}, "link": "/v3/places/57c9a370498e646cd0826aa1", "location": {"address": "111 West Regent St", "admin_region": "Scotland", "country": "GB", "cross_street": "", "formatted_address": "111 West Regent St, Glasgow, Glasgow City, G2 2RU", "locality": "Glasgow", "post_town": "Glasgow", "postcode": "G2 2RU", "region": "Glasgow City"}, "name": "Buck's Bar", "related_places": {}, "timezone": "Europe/London"}, {"fsq_id": "512e5e4ee4b02c71f957e6e6", "categories": [{"id": 13003, "name": "Bar", "short_name": "Bar", "plural_name": "Bars", "icon": {"prefix": "https://ss3.4sqi.net/img/categories_v2/nightlife/pub_", "suffix": ".png"}}, {"id": 13065, "name": "Restaurant", "short_name": "Restaurant", "plural_name": "Restaurants", "icon": {"prefix": "https://ss3.4sqi.net/img/categories_v2/food/default_", "suffix": ".png"}}], "chains": [], "closed_bucket": "LikelyOpen", "distance": 971, "geocodes": {"main": {"latitude": 55.862462, "longitude": -4.256571}, "roof": {"latitude": 55.862462, "longitude": -4.256571}}, "link": "/v3/places/512e5e4ee4b02c71f957e6e6", "location": {"address": "134-136 West George St", "admin_region": "Scotland", "country": "GB", "cross_street": "", "formatted_address": "134-136 West George St, Glasgow, Glasgow City, G2 2HG", "locality": "Glasgow", "post_town": "Glasgow", "postcode": "G2 2HG", "region": "Glasgow City"}, "name": "The Merchant", "related_places": {}, "timezone": "Europe/London"}, {"fsq_id": "4b93ddf6f964a5202b5634e3", "categories": [{"id": 13099, "name": "Chinese Restaurant", "short_name": "Chinese", "plural_name": "Chinese Restaurants", "icon": {"prefix": "https://ss3.4sqi.net/img/categories_v2/food/asian_", "suffix": ".png"}}], "chains": [], "closed_bucket": "VeryLikelyOpen", "distance": 835, "geocodes": {"main": {"latitude": 55.863736, "longitude": -4.256399}, "roof": {"latitude": 55.863736, "longitude": -4.256399}}, "link": "/v3/places/4b93ddf6f964a5202b5634e3", "location": {"address": "53-55 Bath St", "admin_region": "Scotland", "country": "GB", "cross_street": "", "formatted_address": "53-55 Bath St, Glasgow, Glasgow City, G2 2DH", "locality": "Glasgow", "post_town": "Glasgow", "postcode": "G2 2DH", "region": "Glasgow City"}, "name": "China Buffet King", "related_places": {}, "timezone": "Europe/London"}, {"fsq_id": "4bba231b1261d13a1f46ea98", "categories": [{"id": 13018, "name": "Pub", "short_name": "Pub", "plural_name": "Pubs", "icon": {"prefix": "https://ss3.4sqi.net/img/categories_v2/nightlife/pub_", "suffix": ".png"}}, {"id": 13065, "name": "Restaurant", "short_name": "Restaurant", "plural_name": "Restaurants", "icon": {"prefix": "https://ss3.4sqi.net/img/categories_v2/food/default_", "suffix": ".png"}}], "chains": [{"id": "07841cd9-3716-4bd6-8ebd-ad13070b3125", "name": "J D Wetherspoon"}], "closed_bucket": "Unsure", "distance": 698, "geocodes": {"main": {"latitude": 55.865686, "longitude": -4.266551}, "roof": {"latitude": 55.865686, "longitude": -4.266551}}, "link": "/v3/places/4bba231b1261d13a1f46ea98", "location": {"address": "351-363 Sauchiehall St", "admin_region": "Scotland", "country": "GB", "formatted_address": "351-363 Sauchiehall St, Glasgow, Glasgow City, G2 3HU", "locality": "Glasgow", "post_town": "Glasgow", "postcode": "G2 3HU", "region": "Glasgow City"}, "name": "The Henglers Circus", "related_places": {}, "timezone": "Europe/London"}, {"fsq_id": "53949cd6498e932c3f1aabba", "categories": [{"id": 13199, "name": "Indian Restaurant", "short_name": "Indian", "plural_name": "Indian Restaurants", "icon": {"prefix": "https://ss3.4sqi.net/img/categories_v2/food/indian_", "suffix": ".png"}}], "chains": [], "closed_bucket": "VeryLikelyOpen", "distance": 989, "geocodes": {"main": {"latitude": 55.866025, "longitude": -4.273536}, "roof": {"latitude": 55.866025, "longitude": -4.273536}}, "link": "/v3/places/53949cd6498e932c3f1aabba", "location": {"address": "573-581 Sauchiehall St", "admin_region": "Scotland", "country": "GB", "cross_street": "", "formatted_address": "573-581 Sauchiehall St, Glasgow, G3 7PQ", "locality": "Glasgow", "post_town": "Glasgow", "postcode": "G3 7PQ"}, "name": "Akbar's", "related_places": {}, "timezone": "Europe/London"}, {"fsq_id": "4f734a1be4b03c97467c7995", "categories": [{"id": 13003, "name": "Bar", "short_name": "Bar", "plural_name": "Bars", "icon": {"prefix": "https://ss3.4sqi.net/img/categories_v2/nightlife/pub_", "suffix": ".png"}}, {"id": 13065, "name": "Restaurant", "short_name": "Restaurant", "plural_name": "Restaurants", "icon": {"prefix": "https://ss3.4sqi.net/img/categories_v2/food/default_", "suffix": ".png"}}], "chains": [], "closed_bucket": "VeryLikelyOpen", "distance": 457, "geocodes": {"main": {"latitude": 55.866967, "longitude": -4.259791}, "roof": {"latitude": 55.866967, "longitude": -4.259791}}, "link": "/v3/places/4f734a1be4b03c97467c7995", "location": {"address": "95 Cambridge St", "admin_region": "Scotland", "country": "GB", "cross_street": "", "formatted_address": "95 Cambridge St, Glasgow, G3 6RU", "locality": "Glasgow", "post_town": "Glasgow", "postcode": "G3 6RU"}, "name": "Jackson's Bar", "related_places": {}, "timezone": "Europe/London"}, {"fsq_id": "4baa0c6df964a5208b463ae3", "categories": [{"id": 13003, "name": "Bar", "short_name": "Bar", "plural_name": "Bars", "icon": {"prefix": "https://ss3.4sqi.net/img/categories_v2/nightlife/pub_", "suffix": ".png"}}, {"id": 13337, "name": "Scottish Restaurant", "short_name": "Scottish", "plural_name": "Scottish Restaurants", "icon": {"prefix": "https://ss3.4sqi.net/img/categories_v2/food/default_", "suffix": ".png"}}], "chains": [], "closed_bucket": "VeryLikelyOpen", "distance": 713, "geocodes": {"main": {"latitude": 55.86492, "longitude": -4.256891}, "roof": {"latitude": 55.86492, "longitude": -4.256891}}, "link": "/v3/places/4baa0c6df964a5208b463ae3", "location": {"address": "224 Hope St", "admin_region": "Scotland", "country": "GB", "formatted_address": "224 Hope St, Glasgow, Glasgow City, G2 2UG", "locality": "Glasgow", "post_town": "Glasgow", "postcode": "G2 2UG", "region": "Glasgow City"}, "name": "Molly Malone's", "related_places": {}, "timezone": "Europe/London"}, {"fsq_id": "4c5ea58a94fd0f4751b8ce45", "categories": [{"id": 13034, "name": "Caf\u00e9", "short_name": "Caf\u00e9", "plural_name": "Caf\u00e9s", "icon": {"prefix": "https://ss3.4sqi.net/img/categories_v2/food/cafe_", "suffix": ".png"}}, {"id": 13065, "name": "Restaurant", "short_name": "Restaurant", "plural_name": "Restaurants", "icon": {"prefix": "https://ss3.4sqi.net/img/categories_v2/food/default_", "suffix": ".png"}}], "chains": [], "closed_bucket": "VeryLikelyOpen", "distance": 210, "geocodes": {"main": {"latitude": 55.872206, "longitude": -4.257498}, "roof": {"latitude": 55.872206, "longitude": -4.257498}}, "link": "/v3/places/4c5ea58a94fd0f4751b8ce45", "location": {"address": "8 Speirs Wharf", "admin_region": "Scotland", "country": "GB", "cross_street": "", "formatted_address": "8 Speirs Wharf, Glasgow, G4 9TB", "locality": "Glasgow", "post_town": "Glasgow", "postcode": "G4 9TB"}, "name": "Ocho", "related_places": {}, "timezone": "Europe/London"}, {"fsq_id": "4bab03fcf964a520e1913ae3", "categories": [{"id": 13031, "name": "Burger Joint", "short_name": "Burgers", "plural_name": "Burger Joints", "icon": {"prefix": "https://ss3.4sqi.net/img/categories_v2/food/burger_", "suffix": ".png"}}, {"id": 13145, "name": "Fast Food Restaurant", "short_name": "Fast Food", "plural_name": "Fast Food Restaurants", "icon": {"prefix": "https://ss3.4sqi.net/img/categories_v2/food/fastfood_", "suffix": ".png"}}], "chains": [{"id": "ab4a3530-d68a-012e-5619-003048cad9da", "name": "McDonald's"}], "closed_bucket": "VeryLikelyOpen", "distance": 753, "geocodes": {"main": {"latitude": 55.864507, "longitude": -4.256738}, "roof": {"latitude": 55.864507, "longitude": -4.256738}}, "link": "/v3/places/4bab03fcf964a520e1913ae3", "location": {"address": "101/105 Sauchiehall St", "admin_region": "Scotland", "country": "GB", "formatted_address": "101/105 Sauchiehall St, Glasgow, Glasgow City, G2 3DD", "locality": "Glasgow", "post_town": "Glasgow", "postcode": "G2 3DD", "region": "Glasgow City"}, "name": "McDonald's", "related_places": {}, "timezone": "Europe/London"}, {"fsq_id": "4bc898f0af07a593e330812d", "categories": [{"id": 13055, "name": "Fried Chicken Joint", "short_name": "Fried Chicken", "plural_name": "Fried Chicken Joints", "icon": {"prefix": "https://ss3.4sqi.net/img/categories_v2/food/friedchicken_", "suffix": ".png"}}, {"id": 13145, "name": "Fast Food Restaurant", "short_name": "Fast Food", "plural_name": "Fast Food Restaurants", "icon": {"prefix": "https://ss3.4sqi.net/img/categories_v2/food/fastfood_", "suffix": ".png"}}], "chains": [{"id": "ab4beec0-d68a-012e-5619-003048cad9da", "name": "KFC"}], "closed_bucket": "VeryLikelyOpen", "distance": 805, "geocodes": {"main": {"latitude": 55.864263, "longitude": -4.255469}, "roof": {"latitude": 55.864263, "longitude": -4.255469}}, "link": "/v3/places/4bc898f0af07a593e330812d", "location": {"address": "104-106 Renfield St", "admin_region": "Scotland", "country": "GB", "cross_street": "at Sauchiehall St.", "formatted_address": "104-106 Renfield St (at Sauchiehall St.), Glasgow, Glasgow City, G2 1NH", "locality": "Glasgow", "post_town": "Glasgow", "postcode": "G2 1NH", "region": "Glasgow City"}, "name": "KFC", "related_places": {}, "timezone": "Europe/London"}, {"fsq_id": "4c1e04b7b489b7134caca9c7", "categories": [{"id": 13102, "name": "Cantonese Restaurant", "short_name": "Cantonese", "plural_name": "Cantonese Restaurants", "icon": {"prefix": "https://ss3.4sqi.net/img/categories_v2/food/asian_", "suffix": ".png"}}, {"id": 13106, "name": "Dim Sum Restaurant", "short_name": "Dim Sum", "plural_name": "Dim Sum Restaurants", "icon": {"prefix": "https://ss3.4sqi.net/img/categories_v2/food/dimsum_", "suffix": ".png"}}], "chains": [], "closed_bucket": "Unsure", "distance": 790, "geocodes": {"main": {"latitude": 55.865961, "longitude": -4.269118}, "roof": {"latitude": 55.865961, "longitude": -4.269118}}, "link": "/v3/places/4c1e04b7b489b7134caca9c7", "location": {"address": "417-419 Sauchiehall St", "admin_region": "Scotland", "country": "GB", "cross_street": "", "formatted_address": "417-419 Sauchiehall St, Glasgow, Glasgow City, G2 3LG", "locality": "Glasgow", "post_town": "Glasgow", "postcode": "G2 3LG", "region": "Glasgow City"}, "name": "Loon Fung", "related_places": {}, "timezone": "Europe/London"}, {"fsq_id": "5681a1c6498efe894071f9a7", "categories": [{"id": 13046, "name": "Ice Cream Parlor", "short_name": "Ice Cream", "plural_name": "Ice Cream Parlors", "icon": {"prefix": "https://ss3.4sqi.net/img/categories_v2/food/icecream_", "suffix": ".png"}}, {"id": 13065, "name": "Restaurant", "short_name": "Restaurant", "plural_name": "Restaurants", "icon": {"prefix": "https://ss3.4sqi.net/img/categories_v2/food/default_", "suffix": ".png"}}], "chains": [], "closed_bucket": "LikelyOpen", "distance": 651, "geocodes": {"main": {"latitude": 55.865362, "longitude": -4.263913}, "roof": {"latitude": 55.865362, "longitude": -4.263913}}, "link": "/v3/places/5681a1c6498efe894071f9a7", "location": {"address": "287 Sauchiehall St", "admin_region": "Scotland", "country": "GB", "cross_street": "", "formatted_address": "287 Sauchiehall St, Glasgow, G2 3HQ", "locality": "Glasgow", "post_town": "Glasgow", "postcode": "G2 3HQ"}, "name": "Deesserts UK", "related_places": {}, "timezone": "Europe/London"}, {"fsq_id": "4b8421a8f964a520b72231e3", "categories": [{"id": 13035, "name": "Coffee Shop", "short_name": "Coffee Shop", "plural_name": "Coffee Shops", "icon": {"prefix": "https://ss3.4sqi.net/img/categories_v2/food/coffeeshop_", "suffix": ".png"}}, {"id": 13036, "name": "Tea Room", "short_name": "Tea Room", "plural_name": "Tea Rooms", "icon": {"prefix": "https://ss3.4sqi.net/img/categories_v2/food/tearoom_", "suffix": ".png"}}, {"id": 13065, "name": "Restaurant", "short_name": "Restaurant", "plural_name": "Restaurants", "icon": {"prefix": "https://ss3.4sqi.net/img/categories_v2/food/default_", "suffix": ".png"}}], "chains": [], "closed_bucket": "LikelyOpen", "distance": 807, "geocodes": {"main": {"latitude": 55.868208, "longitude": -4.272201}, "roof": {"latitude": 55.868208, "longitude": -4.272201}}, "link": "/v3/places/4b8421a8f964a520b72231e3", "location": {"address": "40-42 Woodlands Rd", "admin_region": "Scotland", "country": "GB", "cross_street": "at Baliol Ln", "formatted_address": "40-42 Woodlands Rd (at Baliol Ln), Glasgow, Glasgow City, G3 6UR", "locality": "Glasgow", "post_town": "Glasgow", "postcode": "G3 6UR", "region": "Glasgow City"}, "name": "The Coffee Pod", "related_places": {}, "timezone": "Europe/London"}, {"fsq_id": "4bf6d6a613aed13aeb4aeaf7", "categories": [{"id": 13018, "name": "Pub", "short_name": "Pub", "plural_name": "Pubs", "icon": {"prefix": "https://ss3.4sqi.net/img/categories_v2/nightlife/pub_", "suffix": ".png"}}, {"id": 13065, "name": "Restaurant", "short_name": "Restaurant", "plural_name": "Restaurants", "icon": {"prefix": "https://ss3.4sqi.net/img/categories_v2/food/default_", "suffix": ".png"}}], "chains": [{"id": "07841cd9-3716-4bd6-8ebd-ad13070b3125", "name": "J D Wetherspoon"}], "closed_bucket": "Unsure", "distance": 973, "geocodes": {"main": {"latitude": 55.862317, "longitude": -4.257267}, "roof": {"latitude": 55.862317, "longitude": -4.257267}}, "link": "/v3/places/4bf6d6a613aed13aeb4aeaf7", "location": {"address": "151 West George St", "admin_region": "Scotland", "country": "GB", "formatted_address": "151 West George St, Glasgow, Glasgow City, G2 2JJ", "locality": "Glasgow", "post_town": "Glasgow", "postcode": "G2 2JJ", "region": "Glasgow City"}, "name": "The Society Room (Wetherspoon)", "related_places": {}, "timezone": "Europe/London"}, {"fsq_id": "4c5d5b5a6ebe2d7f3084d22e", "categories": [{"id": 13018, "name": "Pub", "short_name": "Pub", "plural_name": "Pubs", "icon": {"prefix": "https://ss3.4sqi.net/img/categories_v2/nightlife/pub_", "suffix": ".png"}}], "chains": [], "closed_bucket": "LikelyOpen", "distance": 959, "geocodes": {"main": {"latitude": 55.862838, "longitude": -4.256442}, "roof": {"latitude": 55.862838, "longitude": -4.256442}}, "link": "/v3/places/4c5d5b5a6ebe2d7f3084d22e", "location": {"address": "59-61 Renfield St", "admin_region": "Scotland", "country": "GB", "cross_street": "", "formatted_address": "59-61 Renfield St, Glasgow, G2 1LF", "locality": "Glasgow", "post_town": "Glasgow", "postcode": "G2 1LF"}, "name": "Maltman", "related_places": {}, "timezone": "Europe/London"}, {"fsq_id": "6314b1c9748c5836137f8a68", "categories": [{"id": 13029, "name": "Brewery", "short_name": "Brewery", "plural_name": "Breweries", "icon": {"prefix": "https://ss3.4sqi.net/img/categories_v2/food/brewery_", "suffix": ".png"}}], "chains": [], "closed_bucket": "VeryLikelyOpen", "distance": 535, "geocodes": {"drop_off": {"latitude": 55.871374, "longitude": -4.252052}, "main": {"latitude": 55.871564, "longitude": -4.252116}, "roof": {"latitude": 55.871564, "longitude": -4.252116}}, "link": "/v3/places/6314b1c9748c5836137f8a68", "location": {"address": "3A Payne St", "country": "GB", "cross_street": "", "formatted_address": "3A Payne St, Glasgow, Glasgow City", "locality": "Glasgow", "post_town": "Glasgow", "region": "Glasgow City"}, "name": "Epochal Barrel-Fermented Ales", "related_places": {}, "timezone": "Europe/London"}, {"fsq_id": "5956c8a04febd5782bf49511", "categories": [{"id": 13142, "name": "English Restaurant", "short_name": "English", "plural_name": "English Restaurants", "icon": {"prefix": "https://ss3.4sqi.net/img/categories_v2/food/default_", "suffix": ".png"}}], "chains": [], "closed_bucket": "VeryLikelyOpen", "distance": 584, "geocodes": {"main": {"latitude": 55.865801, "longitude": -4.258985}, "roof": {"latitude": 55.865801, "longitude": -4.258985}}, "link": "/v3/places/5956c8a04febd5782bf49511", "location": {"address": "DoubleTree by Hilton Hotel Glasgow Central", "admin_region": "Scotland", "country": "GB", "cross_street": "36 Cambridge St", "formatted_address": "DoubleTree by Hilton Hotel Glasgow Central (36 Cambridge St), Glasgow, Glasgow City, G2 3HN", "locality": "Glasgow", "post_town": "Glasgow", "postcode": "G2 3HN", "region": "Glasgow City"}, "name": "Brisket", "related_places": {"parent": {"fsq_id": "4b852fb6f964a520e04f31e3", "categories": [{"id": 19014, "name": "Hotel", "short_name": "Hotel", "plural_name": "Hotels", "icon": {"prefix": "https://ss3.4sqi.net/img/categories_v2/travel/hotel_", "suffix": ".png"}}], "name": "DoubleTree by Hilton Glasgow Central"}}, "timezone": "Europe/London"}, {"fsq_id": "4c50268638b0be9a35ad06fd", "categories": [{"id": 13018, "name": "Pub", "short_name": "Pub", "plural_name": "Pubs", "icon": {"prefix": "https://ss3.4sqi.net/img/categories_v2/nightlife/pub_", "suffix": ".png"}}, {"id": 13022, "name": "Sports Bar", "short_name": "Sports Bar", "plural_name": "Sports Bars", "icon": {"prefix": "https://ss3.4sqi.net/img/categories_v2/nightlife/sportsbar_", "suffix": ".png"}}], "chains": [], "closed_bucket": "VeryLikelyOpen", "distance": 636, "geocodes": {"main": {"latitude": 55.873363, "longitude": -4.269555}, "roof": {"latitude": 55.873363, "longitude": -4.269555}}, "link": "/v3/places/4c50268638b0be9a35ad06fd", "location": {"address": "144 Maryhill Rd", "admin_region": "Scotland", "country": "GB", "cross_street": "", "formatted_address": "144 Maryhill Rd, Glasgow, Glasgow City, G20 7QS", "locality": "Glasgow", "post_town": "Glasgow", "postcode": "G20 7QS", "region": "Glasgow City"}, "name": "The Royalty Bar", "related_places": {}, "timezone": "Europe/London"}], "context": {"geo_bounds": {"circle": {"center": {"latitude": 55.870992, "longitude": -4.260426}, "radius": 1000}}}}