{"results": [{"fsq_id": "4c9da4b6031337044d2c61d5", "categories": [{"id": 13031, "name": "Burger Joint", "short_name": "Burgers", "plural_name": "Burger Joints", "icon": {"prefix": "https://ss3.4sqi.net/img/categories_v2/food/burger_", "suffix": ".png"}}, {"id": 13145, "name": "Fast Food Restaurant", "short_name": "Fast Food", "plural_name": "Fast Food Restaurants", "icon": {"prefix": "https://ss3.4sqi.net/img/categories_v2/food/fastfood_", "suffix": ".png"}}], "chains": [{"id": "ab4a3530-d68a-012e-5619-003048cad9da", "name": "McDonald's"}], "closed_bucket": "VeryLikelyOpen", "distance": 132, "geocodes": {"drop_off": {"latitude": 55.836133, "longitude": -4.16873}, "main": {"latitude": 55.836305, "longitude": -4.168805}, "roof": {"latitude": 55.836305, "longitude": -4.168805}}, "link": "/v3/places/4c9da4b6031337044d2c61d5", "location": {"address": "Westhorn Dr/London Rd", "admin_region": "Scotland", "country": "GB", "cross_street": "Westhorn Dr.", "formatted_address": "Westhorn Dr/London Rd (Westhorn Dr.), Glasgow, Glasgow City, G32 8YX", "locality": "Glasgow", "post_town": "Glasgow", "postcode": "G32 8YX", "region": "Glasgow City"}, "name": "McDonald's", "related_places": {}, "timezone": "Europe/London"}, {"fsq_id": "4c556601fd2ea593db22a92b", "categories": [{"id": 13018, "name": "Pub", "short_name": "Pub", "plural_name": "Pubs", "icon": {"prefix": "https://ss3.4sqi.net/img/categories_v2/nightlife/pub_", "suffix": ".png"}}, {"id": 13065, "name": "Restaurant", "short_name": "Restaurant", "plural_name": "Restaurants", "icon": {"prefix": "https://ss3.4sqi.net/img/categories_v2/food/default_", "suffix": ".png"}}], "chains": [], "closed_bucket": "VeryLikelyOpen", "distance": 129, "geocodes": {"main": {"latitude": 55.836046, "longitude": -4.169673}, "roof": {"latitude": 55.836046, "longitude": -4.169673}}, "link": "/v3/places/4c556601fd2ea593db22a92b", "location": {"address": "Off London Rd", "admin_region": "Scotland", "country": "GB", "formatted_address": "Off London Rd, Cambuslang, South Lanarkshire, G32 8EY", "locality": "Cambuslang", "post_town": "Glasgow", "postcode": "G32 8EY", "region": "South Lanarkshire"}, "name": "Orion Way Table Table", "related_places": {}, "timezone": "Europe/London"}, {"fsq_id": "4d9623a2b188721e51c6ef36", "categories": [{"id": 13003, "name": "Bar", "short_name": "Bar", "plural_name": "Bars", "icon": {"prefix": "https://ss3.4sqi.net/img/categories_v2/nightlife/pub_", "suffix": ".png"}}], "chains": [], "closed_bucket": "LikelyOpen", "distance": 167, "geocodes": {"main": {"latitude": 55.835611, "longitude": -4.170851}}, "link": "/v3/places/4d9623a2b188721e51c6ef36", "location": {"address": "Causeway side St", "country": "GB", "cross_street": "", "formatted_address": "Causeway side St, Glasgow, Glasgow City", "locality": "Glasgow", "post_town": "Glasgow", "region": "Glasgow City"}, "name": "Elders", "related_places": {}, "timezone": "Europe/London"}, {"fsq_id": "6ea78be01a1f4a58b65a9e29", "categories": [{"id": 13029, "name": "Brewery", "short_name": "Brewery", "plural_name": "Breweries", "icon": {"prefix": "https://ss3.4sqi.net/img/categories_v2/food/brewery_", "suffix": ".png"}}], "chains": [], "closed_bucket": "Unsure", "distance": 440, "geocodes": {"drop_off": {"latitude": 55.837956, "longitude": -4.177344}, "main": {"latitude": 55.837889, "longitude": -4.177147}, "roof": {"latitude": 55.837889, "longitude": -4.177147}}, "link": "/v3/places/6ea78be01a1f4a58b65a9e29", "location": {"address": "40 Colliery St, Clydegateway East", "admin_region": "Scotland", "country": "GB", "formatted_address": "40 Colliery St, Clydegateway East, Glasgow, G32 8SP", "locality": "Glasgow", "post_town": "Glasgow", "postcode": "G32 8SP"}, "name": "Eden Mill Brewery", "related_places": {}, "timezone": "Europe/London"}, {"fsq_id": "e8f76fce4bfc4e10ee1844e7", "categories": [{"id": 13145, "name": "Fast Food Restaurant", "short_name": "Fast Food", "plural_name": "Fast Food Restaurants", "icon": {"prefix": "https://ss3.4sqi.net/img/categories_v2/food/fastfood_", "suffix": ".png"}}], "chains": [], "closed_bucket": "VeryLikelyOpen", "distance": 658, "geocodes": {"main": {"latitude": 55.836073, "longitude": -4.159839}, "roof": {"latitude": 55.836073, "longitude": -4.159839}}, "link": "/v3/places/e8f76fce4bfc4e10ee1844e7", "location": {"address": "2224 London Rd", "address_extended": "Unit 3", "admin_region": "Scotland", "country": "GB", "formatted_address": "2224 London Rd, Glasgow, Glasgow City, G32 8YG", "locality": "Glasgow", "post_town": "Glasgow", "postcode": "G32 8YG", "region": "Glasgow City"}, "name": "Macarico", "related_places": {}, "timezone": "Europe/London"}, {"fsq_id": "5c1bf4b2aa6c95002c65f8c4", "categories": [{"id": 13051, "name": "Fish and Chips Shop", "short_name": "Fish and Chips Shop", "plural_name": "Fish and Chips Shops", "icon": {"prefix": "https://ss3.4sqi.net/img/categories_v2/food/fishandchips_", "suffix": ".png"}}, {"id": 13145, "name": "Fast Food Restaurant", "short_name": "Fast Food", "plural_name": "Fast Food Restaurants", "icon": {"prefix": "https://ss3.4sqi.net/img/categories_v2/food/fastfood_", "suffix": ".png"}}, {"id": 13236, "name": "Italian Restaurant", "short_name": "Italian", "plural_name": "Italian Restaurants", "icon": {"prefix": "https://ss3.4sqi.net/img/categories_v2/food/italian_", "suffix": ".png"}}], "chains": [], "closed_bucket": "Unsure", "distance": 669, "geocodes": {"main": {"latitude": 55.84329, "longitude": -4.170091}, "roof": {"latitude": 55.84329, "longitude": -4.170091}}, "link": "/v3/places/5c1bf4b2aa6c95002c65f8c4", "location": {"address": "1145 Tollcross Rd", "admin_region": "Scotland", "country": "GB", "cross_street": "", "formatted_address": "1145 Tollcross Rd, Glasgow, G32 8HB", "locality": "Glasgow", "post_town": "Glasgow", "postcode": "G32 8HB"}, "name": "Captain's Kitchen", "related_places": {}, "timezone": "Europe/London"}, {"fsq_id": "4c55b21130f92d7f241693bc", "categories": [{"id": 13145, "name": "Fast Food Restaurant", "short_name": "Fast Food", "plural_name": "Fast Food Restaurants", "icon": {"prefix": "https://ss3.4sqi.net/img/categories_v2/food/fastfood_", "suffix": ".png"}}, {"id": 13199, "name": "Indian Restaurant", "short_name": "Indian", "plural_name": "Indian Restaurants", "icon": {"prefix": "https://ss3.4sqi.net/img/categories_v2/food/indian_", "suffix": ".png"}}], "chains": [], "closed_bucket": "LikelyOpen", "distance": 677, "geocodes": {"main": {"latitude": 55.84329, "longitude": -4.170091}, "roof": {"latitude": 55.84329, "longitude": -4.170091}}, "link": "/v3/places/4c55b21130f92d7f241693bc", "location": {"address": "1145 Tollcross Rd", "admin_region": "Scotland", "country": "GB", "formatted_address": "1145 Tollcross Rd, Glasgow, Glasgow City, G32 8HB", "locality": "Glasgow", "post_town": "Glasgow", "postcode": "G32 8HB", "region": "Glasgow City"}, "name": "Ruby Murrys", "related_places": {}, "timezone": "Europe/London"}, {"fsq_id": "4f7ddc71e4b0a665d24a18d3", "categories": [{"id": 13018, "name": "Pub", "short_name": "Pub", "plural_name": "Pubs", "icon": {"prefix": "https://ss3.4sqi.net/img/categories_v2/nightlife/pub_", "suffix": ".png"}}], "chains": [], "closed_bucket": "VeryLikelyOpen", "distance": 679, "geocodes": {"drop_off": {"latitude": 55.843209, "longitude": -4.170472}, "main": {"latitude": 55.843376, "longitude": -4.170443}, "roof": {"latitude": 55.843376, "longitude": -4.170443}}, "link": "/v3/places/4f7ddc71e4b0a665d24a18d3", "location": {"admin_region": "Scotland", "country": "GB", "cross_street": "", "formatted_address": "G32 8HB", "post_town": "Harrogate", "postcode": "G32 8HB"}, "name": "The Kimberley", "related_places": {}, "timezone": "Europe/London"}, {"fsq_id": "4e4c09e66284a0b024baff9f", "categories": [{"id": 13065, "name": "Restaurant", "short_name": "Restaurant", "plural_name": "Restaurants", "icon": {"prefix": "https://ss3.4sqi.net/img/categories_v2/food/default_", "suffix": ".png"}}], "chains": [], "closed_bucket": "LikelyOpen", "distance": 716, "geocodes": {"drop_off": {"latitude": 55.843427, "longitude": -4.171767}, "main": {"latitude": 55.843566, "longitude": -4.171744}, "roof": {"latitude": 55.843566, "longitude": -4.171744}}, "link": "/v3/places/4e4c09e66284a0b024baff9f", "location": {"address": "1100 Tollcross Rd", "admin_region": "Scotland", "country": "GB", "cross_street": "", "formatted_address": "1100 Tollcross Rd, Glasgow, Glasgow City", "locality": "Glasgow", "post_town": "Glasgow", "region": "Glasgow City"}, "name": "Captain Ruby's", "related_places": {}, "timezone": "Europe/London"}, {"fsq_id": "e629b0fced8c43c005af6493", "categories": [{"id": 13065, "name": "Restaurant", "short_name": "Restaurant", "plural_name": "Restaurants", "icon": {"prefix": "https://ss3.4sqi.net/img/categories_v2/food/default_", "suffix": ".png"}}], "chains": [], "closed_bucket": "LikelyOpen", "distance": 729, "geocodes": {"main": {"latitude": 55.843645, "longitude": -4.172201}, "roof": {"latitude": 55.843645, "longitude": -4.172201}}, "link": "/v3/places/e629b0fced8c43c005af6493", "location": {"address": "1077 Tollcross Rd", "admin_region": "Scotland", "country": "GB", "formatted_address": "1077 Tollcross Rd, Glasgow, G32 8UQ", "locality": "Glasgow", "post_town": "Glasgow", "postcode": "G32 8UQ"}, "name": "The Sizzler", "related_places": {}, "timezone": "Europe/London"}, {"fsq_id": "4d3a028f34ee3704d5ca729b", "categories": [{"id": 13003, "name": "Bar", "short_name": "Bar", "plural_name": "Bars", "icon": {"prefix": "https://ss3.4sqi.net/img/categories_v2/nightlife/pub_", "suffix": ".png"}}], "chains": [], "closed_bucket": "VeryLikelyOpen", "distance": 780, "geocodes": {"main": {"latitude": 55.830308, "longitude": -4.171468}, "roof": {"latitude": 55.830308, "longitude": -4.171468}}, "link": "/v3/places/4d3a028f34ee3704d5ca729b", "location": {"address": "Cambuslang Gate", "country": "GB", "cross_street": "cambuslang", "formatted_address": "Cambuslang Gate (cambuslang), South Lanarkshire", "locality": "South Lanarkshire", "post_town": "Glasgow", "region": "South Lanarkshire"}, "name": "The cambus", "related_places": {}, "timezone": "Europe/London"}, {"fsq_id": "511a8368e4b0acbffb5168d0", "categories": [{"id": 13003, "name": "Bar", "short_name": "Bar", "plural_name": "Bars", "icon": {"prefix": "https://ss3.4sqi.net/img/categories_v2/nightlife/pub_", "suffix": ".png"}}], "chains": [], "closed_bucket": "VeryLikelyOpen", "distance": 791, "geocodes": {"main": {"latitude": 55.843776, "longitude": -4.174551}, "roof": {"latitude": 55.843776, "longitude": -4.174551}}, "link": "/v3/places/511a8368e4b0acbffb5168d0", "location": {"country": "GB", "cross_street": "", "formatted_address": ""}, "name": "The Bell's", "related_places": {}, "timezone": "Europe/London"}, {"fsq_id": "6c255a2b3bb84b43cc041420", "categories": [{"id": 13030, "name": "Buffet", "short_name": "Buffet", "plural_name": "Buffets", "icon": {"prefix": "https://ss3.4sqi.net/img/categories_v2/food/default_", "suffix": ".png"}}], "chains": [], "closed_bucket": "VeryLikelyOpen", "distance": 796, "geocodes": {"drop_off": {"latitude": 55.84382, "longitude": -4.174033}, "main": {"latitude": 55.844018, "longitude": -4.173997}, "roof": {"latitude": 55.844018, "longitude": -4.173997}}, "link": "/v3/places/6c255a2b3bb84b43cc041420", "location": {"address": "999 Tollcross Rd", "admin_region": "Scotland", "country": "GB", "formatted_address": "999 Tollcross Rd, Glasgow, Glasgow City, G32 8UU", "locality": "Glasgow", "post_town": "Glasgow", "postcode": "G32 8UU", "region": "Glasgow City"}, "name": "Buffet King", "related_places": {}, "timezone": "Europe/London"}, {"fsq_id": "e1ca1c53834e4d38118c09e1", "categories": [{"id": 13065, "name": "Restaurant", "short_name": "Restaurant", "plural_name": "Restaurants", "icon": {"prefix": "https://ss3.4sqi.net/img/categories_v2/food/default_", "suffix": ".png"}}], "chains": [], "closed_bucket": "LikelyOpen", "distance": 77, "geocodes": {"main": {"latitude": 55.83664, "longitude": -4.16941}, "roof": {"latitude": 55.83664, "longitude": -4.16941}}, "link": "/v3/places/e1ca1c53834e4d38118c09e1", "location": {"address": "Westhorn Dr, East Investment Park", "admin_region": "Scotland", "country": "GB", "formatted_address": "Westhorn Dr, East Investment Park, Glasgow, G32 8YX", "locality": "Glasgow", "post_town": "Glasgow", "postcode": "G32 8YX"}, "name": "KFC Glasgow London Road Dt", "related_places": {}}, {"fsq_id": "0ce373089faf4ffaf24009a0", "categories": [{"id": 13145, "name": "Fast Food Restaurant", "short_name": "Fast Food", "plural_name": "Fast Food Restaurants", "icon": {"prefix": "https://ss3.4sqi.net/img/categories_v2/food/fastfood_", "suffix": ".png"}}], "chains": [], "closed_bucket": "Unsure", "distance": 78, "geocodes": {"main": {"latitude": 55.836579, "longitude": -4.169548}, "roof": {"latitude": 55.836579, "longitude": -4.169548}}, "link": "/v3/places/0ce373089faf4ffaf24009a0", "location": {"address": "10 Westhorn Dr", "admin_region": "Scotland", "country": "GB", "formatted_address": "10 Westhorn Dr, Glasgow, G32 8YX", "locality": "Glasgow", "post_town": "Glasgow", "postcode": "G32 8YX"}, "name": "Kfc London Road", "related_places": {}}, {"fsq_id": "f4b9438f84194446ae632e6a", "categories": [{"id": 13035, "name": "Coffee Shop", "short_name": "Coffee Shop", "plural_name": "Coffee Shops", "icon": {"prefix": "https://ss3.4sqi.net/img/categories_v2/food/coffeeshop_", "suffix": ".png"}}, {"id": 13236, "name": "Italian Restaurant", "short_name": "Italian", "plural_name": "Italian Restaurants", "icon": {"prefix": "https://ss3.4sqi.net/img/categories_v2/food/italian_", "suffix": ".png"}}], "chains": [], "closed_bucket": "LikelyOpen", "distance": 681, "geocodes": {"drop_off": {"latitude": 55.842867, "longitude": -4.166122}, "main": {"latitude": 55.842792, "longitude": -4.165841}, "roof": {"latitude": 55.842792, "longitude": -4.165841}}, "link": "/v3/places/f4b9438f84194446ae632e6a", "location": {"admin_region": "Scotland", "country": "GB", "formatted_address": "G32 7TW", "post_town": "Glasgow", "postcode": "G32 7TW"}, "name": "Cafe olive tollcross", "related_places": {}}, {"fsq_id": "090d213d197b44e7a14b156d", "categories": [{"id": 13145, "name": "Fast Food Restaurant", "short_name": "Fast Food", "plural_name": "Fast Food Restaurants", "icon": {"prefix": "https://ss3.4sqi.net/img/categories_v2/food/fastfood_", "suffix": ".png"}}], "chains": [], "closed_bucket": "VeryLikelyOpen", "distance": 995, "geocodes": {"drop_off": {"latitude": 55.828579, "longitude": -4.170924}, "main": {"latitude": 55.828227, "longitude": -4.171024}, "roof": {"latitude": 55.828227, "longitude": -4.171024}}, "link": "/v3/places/090d213d197b44e7a14b156d", "location": {"address": "Clydesmill Rd Cambuslang inv park", "country": "GB", "formatted_address": "Clydesmill Rd Cambuslang inv park, Glasgow", "locality": "Glasgow", "post_town": "Glasgow"}, "name": "The Food Stop Cambuslang", "related_places": {}}], "context": {"geo_bounds": {"circle": {"center": {"latitude": 55.837175, "longitude": -4.170209}, "radius": 1000}}}}