{"results": [{"fsq_id": "4b4def09f964a5207adb26e3", "categories": [{"id": 13029, "name": "Brewery", "short_name": "Brewery", "plural_name": "Breweries", "icon": {"prefix": "https://ss3.4sqi.net/img/categories_v2/food/brewery_", "suffix": ".png"}}, {"id": 13003, "name": "Bar", "short_name": "Bar", "plural_name": "Bars", "icon": {"prefix": "https://ss3.4sqi.net/img/categories_v2/nightlife/pub_", "suffix": ".png"}}], "chains": [], "closed_bucket": "VeryLikelyOpen", "distance": 491, "geocodes": {"main": {"latitude": 55.850907, "longitude": -4.233765}, "roof": {"latitude": 55.850907, "longitude": -4.233765}}, "link": "/v3/places/4b4def09f964a5207adb26e3", "location": {"address": "Templeton Building, Glasgow Green", "address_extended": "Building 4", "admin_region": "Scotland", "country": "GB", "cross_street": "1 The Green", "formatted_address": "Templeton Building, Glasgow Green (1 The Green), Glasgow, Glasgow City, G40 1AW", "locality": "Glasgow", "post_town": "Glasgow", "postcode": "G40 1AW", "region": "Glasgow City"}, "name": "WEST Brewery, Bar & Restaurant", "related_places": {"parent": {"fsq_id": "4c0628d45753c92875743af1", "categories": [{"id": 11021, "name": "Business Center", "short_name": "Business Center", "plural_name": "Business Centers", "icon": {"prefix": "https://ss3.4sqi.net/img/categories_v2/building/default_", "suffix": ".png"}}], "name": "Templeton Business Centre"}}, "timezone": "Europe/London"}, {"fsq_id": "55e8a27d498edabc99273e53", "categories": [{"id": 10039, "name": "Music Venue", "short_name": "Music Venue", "plural_name": "Music Venues", "icon": {"prefix": "https://ss3.4sqi.net/img/categories_v2/arts_entertainment/musicvenue_", "suffix": ".png"}}, {"id": 13003, "name": "Bar", "short_name": "Bar", "plural_name": "Bars", "icon": {"prefix": "https://ss3.4sqi.net/img/categories_v2/nightlife/pub_", "suffix": ".png"}}], "chains": [], "closed_bucket": "VeryLikelyOpen", "distance": 807, "geocodes": {"main": {"latitude": 55.854651, "longitude": -4.234613}, "roof": {"latitude": 55.854651, "longitude": -4.234613}}, "link": "/v3/places/55e8a27d498edabc99273e53", "location": {"address": "17 Bain Square", "admin_region": "Scotland", "country": "GB", "cross_street": "", "formatted_address": "17 Bain Square, Glasgow, Glasgow City, G40 2JZ", "locality": "Glasgow", "post_town": "Glasgow", "postcode": "G40 2JZ", "region": "Glasgow City"}, "name": "Saint Luke\u2019s", "related_places": {"children": []}, "timezone": "Europe/London"}, {"fsq_id": "556f0774498e650bbe6a8e1a", "categories": [{"id": 13051, "name": "Fish and Chips Shop", "short_name": "Fish and Chips Shop", "plural_name": "Fish and Chips Shops", "icon": {"prefix": "https://ss3.4sqi.net/img/categories_v2/food/fishandchips_", "suffix": ".png"}}], "chains": [], "closed_bucket": "LikelyOpen", "distance": 15, "geocodes": {"main": {"latitude": 55.849025, "longitude": -4.227019}, "roof": {"latitude": 55.849025, "longitude": -4.227019}}, "link": "/v3/places/556f0774498e650bbe6a8e1a", "location": {"address": "14 Bridgeton Cross", "admin_region": "Scotland", "country": "GB", "cross_street": "", "formatted_address": "14 Bridgeton Cross, Glasgow, G40 1BW", "locality": "Glasgow", "post_town": "Glasgow", "postcode": "G40 1BW"}, "name": "Blue Bay Fish & Chip Shop", "related_places": {}, "timezone": "Europe/London"}, {"fsq_id": "5247123111d2870c180bb35e", "categories": [{"id": 13051, "name": "Fish and Chips Shop", "short_name": "Fish and Chips Shop", "plural_name": "Fish and Chips Shops", "icon": {"prefix": "https://ss3.4sqi.net/img/categories_v2/food/fishandchips_", "suffix": ".png"}}], "chains": [], "closed_bucket": "VeryLikelyOpen", "distance": 55, "geocodes": {"main": {"latitude": 55.848478, "longitude": -4.226442}, "roof": {"latitude": 55.848478, "longitude": -4.226442}}, "link": "/v3/places/5247123111d2870c180bb35e", "location": {"country": "GB", "cross_street": "", "formatted_address": ""}, "name": "The Continental", "related_places": {}, "timezone": "Europe/London"}, {"fsq_id": "4d8cc8c25091a1cd92626801", "categories": [{"id": 13018, "name": "Pub", "short_name": "Pub", "plural_name": "Pubs", "icon": {"prefix": "https://ss3.4sqi.net/img/categories_v2/nightlife/pub_", "suffix": ".png"}}], "chains": [], "closed_bucket": "Unsure", "distance": 123, "geocodes": {"main": {"latitude": 55.849699, "longitude": -4.228125}, "roof": {"latitude": 55.849699, "longitude": -4.228125}}, "link": "/v3/places/4d8cc8c25091a1cd92626801", "location": {"address": "577 London Rd", "admin_region": "Scotland", "country": "GB", "cross_street": "", "formatted_address": "577 London Rd, Glasgow, G40 1NE", "locality": "Glasgow", "post_town": "Glasgow", "postcode": "G40 1NE"}, "name": "The Crimson Star", "related_places": {}, "timezone": "Europe/London"}, {"fsq_id": "64d0d74e0d44494f33fdf36b", "categories": [{"id": 13003, "name": "Bar", "short_name": "Bar", "plural_name": "Bars", "icon": {"prefix": "https://ss3.4sqi.net/img/categories_v2/nightlife/pub_", "suffix": ".png"}}], "chains": [], "closed_bucket": "LikelyOpen", "distance": 132, "geocodes": {"main": {"latitude": 55.848064, "longitude": -4.225379}, "roof": {"latitude": 55.848064, "longitude": -4.225379}}, "link": "/v3/places/64d0d74e0d44494f33fdf36b", "location": {"address": "46 Dalmarnock Rd", "admin_region": "Scotland", "country": "GB", "formatted_address": "46 Dalmarnock Rd, Glasgow, G40 4AB", "locality": "Glasgow", "post_town": "Glasgow", "postcode": "G40 4AB"}, "name": "Dominion Bar", "related_places": {}, "timezone": "Europe/London"}, {"fsq_id": "4e1c07aac65be9fffd781d21", "categories": [{"id": 13018, "name": "Pub", "short_name": "Pub", "plural_name": "Pubs", "icon": {"prefix": "https://ss3.4sqi.net/img/categories_v2/nightlife/pub_", "suffix": ".png"}}], "chains": [], "closed_bucket": "VeryLikelyOpen", "distance": 254, "geocodes": {"main": {"latitude": 55.846555, "longitude": -4.22691}, "roof": {"latitude": 55.846555, "longitude": -4.22691}}, "link": "/v3/places/4e1c07aac65be9fffd781d21", "location": {"country": "GB", "cross_street": "", "formatted_address": "Glasgow, Glasgow City", "locality": "Glasgow", "post_town": "Glasgow", "region": "Glasgow City"}, "name": "The Scottsman Pub", "related_places": {}, "timezone": "Europe/London"}, {"fsq_id": "4d4c5e3e9bbb721e532692a0", "categories": [{"id": 13145, "name": "Fast Food Restaurant", "short_name": "Fast Food", "plural_name": "Fast Food Restaurants", "icon": {"prefix": "https://ss3.4sqi.net/img/categories_v2/food/fastfood_", "suffix": ".png"}}], "chains": [], "closed_bucket": "VeryLikelyOpen", "distance": 261, "geocodes": {"main": {"latitude": 55.846804, "longitude": -4.227163}, "roof": {"latitude": 55.846804, "longitude": -4.227163}}, "link": "/v3/places/4d4c5e3e9bbb721e532692a0", "location": {"address": "4 Tullis St", "admin_region": "Scotland", "country": "GB", "cross_street": "", "formatted_address": "4 Tullis St, Glasgow, G40 1HN", "locality": "Glasgow", "post_town": "Glasgow", "postcode": "G40 1HN"}, "name": "Curry Express", "related_places": {}, "timezone": "Europe/London"}, {"fsq_id": "590f1245b1ec1359a67a771d", "categories": [{"id": 13039, "name": "Deli", "short_name": "Deli", "plural_name": "Delis", "icon": {"prefix": "https://ss3.4sqi.net/img/categories_v2/food/deli_", "suffix": ".png"}}], "chains": [], "closed_bucket": "VeryLikelyOpen", "distance": 356, "geocodes": {"main": {"latitude": 55.849443, "longitude": -4.232635}, "roof": {"latitude": 55.849443, "longitude": -4.232635}}, "link": "/v3/places/590f1245b1ec1359a67a771d", "location": {"country": "GB", "cross_street": "", "formatted_address": ""}, "name": "Samantha's", "related_places": {}, "timezone": "Europe/London"}, {"fsq_id": "4cc8f7b2b3f5224bfa2ef220", "categories": [{"id": 13022, "name": "Sports Bar", "short_name": "Sports Bar", "plural_name": "Sports Bars", "icon": {"prefix": "https://ss3.4sqi.net/img/categories_v2/nightlife/sportsbar_", "suffix": ".png"}}], "chains": [], "closed_bucket": "VeryLikelyOpen", "distance": 363, "geocodes": {"drop_off": {"latitude": 55.851049, "longitude": -4.221582}, "main": {"latitude": 55.850833, "longitude": -4.222064}, "roof": {"latitude": 55.850833, "longitude": -4.222064}}, "link": "/v3/places/4cc8f7b2b3f5224bfa2ef220", "location": {"address": "Duke St", "country": "GB", "cross_street": "", "formatted_address": "Duke St, Glasgow, Glasgow City", "locality": "Glasgow", "post_town": "Glasgow", "region": "Glasgow City"}, "name": "The the Louden Tavern", "related_places": {}, "timezone": "Europe/London"}, {"fsq_id": "4e416f3cb0fb1399f6ec9063", "categories": [{"id": 13003, "name": "Bar", "short_name": "Bar", "plural_name": "Bars", "icon": {"prefix": "https://ss3.4sqi.net/img/categories_v2/nightlife/pub_", "suffix": ".png"}}], "chains": [], "closed_bucket": "LikelyOpen", "distance": 557, "geocodes": {"main": {"latitude": 55.851628, "longitude": -4.233121}, "roof": {"latitude": 55.851628, "longitude": -4.233121}}, "link": "/v3/places/4e416f3cb0fb1399f6ec9063", "location": {"address": "415 London Rd", "admin_region": "Scotland", "country": "GB", "cross_street": "", "formatted_address": "415 London Rd, Glasgow, Glasgow City, G40 1AG", "locality": "Glasgow", "post_town": "Glasgow", "postcode": "G40 1AG", "region": "Glasgow City"}, "name": "The Calton Bar", "related_places": {}, "timezone": "Europe/London"}, {"fsq_id": "5158ac39e4b044dc82df73b3", "categories": [{"id": 13065, "name": "Restaurant", "short_name": "Restaurant", "plural_name": "Restaurants", "icon": {"prefix": "https://ss3.4sqi.net/img/categories_v2/food/default_", "suffix": ".png"}}, {"id": 16030, "name": "Other Great Outdoors", "short_name": "Other Outdoors", "plural_name": "Other Great Outdoors", "icon": {"prefix": "https://ss3.4sqi.net/img/categories_v2/parks_outdoors/outdoors_", "suffix": ".png"}}], "chains": [], "closed_bucket": "VeryLikelyOpen", "distance": 581, "geocodes": {"main": {"latitude": 55.844016, "longitude": -4.229882}, "roof": {"latitude": 55.844016, "longitude": -4.229882}}, "link": "/v3/places/5158ac39e4b044dc82df73b3", "location": {"admin_region": "England", "country": "GB", "cross_street": "", "formatted_address": "", "post_town": "Lincoln"}, "name": "Tam 'O' Shanter", "related_places": {}, "timezone": "Europe/London"}, {"fsq_id": "5638ff6c60b2753ece75b668", "categories": [{"id": 13051, "name": "Fish and Chips Shop", "short_name": "Fish and Chips Shop", "plural_name": "Fish and Chips Shops", "icon": {"prefix": "https://ss3.4sqi.net/img/categories_v2/food/fishandchips_", "suffix": ".png"}}, {"id": 17057, "name": "Food and Beverage Retail", "short_name": "Food & Beverage", "plural_name": "Food and Beverage Retail", "icon": {"prefix": "https://ss3.4sqi.net/img/categories_v2/shops/foodanddrink_", "suffix": ".png"}}], "chains": [], "closed_bucket": "VeryLikelyOpen", "distance": 710, "geocodes": {"drop_off": {"latitude": 55.854868, "longitude": -4.222665}, "main": {"latitude": 55.855014, "longitude": -4.222644}, "roof": {"latitude": 55.855014, "longitude": -4.222644}}, "link": "/v3/places/5638ff6c60b2753ece75b668", "location": {"address": "591 Gallowgate", "admin_region": "Scotland", "country": "GB", "formatted_address": "591 Gallowgate, Glasgow, G40 2PE", "locality": "Glasgow", "post_town": "Glasgow", "postcode": "G40 2PE"}, "name": "Atlantis", "related_places": {}, "timezone": "Europe/London"}, {"fsq_id": "65192048632246280f5cf5bb", "categories": [{"id": 13003, "name": "Bar", "short_name": "Bar", "plural_name": "Bars", "icon": {"prefix": "https://ss3.4sqi.net/img/categories_v2/nightlife/pub_", "suffix": ".png"}}], "chains": [], "closed_bucket": "Unsure", "distance": 741, "geocodes": {"main": {"latitude": 55.843834, "longitude": -4.21916}, "roof": {"latitude": 55.843834, "longitude": -4.21916}}, "link": "/v3/places/65192048632246280f5cf5bb", "location": {"address": "148-152 Old Dalmarnock Rd", "admin_region": "Scotland", "country": "GB", "formatted_address": "148-152 Old Dalmarnock Rd, Glasgow, G40 4LH", "locality": "Glasgow", "post_town": "Glasgow", "postcode": "G40 4LH"}, "name": "Hayfield Bar", "related_places": {}, "timezone": "Europe/London"}, {"fsq_id": "4e9b25d24690c213355976c5", "categories": [{"id": 10037, "name": "Concert Hall", "short_name": "Concert Hall", "plural_name": "Concert Halls", "icon": {"prefix": "https://ss3.4sqi.net/img/categories_v2/arts_entertainment/musicvenue_", "suffix": ".png"}}, {"id": 13022, "name": "Sports Bar", "short_name": "Sports Bar", "plural_name": "Sports Bars", "icon": {"prefix": "https://ss3.4sqi.net/img/categories_v2/nightlife/sportsbar_", "suffix": ".png"}}], "chains": [], "closed_bucket": "VeryLikelyOpen", "distance": 820, "geocodes": {"main": {"latitude": 55.855608, "longitude": -4.23261}, "roof": {"latitude": 55.855608, "longitude": -4.23261}}, "link": "/v3/places/4e9b25d24690c213355976c5", "location": {"address": "36-40 Stevenson St West", "admin_region": "Scotland", "country": "GB", "cross_street": "", "formatted_address": "36-40 Stevenson St West, Glasgow, G40 2ST", "locality": "Glasgow", "post_town": "Glasgow", "postcode": "G40 2ST"}, "name": "Squirrel Bar", "related_places": {}, "timezone": "Europe/London"}, {"fsq_id": "22f927241c1e4bc2c9a1ed9c", "categories": [{"id": 13338, "name": "Seafood Restaurant", "short_name": "Seafood", "plural_name": "Seafood Restaurants", "icon": {"prefix": "https://ss3.4sqi.net/img/categories_v2/food/seafood_", "suffix": ".png"}}], "chains": [], "closed_bucket": "VeryLikelyOpen", "distance": 879, "geocodes": {"main": {"latitude": 55.854526, "longitude": -4.236816}, "roof": {"latitude": 55.854526, "longitude": -4.236816}}, "link": "/v3/places/22f927241c1e4bc2c9a1ed9c", "location": {"address": "54 Calton Entry", "admin_region": "Scotland", "country": "GB", "formatted_address": "54 Calton Entry, Glasgow, G40 2SB", "locality": "Glasgow", "post_town": "Glasgow", "postcode": "G40 2SB"}, "name": "A'challtainn Fish Restaurant & Bar", "related_places": {}, "timezone": "Europe/London"}, {"fsq_id": "5b2a79fd82a750002c9d5139", "categories": [{"id": 13199, "name": "Indian Restaurant", "short_name": "Indian", "plural_name": "Indian Restaurants", "icon": {"prefix": "https://ss3.4sqi.net/img/categories_v2/food/indian_", "suffix": ".png"}}], "chains": [], "closed_bucket": "LikelyOpen", "distance": 901, "geocodes": {"main": {"latitude": 55.855495, "longitude": -4.235514}, "roof": {"latitude": 55.855495, "longitude": -4.235514}}, "link": "/v3/places/5b2a79fd82a750002c9d5139", "location": {"address": "279 Gallowgate", "admin_region": "Scotland", "country": "GB", "cross_street": "", "formatted_address": "279 Gallowgate, Glasgow, G4 0TR", "locality": "Glasgow", "post_town": "Glasgow", "postcode": "G4 0TR"}, "name": "Bombay Bad Boy", "related_places": {}, "timezone": "Europe/London"}, {"fsq_id": "09706c86d5354117b1d0cfbb", "categories": [{"id": 13003, "name": "Bar", "short_name": "Bar", "plural_name": "Bars", "icon": {"prefix": "https://ss3.4sqi.net/img/categories_v2/nightlife/pub_", "suffix": ".png"}}], "chains": [], "closed_bucket": "Unsure", "distance": 901, "geocodes": {"main": {"latitude": 55.855205, "longitude": -4.235996}, "roof": {"latitude": 55.855205, "longitude": -4.235996}}, "link": "/v3/places/09706c86d5354117b1d0cfbb", "location": {"address": "258 Gallowgate", "admin_region": "Scotland", "country": "GB", "formatted_address": "258 Gallowgate, Glasgow, G4 0TU", "locality": "Glasgow", "post_town": "Glasgow", "postcode": "G4 0TU"}, "name": "Waterlock", "related_places": {}, "timezone": "Europe/London"}, {"fsq_id": "53f3bb6f498e257ee8cb8615", "categories": [{"id": 13145, "name": "Fast Food Restaurant", "short_name": "Fast Food", "plural_name": "Fast Food Restaurants", "icon": {"prefix": "https://ss3.4sqi.net/img/categories_v2/food/fastfood_", "suffix": ".png"}}, {"id": 13199, "name": "Indian Restaurant", "short_name": "Indian", "plural_name": "Indian Restaurants", "icon": {"prefix": "https://ss3.4sqi.net/img/categories_v2/food/indian_", "suffix": ".png"}}], "chains": [], "closed_bucket": "VeryLikelyOpen", "distance": 921, "geocodes": {"main": {"latitude": 55.855545, "longitude": -4.236496}, "roof": {"latitude": 55.855545, "longitude": -4.236496}}, "link": "/v3/places/53f3bb6f498e257ee8cb8615", "location": {"address": "253 Gallowgate", "admin_region": "Scotland", "country": "GB", "cross_street": "", "formatted_address": "253 Gallowgate, Glasgow, G4 0TP", "locality": "Glasgow", "post_town": "Glasgow", "postcode": "G4 0TP"}, "name": "Dannys Fast Food", "related_places": {}, "timezone": "Europe/London"}, {"fsq_id": "654378cbb2ee4d190a6aba1a", "categories": [{"id": 10037, "name": "Concert Hall", "short_name": "Concert Hall", "plural_name": "Concert Halls", "icon": {"prefix": "https://ss3.4sqi.net/img/categories_v2/arts_entertainment/musicvenue_", "suffix": ".png"}}, {"id": 10039, "name": "Music Venue", "short_name": "Music Venue", "plural_name": "Music Venues", "icon": {"prefix": "https://ss3.4sqi.net/img/categories_v2/arts_entertainment/musicvenue_", "suffix": ".png"}}, {"id": 13003, "name": "Bar", "short_name": "Bar", "plural_name": "Bars", "icon": {"prefix": "https://ss3.4sqi.net/img/categories_v2/nightlife/pub_", "suffix": ".png"}}], "chains": [], "closed_bucket": "Unsure", "distance": 923, "geocodes": {"main": {"latitude": 55.855229, "longitude": -4.236487}, "roof": {"latitude": 55.855229, "longitude": -4.236487}}, "link": "/v3/places/654378cbb2ee4d190a6aba1a", "location": {"address": "244 Gallowgate", "admin_region": "Scotland", "country": "GB", "formatted_address": "244 Gallowgate, Glasgow, G4 0TT", "locality": "Glasgow", "post_town": "Glasgow", "postcode": "G4 0TT"}, "name": "Margaret Mciver", "related_places": {}, "timezone": "Europe/London"}, {"fsq_id": "53cc2fb5498e10c40b24046b", "categories": [{"id": 13003, "name": "Bar", "short_name": "Bar", "plural_name": "Bars", "icon": {"prefix": "https://ss3.4sqi.net/img/categories_v2/nightlife/pub_", "suffix": ".png"}}], "chains": [], "closed_bucket": "VeryLikelyOpen", "distance": 924, "geocodes": {"main": {"latitude": 55.85463, "longitude": -4.237765}, "roof": {"latitude": 55.85463, "longitude": -4.237765}}, "link": "/v3/places/53cc2fb5498e10c40b24046b", "location": {"address": "35 Kent St", "admin_region": "Scotland", "country": "GB", "cross_street": "", "formatted_address": "35 Kent St, Glasgow, G40 2SR", "locality": "Glasgow", "po_box": "P.O. Box 35", "post_town": "Glasgow", "postcode": "G40 2SR"}, "name": "The Traders Tavern", "related_places": {}, "timezone": "Europe/London"}, {"fsq_id": "564e2f83498e080c4c1a8508", "categories": [{"id": 13030, "name": "Buffet", "short_name": "Buffet", "plural_name": "Buffets", "icon": {"prefix": "https://ss3.4sqi.net/img/categories_v2/food/default_", "suffix": ".png"}}, {"id": 13145, "name": "Fast Food Restaurant", "short_name": "Fast Food", "plural_name": "Fast Food Restaurants", "icon": {"prefix": "https://ss3.4sqi.net/img/categories_v2/food/fastfood_", "suffix": ".png"}}, {"id": 13199, "name": "Indian Restaurant", "short_name": "Indian", "plural_name": "Indian Restaurants", "icon": {"prefix": "https://ss3.4sqi.net/img/categories_v2/food/indian_", "suffix": ".png"}}], "chains": [], "closed_bucket": "LikelyOpen", "distance": 935, "geocodes": {"main": {"latitude": 55.854164, "longitude": -4.238557}, "roof": {"latitude": 55.854164, "longitude": -4.238557}}, "link": "/v3/places/564e2f83498e080c4c1a8508", "location": {"address": "186 London Rd", "admin_region": "Scotland", "country": "GB", "cross_street": "London Road", "formatted_address": "186 London Rd (London Road), Glasgow, G40 1PB", "locality": "Glasgow", "post_town": "Glasgow", "postcode": "G40 1PB"}, "name": "Spicy Fusion", "related_places": {}, "timezone": "Europe/London"}, {"fsq_id": "58fb5afa356b4972b023ab90", "categories": [{"id": 13337, "name": "Scottish Restaurant", "short_name": "Scottish", "plural_name": "Scottish Restaurants", "icon": {"prefix": "https://ss3.4sqi.net/img/categories_v2/food/default_", "suffix": ".png"}}], "chains": [], "closed_bucket": "VeryLikelyOpen", "distance": 939, "geocodes": {"drop_off": {"latitude": 55.855414, "longitude": -4.23692}, "main": {"latitude": 55.855151, "longitude": -4.23694}, "roof": {"latitude": 55.855151, "longitude": -4.23694}}, "link": "/v3/places/58fb5afa356b4972b023ab90", "location": {"address": "54 Calton Entry", "admin_region": "Scotland", "country": "GB", "cross_street": "", "formatted_address": "54 Calton Entry, Glasgow, Glasgow City, G4 0TS", "locality": "Glasgow", "post_town": "Glasgow", "postcode": "G4 0TS", "region": "Glasgow City"}, "name": "A'challatainn", "related_places": {"parent": {"fsq_id": "511a265872da1c03f5993304", "categories": [{"id": 10000, "name": "Arts and Entertainment", "short_name": "Arts & Entertainment", "plural_name": "Arts and Entertainment", "icon": {"prefix": "https://ss3.4sqi.net/img/categories_v2/arts_entertainment/default_", "suffix": ".png"}}], "name": "Barras Art and Design"}}, "timezone": "Europe/London"}, {"fsq_id": "4d3ad5db49cb236af2e7bd47", "categories": [{"id": 13003, "name": "Bar", "short_name": "Bar", "plural_name": "Bars", "icon": {"prefix": "https://ss3.4sqi.net/img/categories_v2/nightlife/pub_", "suffix": ".png"}}], "chains": [], "closed_bucket": "VeryLikelyOpen", "distance": 941, "geocodes": {"main": {"latitude": 55.855551, "longitude": -4.236391}, "roof": {"latitude": 55.855551, "longitude": -4.236391}}, "link": "/v3/places/4d3ad5db49cb236af2e7bd47", "location": {"address": "257 Gallowgate", "admin_region": "Scotland", "country": "GB", "cross_street": "", "formatted_address": "257 Gallowgate, Glasgow, Glasgow City, G40 2EF", "locality": "Glasgow", "post_town": "Glasgow", "postcode": "G40 2EF", "region": "Glasgow City"}, "name": "Bar 67", "related_places": {}, "timezone": "Europe/London"}, {"fsq_id": "395eca24888b4cdc323f15b5", "categories": [{"id": 13065, "name": "Restaurant", "short_name": "Restaurant", "plural_name": "Restaurants", "icon": {"prefix": "https://ss3.4sqi.net/img/categories_v2/food/default_", "suffix": ".png"}}], "chains": [], "closed_bucket": "VeryLikelyOpen", "distance": 950, "geocodes": {"drop_off": {"latitude": 55.855383, "longitude": -4.236509}, "main": {"latitude": 55.855545, "longitude": -4.236496}, "roof": {"latitude": 55.855545, "longitude": -4.236496}}, "link": "/v3/places/395eca24888b4cdc323f15b5", "location": {"address": "253 Gallow Gate", "admin_region": "Scotland", "country": "GB", "formatted_address": "253 Gallow Gate, Glasgow, Glasgow City", "locality": "Glasgow", "post_town": "Glasgow", "region": "Glasgow City"}, "name": "American Pizza co", "related_places": {}, "timezone": "Europe/London"}, {"fsq_id": "4f341989e4b0475137c794a6", "categories": [{"id": 10000, "name": "Arts and Entertainment", "short_name": "Arts & Entertainment", "plural_name": "Arts and Entertainment", "icon": {"prefix": "https://ss3.4sqi.net/img/categories_v2/arts_entertainment/default_", "suffix": ".png"}}, {"id": 13018, "name": "Pub", "short_name": "Pub", "plural_name": "Pubs", "icon": {"prefix": "https://ss3.4sqi.net/img/categories_v2/nightlife/pub_", "suffix": ".png"}}, {"id": 13022, "name": "Sports Bar", "short_name": "Sports Bar", "plural_name": "Sports Bars", "icon": {"prefix": "https://ss3.4sqi.net/img/categories_v2/nightlife/sportsbar_", "suffix": ".png"}}], "chains": [], "closed_bucket": "LikelyOpen", "distance": 952, "geocodes": {"main": {"latitude": 55.855539, "longitude": -4.236601}, "roof": {"latitude": 55.855539, "longitude": -4.236601}}, "link": "/v3/places/4f341989e4b0475137c794a6", "location": {"address": "251 Gallowgate", "admin_region": "Scotland", "country": "GB", "cross_street": "", "formatted_address": "251 Gallowgate, Glasgow, Glasgow City, G4 0TP", "locality": "Glasgow", "post_town": "Glasgow", "postcode": "G4 0TP", "region": "Glasgow City"}, "name": "The Emerald Isle", "related_places": {}, "timezone": "Europe/London"}, {"fsq_id": "4d56eb0848ea6ea806c0e6a3", "categories": [{"id": 13003, "name": "Bar", "short_name": "Bar", "plural_name": "Bars", "icon": {"prefix": "https://ss3.4sqi.net/img/categories_v2/nightlife/pub_", "suffix": ".png"}}], "chains": [], "closed_bucket": "VeryLikelyOpen", "distance": 972, "geocodes": {"drop_off": {"latitude": 55.854646, "longitude": -4.23885}, "main": {"latitude": 55.854528, "longitude": -4.238638}, "roof": {"latitude": 55.854528, "longitude": -4.238638}}, "link": "/v3/places/4d56eb0848ea6ea806c0e6a3", "location": {"address": "Ross St", "country": "GB", "cross_street": "", "formatted_address": "Ross St, Glasgow, Glasgow City", "locality": "Glasgow", "post_town": "Glasgow", "region": "Glasgow City"}, "name": "Lynchs", "related_places": {}, "timezone": "Europe/London"}, {"fsq_id": "4ecff769e5faa5ec0246f890", "categories": [{"id": 13025, "name": "Wine Bar", "short_name": "Wine Bar", "plural_name": "Wine Bars", "icon": {"prefix": "https://ss3.4sqi.net/img/categories_v2/food/winery_", "suffix": ".png"}}], "chains": [], "closed_bucket": "LikelyOpen", "distance": 994, "geocodes": {"main": {"latitude": 55.855199, "longitude": -4.236101}, "roof": {"latitude": 55.855199, "longitude": -4.236101}}, "link": "/v3/places/4ecff769e5faa5ec0246f890", "location": {"address": "258 Gallowgate", "admin_region": "Scotland", "country": "GB", "cross_street": "", "formatted_address": "258 Gallowgate, Glasgow, Glasgow City, G4 0TU", "locality": "Glasgow", "post_town": "Glasgow", "postcode": "G4 0TU", "region": "Glasgow City"}, "name": "Cabin Bar", "related_places": {}, "timezone": "Europe/London"}, {"fsq_id": "5638ffaa60b2753ece75bbab", "categories": [{"id": 13145, "name": "Fast Food Restaurant", "short_name": "Fast Food", "plural_name": "Fast Food Restaurants", "icon": {"prefix": "https://ss3.4sqi.net/img/categories_v2/food/fastfood_", "suffix": ".png"}}], "chains": [], "closed_bucket": "LikelyOpen", "distance": 1000, "geocodes": {"drop_off": {"latitude": 55.855521, "longitude": -4.237879}, "main": {"latitude": 55.855413, "longitude": -4.237894}, "roof": {"latitude": 55.855413, "longitude": -4.237894}}, "link": "/v3/places/5638ffaa60b2753ece75bbab", "location": {"address": "212 Gallowgate", "admin_region": "Scotland", "country": "GB", "formatted_address": "212 Gallowgate, Glasgow, G1 5DS", "locality": "Glasgow", "post_town": "Glasgow", "postcode": "G1 5DS"}, "name": "Mexita", "related_places": {}, "timezone": "Europe/London"}, {"fsq_id": "513266efe4b02e87076911be", "categories": [{"id": 13003, "name": "Bar", "short_name": "Bar", "plural_name": "Bars", "icon": {"prefix": "https://ss3.4sqi.net/img/categories_v2/nightlife/pub_", "suffix": ".png"}}], "chains": [], "closed_bucket": "LikelyOpen", "distance": 1264, "geocodes": {"main": {"latitude": 55.854479, "longitude": -4.238566}, "roof": {"latitude": 55.854479, "longitude": -4.238566}}, "link": "/v3/places/513266efe4b02e87076911be", "location": {"address": "178-183 London Rd", "admin_region": "Scotland", "country": "GB", "cross_street": "", "formatted_address": "178-183 London Rd, Glasgow, G40 1PA", "locality": "Glasgow", "post_town": "Glasgow", "postcode": "G40 1PA"}, "name": "The Olde Burnt Barns", "related_places": {}, "timezone": "Europe/London"}, {"fsq_id": "e9d2a21f12f14dc6c39f5169", "categories": [{"id": 13025, "name": "Wine Bar", "short_name": "Wine Bar", "plural_name": "Wine Bars", "icon": {"prefix": "https://ss3.4sqi.net/img/categories_v2/food/winery_", "suffix": ".png"}}], "chains": [], "closed_bucket": "LikelyOpen", "distance": 85, "geocodes": {"drop_off": {"latitude": 55.849478, "longitude": -4.227618}, "main": {"latitude": 55.849571, "longitude": -4.227596}, "roof": {"latitude": 55.849571, "longitude": -4.227596}}, "link": "/v3/places/e9d2a21f12f14dc6c39f5169", "location": {"address": "603 London Rd", "admin_region": "Scotland", "country": "GB", "formatted_address": "603 London Rd, Glasgow, G40 1NE", "locality": "Glasgow", "post_town": "Glasgow", "postcode": "G40 1NE"}, "name": "The Station Bar", "related_places": {}}, {"fsq_id": "622857fb30d8456cee2cc819", "categories": [{"id": 11021, "name": "Business Center", "short_name": "Business Center", "plural_name": "Business Centers", "icon": {"prefix": "https://ss3.4sqi.net/img/categories_v2/building/default_", "suffix": ".png"}}, {"id": 11147, "name": "Commercial Real Estate Developer", "short_name": "Commercial Real Estate Developer", "plural_name": "Commercial Real Estate Developers", "icon": {"prefix": "https://ss3.4sqi.net/img/categories_v2/building/default_", "suffix": ".png"}}, {"id": 11149, "name": "Real Estate Agency", "short_name": "Real Estate", "plural_name": "Real Estate Agencies", "icon": {"prefix": "https://ss3.4sqi.net/img/categories_v2/shops/realestate_", "suffix": ".png"}}, {"id": 13065, "name": "Restaurant", "short_name": "Restaurant", "plural_name": "Restaurants", "icon": {"prefix": "https://ss3.4sqi.net/img/categories_v2/food/default_", "suffix": ".png"}}], "chains": [], "closed_bucket": "LikelyOpen", "distance": 231, "geocodes": {"main": {"latitude": 55.850587, "longitude": -4.224544}, "roof": {"latitude": 55.850587, "longitude": -4.224544}}, "link": "/v3/places/622857fb30d8456cee2cc819", "location": {"address": "47 Broad St", "admin_region": "Scotland", "country": "GB", "formatted_address": "47 Broad St, Glasgow, G40 2QW", "locality": "Glasgow", "post_town": "Glasgow", "postcode": "G40 2QW"}, "name": "Broad Street Business Complex", "related_places": {}}, {"fsq_id": "2427f6a237034e0149a68405", "categories": [{"id": 13064, "name": "Pizzeria", "short_name": "Pizza", "plural_name": "Pizzerias", "icon": {"prefix": "https://ss3.4sqi.net/img/categories_v2/food/pizza_", "suffix": ".png"}}, {"id": 13199, "name": "Indian Restaurant", "short_name": "Indian", "plural_name": "Indian Restaurants", "icon": {"prefix": "https://ss3.4sqi.net/img/categories_v2/food/indian_", "suffix": ".png"}}], "chains": [], "closed_bucket": "LikelyOpen", "distance": 339, "geocodes": {"drop_off": {"latitude": 55.845903, "longitude": -4.226727}, "main": {"latitude": 55.845893, "longitude": -4.226505}, "roof": {"latitude": 55.845893, "longitude": -4.226505}}, "link": "/v3/places/2427f6a237034e0149a68405", "location": {"address": "115 Main St", "country": "GB", "formatted_address": "115 Main St, Glasgow", "locality": "Glasgow", "post_town": "Glasgow"}, "name": "Sati express", "related_places": {}}, {"fsq_id": "1040b3b51d61ff3290837411", "categories": [{"id": 13065, "name": "Restaurant", "short_name": "Restaurant", "plural_name": "Restaurants", "icon": {"prefix": "https://ss3.4sqi.net/img/categories_v2/food/default_", "suffix": ".png"}}], "chains": [], "closed_bucket": "LikelyOpen", "distance": 339, "geocodes": {"drop_off": {"latitude": 55.845903, "longitude": -4.226727}, "main": {"latitude": 55.845893, "longitude": -4.226505}, "roof": {"latitude": 55.845893, "longitude": -4.226505}}, "link": "/v3/places/1040b3b51d61ff3290837411", "location": {"address": "115 Main St", "admin_region": "Scotland", "country": "GB", "formatted_address": "115 Main St, Glasgow", "locality": "Glasgow", "post_town": "Glasgow"}, "name": "Curry Palace", "related_places": {}}, {"fsq_id": "b49dae770a6e4c8404d4a039", "categories": [{"id": 11056, "name": "Food and Beverage Service", "short_name": "Food Service", "plural_name": "Food and Beverage Services", "icon": {"prefix": "https://ss3.4sqi.net/img/categories_v2/shops/foodanddrink_", "suffix": ".png"}}, {"id": 13046, "name": "Ice Cream Parlor", "short_name": "Ice Cream", "plural_name": "Ice Cream Parlors", "icon": {"prefix": "https://ss3.4sqi.net/img/categories_v2/food/icecream_", "suffix": ".png"}}, {"id": 13065, "name": "Restaurant", "short_name": "Restaurant", "plural_name": "Restaurants", "icon": {"prefix": "https://ss3.4sqi.net/img/categories_v2/food/default_", "suffix": ".png"}}], "chains": [], "closed_bucket": "LikelyOpen", "distance": 918, "geocodes": {"main": {"latitude": 55.854763, "longitude": -4.237279}, "roof": {"latitude": 55.854763, "longitude": -4.237279}}, "link": "/v3/places/b49dae770a6e4c8404d4a039", "location": {"address": "Moncur St", "admin_region": "Scotland", "country": "GB", "formatted_address": "Moncur St, Glasgow, G40 2SL", "locality": "Glasgow", "post_town": "Glasgow", "postcode": "G40 2SL"}, "name": "Kandy Krunch", "related_places": {}}], "context": {"geo_bounds": {"circle": {"center": {"latitude": 55.848939, "longitude": -4.226823}, "radius": 1000}}}}