{"results": [{"fsq_id": "4bb7a8451261d13a09a7e798", "categories": [{"id": 13024, "name": "Whisky Bar", "short_name": "Whisky Bar", "plural_name": "Whisky Bars", "icon": {"prefix": "https://ss3.4sqi.net/img/categories_v2/nightlife/whiskey_", "suffix": ".png"}}, {"id": 13025, "name": "Wine Bar", "short_name": "Wine Bar", "plural_name": "Wine Bars", "icon": {"prefix": "https://ss3.4sqi.net/img/categories_v2/food/winery_", "suffix": ".png"}}, {"id": 13065, "name": "Restaurant", "short_name": "Restaurant", "plural_name": "Restaurants", "icon": {"prefix": "https://ss3.4sqi.net/img/categories_v2/food/default_", "suffix": ".png"}}], "chains": [], "closed_bucket": "Unsure", "distance": 783, "geocodes": {"main": {"latitude": 55.862979, "longitude": -4.257673}, "roof": {"latitude": 55.862979, "longitude": -4.257673}}, "link": "/v3/places/4bb7a8451261d13a09a7e798", "location": {"address": "154 Hope St", "admin_region": "Scotland", "country": "GB", "cross_street": "W Regent St", "formatted_address": "154 Hope St (W Regent St), Glasgow, Glasgow City, G2 2TH", "locality": "Glasgow", "post_town": "Glasgow", "postcode": "G2 2TH", "region": "Glasgow City"}, "name": "The Pot Still", "related_places": {}, "timezone": "Europe/London"}, {"fsq_id": "4b1fe8d7f964a520a32a24e3", "categories": [{"id": 13003, "name": "Bar", "short_name": "Bar", "plural_name": "Bars", "icon": {"prefix": "https://ss3.4sqi.net/img/categories_v2/nightlife/pub_", "suffix": ".png"}}, {"id": 13057, "name": "Gastropub", "short_name": "Gastropub", "plural_name": "Gastropubs", "icon": {"prefix": "https://ss3.4sqi.net/img/categories_v2/food/gastropub_", "suffix": ".png"}}], "chains": [], "closed_bucket": "Unsure", "distance": 559, "geocodes": {"main": {"latitude": 55.864262, "longitude": -4.261041}, "roof": {"latitude": 55.864262, "longitude": -4.261041}}, "link": "/v3/places/4b1fe8d7f964a520a32a24e3", "location": {"address": "153 Bath St", "admin_region": "Scotland", "country": "GB", "formatted_address": "153 Bath St, Glasgow, Glasgow City, G2 4SQ", "locality": "Glasgow", "post_town": "Glasgow", "postcode": "G2 4SQ", "region": "Glasgow City"}, "name": "The Butterfly & the Pig", "related_places": {}, "timezone": "Europe/London"}, {"fsq_id": "4b852d7bf964a5207d4f31e3", "categories": [{"id": 13024, "name": "Whisky Bar", "short_name": "Whisky Bar", "plural_name": "Whisky Bars", "icon": {"prefix": "https://ss3.4sqi.net/img/categories_v2/nightlife/whiskey_", "suffix": ".png"}}], "chains": [], "closed_bucket": "Unsure", "distance": 79, "geocodes": {"main": {"latitude": 55.864143, "longitude": -4.271445}, "roof": {"latitude": 55.864143, "longitude": -4.271445}}, "link": "/v3/places/4b852d7bf964a5207d4f31e3", "location": {"address": "153 North St", "admin_region": "Scotland", "country": "GB", "formatted_address": "153 North St, Glasgow, Glasgow City, G3 7DA", "locality": "Glasgow", "post_town": "Glasgow", "postcode": "G3 7DA", "region": "Glasgow City"}, "name": "Bon Accord", "related_places": {}, "timezone": "Europe/London"}, {"fsq_id": "536e0497498effee047e1ab2", "categories": [{"id": 13065, "name": "Restaurant", "short_name": "Restaurant", "plural_name": "Restaurants", "icon": {"prefix": "https://ss3.4sqi.net/img/categories_v2/food/default_", "suffix": ".png"}}], "chains": [], "closed_bucket": "Unsure", "distance": 927, "geocodes": {"main": {"latitude": 55.865754, "longitude": -4.284743}, "roof": {"latitude": 55.865754, "longitude": -4.284743}}, "link": "/v3/places/536e0497498effee047e1ab2", "location": {"address": "920 Sauchiehall St", "admin_region": "Scotland", "country": "GB", "cross_street": "", "formatted_address": "920 Sauchiehall St, Glasgow, G3 7TF", "locality": "Glasgow", "post_town": "Glasgow", "postcode": "G3 7TF"}, "name": "Ox and Finch", "related_places": {}, "timezone": "Europe/London"}, {"fsq_id": "4b687ef1f964a520237c2be3", "categories": [{"id": 13024, "name": "Whisky Bar", "short_name": "Whisky Bar", "plural_name": "Whisky Bars", "icon": {"prefix": "https://ss3.4sqi.net/img/categories_v2/nightlife/whiskey_", "suffix": ".png"}}], "chains": [], "closed_bucket": "Unsure", "distance": 931, "geocodes": {"main": {"latitude": 55.864838, "longitude": -4.2851}, "roof": {"latitude": 55.864838, "longitude": -4.2851}}, "link": "/v3/places/4b687ef1f964a520237c2be3", "location": {"address": "1147 Argyle St", "admin_region": "Scotland", "country": "GB", "cross_street": "Corunna St", "formatted_address": "1147 Argyle St (Corunna St), Glasgow, Glasgow City, G3 8TB", "locality": "Glasgow", "post_town": "Glasgow", "postcode": "G3 8TB", "region": "Glasgow City"}, "name": "The Ben Nevis", "related_places": {}, "timezone": "Europe/London"}, {"fsq_id": "53c583cf498e63ea4da3718c", "categories": [{"id": 13303, "name": "Mexican Restaurant", "short_name": "Mexican", "plural_name": "Mexican Restaurants", "icon": {"prefix": "https://ss3.4sqi.net/img/categories_v2/food/mexican_", "suffix": ".png"}}, {"id": 13347, "name": "Tapas Restaurant", "short_name": "Tapas", "plural_name": "Tapas Restaurants", "icon": {"prefix": "https://ss3.4sqi.net/img/categories_v2/food/tapas_", "suffix": ".png"}}], "chains": [], "closed_bucket": "Unsure", "distance": 932, "geocodes": {"main": {"latitude": 55.861321, "longitude": -4.256256}, "roof": {"latitude": 55.861321, "longitude": -4.256256}}, "link": "/v3/places/53c583cf498e63ea4da3718c", "location": {"address": "89 St Vincent St", "admin_region": "Scotland", "country": "GB", "cross_street": "", "formatted_address": "89 St Vincent St, Glasgow, G2 5TF", "locality": "Glasgow", "post_town": "Glasgow", "postcode": "G2 5TF"}, "name": "Topolabamba", "related_places": {}, "timezone": "Europe/London"}, {"fsq_id": "4c8530ab74d7b60cac4999d8", "categories": [{"id": 13199, "name": "Indian Restaurant", "short_name": "Indian", "plural_name": "Indian Restaurants", "icon": {"prefix": "https://ss3.4sqi.net/img/categories_v2/food/indian_", "suffix": ".png"}}], "chains": [], "closed_bucket": "Unsure", "distance": 875, "geocodes": {"main": {"latitude": 55.865238, "longitude": -4.28364}, "roof": {"latitude": 55.865238, "longitude": -4.28364}}, "link": "/v3/places/4c8530ab74d7b60cac4999d8", "location": {"address": "28 Westminster Terrace", "admin_region": "Scotland", "country": "GB", "formatted_address": "28 Westminster Terrace, Glasgow, Glasgow City, G3 7RU", "locality": "Glasgow", "post_town": "Glasgow", "postcode": "G3 7RU", "region": "Glasgow City"}, "name": "Mother India", "related_places": {}, "timezone": "Europe/London"}, {"fsq_id": "57b3526b498ef25faac11255", "categories": [{"id": 13177, "name": "Greek Restaurant", "short_name": "Greek", "plural_name": "Greek Restaurants", "icon": {"prefix": "https://ss3.4sqi.net/img/categories_v2/food/greek_", "suffix": ".png"}}], "chains": [], "closed_bucket": "LikelyOpen", "distance": 791, "geocodes": {"main": {"latitude": 55.862257, "longitude": -4.258316}, "roof": {"latitude": 55.862257, "longitude": -4.258316}}, "link": "/v3/places/57b3526b498ef25faac11255", "location": {"address": "161 Hope St", "admin_region": "Scotland", "country": "GB", "cross_street": "", "formatted_address": "161 Hope St, Glasgow, Glasgow City, G2 2UQ", "locality": "Glasgow", "post_town": "Glasgow", "postcode": "G2 2UQ", "region": "Glasgow City"}, "name": "Halloumi", "related_places": {}, "timezone": "Europe/London"}, {"fsq_id": "4c263d74b012b7135fd90893", "categories": [{"id": 13002, "name": "Bakery", "short_name": "Bakery", "plural_name": "Bakeries", "icon": {"prefix": "https://ss3.4sqi.net/img/categories_v2/food/bakery_", "suffix": ".png"}}, {"id": 13036, "name": "Tea Room", "short_name": "Tea Room", "plural_name": "Tea Rooms", "icon": {"prefix": "https://ss3.4sqi.net/img/categories_v2/food/tearoom_", "suffix": ".png"}}, {"id": 13065, "name": "Restaurant", "short_name": "Restaurant", "plural_name": "Restaurants", "icon": {"prefix": "https://ss3.4sqi.net/img/categories_v2/food/default_", "suffix": ".png"}}], "chains": [], "closed_bucket": "LikelyOpen", "distance": 838, "geocodes": {"main": {"latitude": 55.864291, "longitude": -4.283611}, "roof": {"latitude": 55.864291, "longitude": -4.283611}}, "link": "/v3/places/4c263d74b012b7135fd90893", "location": {"address": "1103 Argyle St", "address_extended": "Unit 8", "admin_region": "Scotland", "country": "GB", "cross_street": "Argyle Court", "formatted_address": "1103 Argyle St (Argyle Court), Glasgow, G3 8ND", "locality": "Glasgow", "post_town": "Glasgow", "postcode": "G3 8ND"}, "name": "The Hidden Lane Tearoom", "related_places": {"children": [{"fsq_id": "6177c84b1b7e0864e20470d8", "categories": [{"id": 11124, "name": "Office", "short_name": "Office", "plural_name": "Offices", "icon": {"prefix": "https://ss3.4sqi.net/img/categories_v2/building/default_", "suffix": ".png"}}], "name": "Rakata Technology Limited"}]}, "timezone": "Europe/London"}, {"fsq_id": "58037931d67cf45e38f69da8", "categories": [{"id": 13199, "name": "Indian Restaurant", "short_name": "Indian", "plural_name": "Indian Restaurants", "icon": {"prefix": "https://ss3.4sqi.net/img/categories_v2/food/indian_", "suffix": ".png"}}], "chains": [], "closed_bucket": "VeryLikelyOpen", "distance": 955, "geocodes": {"drop_off": {"latitude": 55.861395, "longitude": -4.255884}, "main": {"latitude": 55.861236, "longitude": -4.255903}, "roof": {"latitude": 55.861236, "longitude": -4.255903}}, "link": "/v3/places/58037931d67cf45e38f69da8", "location": {"address": "79 St Vincent St", "admin_region": "Scotland", "country": "GB", "cross_street": "", "formatted_address": "79 St Vincent St, Glasgow, Glasgow City, G2 5TF", "locality": "Glasgow", "post_town": "Glasgow", "postcode": "G2 5TF", "region": "Glasgow City"}, "name": "Chaakoo Bombay Cafe", "related_places": {}, "timezone": "Europe/London"}, {"fsq_id": "5180eb5a498e2b4ff6c7ab2f", "categories": [{"id": 13013, "name": "Hotel Bar", "short_name": "Hotel Bar", "plural_name": "Hotel Bars", "icon": {"prefix": "https://ss3.4sqi.net/img/categories_v2/travel/hotel_bar_", "suffix": ".png"}}], "chains": [], "closed_bucket": "VeryLikelyOpen", "distance": 880, "geocodes": {"main": {"latitude": 55.858813, "longitude": -4.260524}, "roof": {"latitude": 55.858813, "longitude": -4.260524}}, "link": "/v3/places/5180eb5a498e2b4ff6c7ab2f", "location": {"country": "GB", "cross_street": "", "formatted_address": ""}, "name": "The Atrium, Radisson Blu", "related_places": {"parent": {"fsq_id": "4b6385b5f964a5208f802ae3", "categories": [{"id": 19014, "name": "Hotel", "short_name": "Hotel", "plural_name": "Hotels", "icon": {"prefix": "https://ss3.4sqi.net/img/categories_v2/travel/hotel_", "suffix": ".png"}}], "name": "Radisson Blu Hotel, Glasgow"}}, "timezone": "Europe/London"}, {"fsq_id": "536e50f2498e80034a00e575", "categories": [{"id": 10000, "name": "Arts and Entertainment", "short_name": "Arts & Entertainment", "plural_name": "Arts and Entertainment", "icon": {"prefix": "https://ss3.4sqi.net/img/categories_v2/arts_entertainment/default_", "suffix": ".png"}}, {"id": 13018, "name": "Pub", "short_name": "Pub", "plural_name": "Pubs", "icon": {"prefix": "https://ss3.4sqi.net/img/categories_v2/nightlife/pub_", "suffix": ".png"}}, {"id": 13065, "name": "Restaurant", "short_name": "Restaurant", "plural_name": "Restaurants", "icon": {"prefix": "https://ss3.4sqi.net/img/categories_v2/food/default_", "suffix": ".png"}}], "chains": [], "closed_bucket": "VeryLikelyOpen", "distance": 742, "geocodes": {"main": {"latitude": 55.864532, "longitude": -4.25814}, "roof": {"latitude": 55.864532, "longitude": -4.25814}}, "link": "/v3/places/536e50f2498e80034a00e575", "location": {"address": "57-59 Sauchiehall Lane", "admin_region": "Scotland", "country": "GB", "cross_street": "", "formatted_address": "57-59 Sauchiehall Lane, Glasgow, G2 4AB", "locality": "Glasgow", "post_town": "Glasgow", "postcode": "G2 4AB"}, "name": "Malones Irish Bar", "related_places": {}, "timezone": "Europe/London"}, {"fsq_id": "5b3ce578bed48300393b04e7", "categories": [{"id": 13065, "name": "Restaurant", "short_name": "Restaurant", "plural_name": "Restaurants", "icon": {"prefix": "https://ss3.4sqi.net/img/categories_v2/food/default_", "suffix": ".png"}}], "chains": [], "closed_bucket": "VeryLikelyOpen", "distance": 572, "geocodes": {"drop_off": {"latitude": 55.865139, "longitude": -4.26108}, "main": {"latitude": 55.864996, "longitude": -4.261098}, "roof": {"latitude": 55.864996, "longitude": -4.261098}}, "link": "/v3/places/5b3ce578bed48300393b04e7", "location": {"address": "217 Sauchiehall St", "admin_region": "Scotland", "country": "GB", "cross_street": "", "formatted_address": "217 Sauchiehall St, Glasgow, Glasgow City, G2 3EX", "locality": "Glasgow", "post_town": "Glasgow", "postcode": "G2 3EX", "region": "Glasgow City"}, "name": "Mackintosh at the Willow", "related_places": {}, "timezone": "Europe/London"}, {"fsq_id": "4d1e398e6e8c3704d4cee49f", "categories": [{"id": 13009, "name": "Cocktail Bar", "short_name": "Cocktail", "plural_name": "Cocktail Bars", "icon": {"prefix": "https://ss3.4sqi.net/img/categories_v2/nightlife/cocktails_", "suffix": ".png"}}, {"id": 13352, "name": "Thai Restaurant", "short_name": "Thai", "plural_name": "Thai Restaurants", "icon": {"prefix": "https://ss3.4sqi.net/img/categories_v2/food/thai_", "suffix": ".png"}}], "chains": [], "closed_bucket": "LikelyOpen", "distance": 347, "geocodes": {"main": {"latitude": 55.864914, "longitude": -4.26439}, "roof": {"latitude": 55.864914, "longitude": -4.26439}}, "link": "/v3/places/4d1e398e6e8c3704d4cee49f", "location": {"address": "214 Bath St", "admin_region": "Scotland", "country": "GB", "formatted_address": "214 Bath St, Glasgow, Glasgow City, G2 4HW", "locality": "Glasgow", "post_town": "Glasgow", "postcode": "G2 4HW", "region": "Glasgow City"}, "name": "Tiki Bar & Kitsch Inn", "related_places": {}, "timezone": "Europe/London"}, {"fsq_id": "5371be2f498e5399f8fc2010", "categories": [{"id": 13034, "name": "Caf\u00e9", "short_name": "Caf\u00e9", "plural_name": "Caf\u00e9s", "icon": {"prefix": "https://ss3.4sqi.net/img/categories_v2/food/cafe_", "suffix": ".png"}}, {"id": 13035, "name": "Coffee Shop", "short_name": "Coffee Shop", "plural_name": "Coffee Shops", "icon": {"prefix": "https://ss3.4sqi.net/img/categories_v2/food/coffeeshop_", "suffix": ".png"}}, {"id": 13065, "name": "Restaurant", "short_name": "Restaurant", "plural_name": "Restaurants", "icon": {"prefix": "https://ss3.4sqi.net/img/categories_v2/food/default_", "suffix": ".png"}}], "chains": [], "closed_bucket": "Unsure", "distance": 899, "geocodes": {"main": {"latitude": 55.8604, "longitude": -4.257629}, "roof": {"latitude": 55.8604, "longitude": -4.257629}}, "link": "/v3/places/5371be2f498e5399f8fc2010", "location": {"address": "79 Gordon St", "admin_region": "Scotland", "country": "GB", "cross_street": "", "formatted_address": "79 Gordon St, Glasgow, Glasgow City, G1 3SQ", "locality": "Glasgow", "post_town": "Glasgow", "postcode": "G1 3SQ", "region": "Glasgow City"}, "name": "Gordon Street Coffee", "related_places": {}, "timezone": "Europe/London"}, {"fsq_id": "5758817d498eee35ef6c2d0d", "categories": [{"id": 13003, "name": "Bar", "short_name": "Bar", "plural_name": "Bars", "icon": {"prefix": "https://ss3.4sqi.net/img/categories_v2/nightlife/pub_", "suffix": ".png"}}, {"id": 13029, "name": "Brewery", "short_name": "Brewery", "plural_name": "Breweries", "icon": {"prefix": "https://ss3.4sqi.net/img/categories_v2/food/brewery_", "suffix": ".png"}}, {"id": 13065, "name": "Restaurant", "short_name": "Restaurant", "plural_name": "Restaurants", "icon": {"prefix": "https://ss3.4sqi.net/img/categories_v2/food/default_", "suffix": ".png"}}], "chains": [], "closed_bucket": "Unsure", "distance": 968, "geocodes": {"drop_off": {"latitude": 55.86217, "longitude": -4.25515}, "main": {"latitude": 55.862333, "longitude": -4.25513}, "roof": {"latitude": 55.862333, "longitude": -4.25513}}, "link": "/v3/places/5758817d498eee35ef6c2d0d", "location": {"address": "92 West George St", "admin_region": "Scotland", "country": "GB", "cross_street": "", "formatted_address": "92 West George St, Glasgow, G2 1PJ", "locality": "Glasgow", "post_town": "Glasgow", "postcode": "G2 1PJ"}, "name": "Shilling Brewing Co", "related_places": {}, "timezone": "Europe/London"}, {"fsq_id": "53220210498e48f21ce03d27", "categories": [{"id": 13018, "name": "Pub", "short_name": "Pub", "plural_name": "Pubs", "icon": {"prefix": "https://ss3.4sqi.net/img/categories_v2/nightlife/pub_", "suffix": ".png"}}, {"id": 10041, "name": "Rock Club", "short_name": "Rock Club", "plural_name": "Rock Clubs", "icon": {"prefix": "https://ss3.4sqi.net/img/categories_v2/arts_entertainment/musicvenue_rockclub_", "suffix": ".png"}}], "chains": [], "closed_bucket": "LikelyOpen", "distance": 745, "geocodes": {"drop_off": {"latitude": 55.864044, "longitude": -4.258178}, "main": {"latitude": 55.864162, "longitude": -4.258164}, "roof": {"latitude": 55.864162, "longitude": -4.258164}}, "link": "/v3/places/53220210498e48f21ce03d27", "location": {"address": "100 Bath St", "admin_region": "Scotland", "country": "GB", "cross_street": "", "formatted_address": "100 Bath St, Glasgow, Glasgow City, G2 2EN", "locality": "Glasgow", "post_town": "Glasgow", "postcode": "G2 2EN", "region": "Glasgow City"}, "name": "The Howlin' Wolf", "related_places": {}, "timezone": "Europe/London"}, {"fsq_id": "4b2bc508f964a52095ba24e3", "categories": [{"id": 10032, "name": "Night Club", "short_name": "Night Club", "plural_name": "Night Clubs", "icon": {"prefix": "https://ss3.4sqi.net/img/categories_v2/nightlife/nightclub_", "suffix": ".png"}}, {"id": 13003, "name": "Bar", "short_name": "Bar", "plural_name": "Bars", "icon": {"prefix": "https://ss3.4sqi.net/img/categories_v2/nightlife/pub_", "suffix": ".png"}}, {"id": 13065, "name": "Restaurant", "short_name": "Restaurant", "plural_name": "Restaurants", "icon": {"prefix": "https://ss3.4sqi.net/img/categories_v2/food/default_", "suffix": ".png"}}], "chains": [], "closed_bucket": "Unsure", "distance": 178, "geocodes": {"main": {"latitude": 55.865913, "longitude": -4.269046}, "roof": {"latitude": 55.865913, "longitude": -4.269046}}, "link": "/v3/places/4b2bc508f964a52095ba24e3", "location": {"address": "421 Sauchiehall St", "admin_region": "Scotland", "country": "GB", "formatted_address": "421 Sauchiehall St, Glasgow, G2 3LG", "locality": "Glasgow", "post_town": "Glasgow", "postcode": "G2 3LG"}, "name": "Nice N Sleazy", "related_places": {"children": []}, "timezone": "Europe/London"}, {"fsq_id": "5644eccf498e44610759212b", "categories": [{"id": 13006, "name": "Beer Bar", "short_name": "Beer Bar", "plural_name": "Beer Bars", "icon": {"prefix": "https://ss3.4sqi.net/img/categories_v2/nightlife/pub_", "suffix": ".png"}}, {"id": 13065, "name": "Restaurant", "short_name": "Restaurant", "plural_name": "Restaurants", "icon": {"prefix": "https://ss3.4sqi.net/img/categories_v2/food/default_", "suffix": ".png"}}], "chains": [], "closed_bucket": "VeryLikelyOpen", "distance": 725, "geocodes": {"main": {"latitude": 55.861276, "longitude": -4.259828}, "roof": {"latitude": 55.861276, "longitude": -4.259828}}, "link": "/v3/places/5644eccf498e44610759212b", "location": {"address": "30 Bothwell St", "admin_region": "Scotland", "country": "GB", "cross_street": "", "formatted_address": "30 Bothwell St, Glasgow, Glasgow City, G2 6NU", "locality": "Glasgow", "post_town": "Glasgow", "postcode": "G2 6NU", "region": "Glasgow City"}, "name": "Bavaria Brauhaus", "related_places": {}, "timezone": "Europe/London"}, {"fsq_id": "57e32fed498e1b7a265a1ad2", "categories": [{"id": 13064, "name": "Pizzeria", "short_name": "Pizza", "plural_name": "Pizzerias", "icon": {"prefix": "https://ss3.4sqi.net/img/categories_v2/food/pizza_", "suffix": ".png"}}], "chains": [], "closed_bucket": "LikelyOpen", "distance": 935, "geocodes": {"main": {"latitude": 55.861503, "longitude": -4.255841}, "roof": {"latitude": 55.861503, "longitude": -4.255841}}, "link": "/v3/places/57e32fed498e1b7a265a1ad2", "location": {"address": "90 St Vincent St", "admin_region": "Scotland", "country": "GB", "cross_street": "", "formatted_address": "90 St Vincent St, Glasgow, G2 5UB", "locality": "Glasgow", "post_town": "Glasgow", "postcode": "G2 5UB"}, "name": "Pizza Punks", "related_places": {}, "timezone": "Europe/London"}, {"fsq_id": "5595668c498e02153643a82f", "categories": [{"id": 13018, "name": "Pub", "short_name": "Pub", "plural_name": "Pubs", "icon": {"prefix": "https://ss3.4sqi.net/img/categories_v2/nightlife/pub_", "suffix": ".png"}}, {"id": 13065, "name": "Restaurant", "short_name": "Restaurant", "plural_name": "Restaurants", "icon": {"prefix": "https://ss3.4sqi.net/img/categories_v2/food/default_", "suffix": ".png"}}], "chains": [], "closed_bucket": "LikelyOpen", "distance": 865, "geocodes": {"main": {"latitude": 55.8722, "longitude": -4.272393}, "roof": {"latitude": 55.8722, "longitude": -4.272393}}, "link": "/v3/places/5595668c498e02153643a82f", "location": {"address": "Great Western Rd 171", "admin_region": "Scotland", "country": "GB", "cross_street": "", "formatted_address": "Great Western Rd 171, Glasgow, Glasgow City, G4 9AW", "locality": "Glasgow", "post_town": "Glasgow", "postcode": "G4 9AW", "region": "Glasgow City"}, "name": "The Hug and Pint", "related_places": {}, "timezone": "Europe/London"}, {"fsq_id": "4b65dd17f964a520ac042be3", "categories": [{"id": 13009, "name": "Cocktail Bar", "short_name": "Cocktail", "plural_name": "Cocktail Bars", "icon": {"prefix": "https://ss3.4sqi.net/img/categories_v2/nightlife/cocktails_", "suffix": ".png"}}, {"id": 13057, "name": "Gastropub", "short_name": "Gastropub", "plural_name": "Gastropubs", "icon": {"prefix": "https://ss3.4sqi.net/img/categories_v2/food/gastropub_", "suffix": ".png"}}], "chains": [], "closed_bucket": "Unsure", "distance": 718, "geocodes": {"main": {"latitude": 55.864078, "longitude": -4.281817}, "roof": {"latitude": 55.864078, "longitude": -4.281817}}, "link": "/v3/places/4b65dd17f964a520ac042be3", "location": {"address": "1008 Argyle St", "admin_region": "Scotland", "country": "GB", "cross_street": "", "formatted_address": "1008 Argyle St, Glasgow, Glasgow City, G3 8LX", "locality": "Glasgow", "post_town": "Glasgow", "postcode": "G3 8LX", "region": "Glasgow City"}, "name": "Lebowskis", "related_places": {}, "timezone": "Europe/London"}, {"fsq_id": "4b684fb0f964a52011712be3", "categories": [{"id": 13263, "name": "Japanese Restaurant", "short_name": "Japanese", "plural_name": "Japanese Restaurants", "icon": {"prefix": "https://ss3.4sqi.net/img/categories_v2/food/japanese_", "suffix": ".png"}}], "chains": [], "closed_bucket": "VeryLikelyOpen", "distance": 947, "geocodes": {"main": {"latitude": 55.862103, "longitude": -4.255473}, "roof": {"latitude": 55.862103, "longitude": -4.255473}}, "link": "/v3/places/4b684fb0f964a52011712be3", "location": {"address": "97 West George St", "admin_region": "Scotland", "country": "GB", "formatted_address": "97 West George St, Glasgow, Glasgow City, G2 1PB", "locality": "Glasgow", "post_town": "Glasgow", "postcode": "G2 1PB", "region": "Glasgow City"}, "name": "Wagamama Glasgow City Centre", "related_places": {}, "timezone": "Europe/London"}, {"fsq_id": "594969cbd8fe7a1ba460161c", "categories": [{"id": 13288, "name": "Kebab Restaurant", "short_name": "Kebab", "plural_name": "Kebab Restaurants", "icon": {"prefix": "https://ss3.4sqi.net/img/categories_v2/food/middleeastern_", "suffix": ".png"}}, {"id": 13302, "name": "Mediterranean Restaurant", "short_name": "Mediterranean", "plural_name": "Mediterranean Restaurants", "icon": {"prefix": "https://ss3.4sqi.net/img/categories_v2/food/mediterranean_", "suffix": ".png"}}], "chains": [], "closed_bucket": "VeryLikelyOpen", "distance": 985, "geocodes": {"drop_off": {"latitude": 55.861804, "longitude": -4.255079}, "main": {"latitude": 55.861854, "longitude": -4.255221}, "roof": {"latitude": 55.861854, "longitude": -4.255221}}, "link": "/v3/places/594969cbd8fe7a1ba460161c", "location": {"address": "49 West Nile St", "admin_region": "Scotland", "country": "GB", "cross_street": "", "formatted_address": "49 West Nile St, Glasgow, Glasgow City, G1 2PT", "locality": "Glasgow", "post_town": "Glasgow", "postcode": "G1 2PT", "region": "Glasgow City"}, "name": "\u2019Babs", "related_places": {}, "timezone": "Europe/London"}, {"fsq_id": "4d28d36debacb1f71b01f54f", "categories": [{"id": 13024, "name": "Whisky Bar", "short_name": "Whisky Bar", "plural_name": "Whisky Bars", "icon": {"prefix": "https://ss3.4sqi.net/img/categories_v2/nightlife/whiskey_", "suffix": ".png"}}], "chains": [], "closed_bucket": "LikelyOpen", "distance": 854, "geocodes": {"main": {"latitude": 55.871154, "longitude": -4.276883}, "roof": {"latitude": 55.871154, "longitude": -4.276883}}, "link": "/v3/places/4d28d36debacb1f71b01f54f", "location": {"address": "232-246 Woodlands Rd", "admin_region": "Scotland", "country": "GB", "formatted_address": "232-246 Woodlands Rd, Glasgow, Glasgow City, G3 6ND", "locality": "Glasgow", "post_town": "Glasgow", "postcode": "G3 6ND", "region": "Glasgow City"}, "name": "Dram", "related_places": {}, "timezone": "Europe/London"}, {"fsq_id": "5308d0cf498ed47c6be2359f", "categories": [{"id": 13065, "name": "Restaurant", "short_name": "Restaurant", "plural_name": "Restaurants", "icon": {"prefix": "https://ss3.4sqi.net/img/categories_v2/food/default_", "suffix": ".png"}}], "chains": [{"id": "2fceefe0-9c63-0132-6632-3c15c2dde6c8", "name": "Nando's"}], "closed_bucket": "VeryLikelyOpen", "distance": 447, "geocodes": {"main": {"latitude": 55.865258, "longitude": -4.262963}, "roof": {"latitude": 55.865258, "longitude": -4.262963}}, "link": "/v3/places/5308d0cf498ed47c6be2359f", "location": {"address": "263 Sauchiehall St", "admin_region": "Scotland", "country": "GB", "cross_street": "", "formatted_address": "263 Sauchiehall St, Glasgow, Glasgow City, G2 3EZ", "locality": "Glasgow", "post_town": "Glasgow", "postcode": "G2 3EZ", "region": "Glasgow City"}, "name": "Nando's", "related_places": {}, "timezone": "Europe/London"}, {"fsq_id": "4bc0841cf8219c7407a4b110", "categories": [{"id": 13025, "name": "Wine Bar", "short_name": "Wine Bar", "plural_name": "Wine Bars", "icon": {"prefix": "https://ss3.4sqi.net/img/categories_v2/food/winery_", "suffix": ".png"}}, {"id": 13065, "name": "Restaurant", "short_name": "Restaurant", "plural_name": "Restaurants", "icon": {"prefix": "https://ss3.4sqi.net/img/categories_v2/food/default_", "suffix": ".png"}}], "chains": [], "closed_bucket": "Unsure", "distance": 677, "geocodes": {"drop_off": {"latitude": 55.86418, "longitude": -4.259336}, "main": {"latitude": 55.864042, "longitude": -4.259352}, "roof": {"latitude": 55.864042, "longitude": -4.259352}}, "link": "/v3/places/4bc0841cf8219c7407a4b110", "location": {"address": "117 Bath St", "admin_region": "Scotland", "country": "GB", "formatted_address": "117 Bath St, Glasgow, Glasgow City, G2 2SZ", "locality": "Glasgow", "post_town": "Glasgow", "postcode": "G2 2SZ", "region": "Glasgow City"}, "name": "Bloc", "related_places": {}, "timezone": "Europe/London"}, {"fsq_id": "4ca0e56546978cfabaa2b77f", "categories": [{"id": 13199, "name": "Indian Restaurant", "short_name": "Indian", "plural_name": "Indian Restaurants", "icon": {"prefix": "https://ss3.4sqi.net/img/categories_v2/food/indian_", "suffix": ".png"}}], "chains": [], "closed_bucket": "VeryLikelyOpen", "distance": 259, "geocodes": {"main": {"latitude": 55.865158, "longitude": -4.273965}, "roof": {"latitude": 55.865158, "longitude": -4.273965}}, "link": "/v3/places/4ca0e56546978cfabaa2b77f", "location": {"address": "17 Granville St", "admin_region": "Scotland", "country": "GB", "cross_street": "", "formatted_address": "17 Granville St, Glasgow, Glasgow City, G3 7EE", "locality": "Glasgow", "post_town": "Glasgow", "postcode": "G3 7EE", "region": "Glasgow City"}, "name": "Shenaz", "related_places": {}, "timezone": "Europe/London"}, {"fsq_id": "5c02e01ad552c7002c2c58fc", "categories": [{"id": 13236, "name": "Italian Restaurant", "short_name": "Italian", "plural_name": "Italian Restaurants", "icon": {"prefix": "https://ss3.4sqi.net/img/categories_v2/food/italian_", "suffix": ".png"}}], "chains": [], "closed_bucket": "LikelyOpen", "distance": 996, "geocodes": {"drop_off": {"latitude": 55.86051, "longitude": -4.256066}, "main": {"latitude": 55.860648, "longitude": -4.25606}, "roof": {"latitude": 55.860648, "longitude": -4.25606}}, "link": "/v3/places/5c02e01ad552c7002c2c58fc", "location": {"address": "40 Gordon St", "admin_region": "Scotland", "country": "GB", "cross_street": "", "formatted_address": "40 Gordon St, Glasgow, Glasgow City, G1 3PU", "locality": "Glasgow", "post_town": "Glasgow", "postcode": "G1 3PU", "region": "Glasgow City"}, "name": "La Vita Spuntini", "related_places": {}, "timezone": "Europe/London"}, {"fsq_id": "59ef5c4a464d6574847a3e51", "categories": [{"id": 13068, "name": "American Restaurant", "short_name": "American", "plural_name": "American Restaurants", "icon": {"prefix": "https://ss3.4sqi.net/img/categories_v2/food/default_", "suffix": ".png"}}, {"id": 13145, "name": "Fast Food Restaurant", "short_name": "Fast Food", "plural_name": "Fast Food Restaurants", "icon": {"prefix": "https://ss3.4sqi.net/img/categories_v2/food/fastfood_", "suffix": ".png"}}, {"id": 13306, "name": "Taco Restaurant", "short_name": "Tacos", "plural_name": "Taco Restaurants", "icon": {"prefix": "https://ss3.4sqi.net/img/categories_v2/food/taco_", "suffix": ".png"}}], "chains": [], "closed_bucket": "LikelyOpen", "distance": 484, "geocodes": {"drop_off": {"latitude": 55.865116, "longitude": -4.262344}, "main": {"latitude": 55.865137, "longitude": -4.262329}, "roof": {"latitude": 55.865137, "longitude": -4.262329}}, "link": "/v3/places/59ef5c4a464d6574847a3e51", "location": {"address": "245 Sauchiehall St", "admin_region": "Scotland", "country": "GB", "cross_street": "", "formatted_address": "245 Sauchiehall St, Glasgow, Glasgow City, G2 3EZ", "locality": "Glasgow", "post_town": "Glasgow", "postcode": "G2 3EZ", "region": "Glasgow City"}, "name": "Taco Bell", "related_places": {}, "timezone": "Europe/London"}, {"fsq_id": "5bc0ebedb3d8e20039b42bc5", "categories": [{"id": 13065, "name": "Restaurant", "short_name": "Restaurant", "plural_name": "Restaurants", "icon": {"prefix": "https://ss3.4sqi.net/img/categories_v2/food/default_", "suffix": ".png"}}], "chains": [], "closed_bucket": "Unsure", "distance": 930, "geocodes": {"drop_off": {"latitude": 55.862229, "longitude": -4.255637}, "main": {"latitude": 55.862358, "longitude": -4.255621}, "roof": {"latitude": 55.862358, "longitude": -4.255621}}, "link": "/v3/places/5bc0ebedb3d8e20039b42bc5", "location": {"address": "100 West George St", "admin_region": "Scotland", "country": "GB", "cross_street": "", "formatted_address": "100 West George St, Glasgow, Glasgow City, G2 1PJ", "locality": "Glasgow", "post_town": "Glasgow", "postcode": "G2 1PJ", "region": "Glasgow City"}, "name": "Stack & Still", "related_places": {}, "timezone": "Europe/London"}, {"fsq_id": "513b8a7ee4b06b29ffe1c862", "categories": [{"id": 13199, "name": "Indian Restaurant", "short_name": "Indian", "plural_name": "Indian Restaurants", "icon": {"prefix": "https://ss3.4sqi.net/img/categories_v2/food/indian_", "suffix": ".png"}}], "chains": [], "closed_bucket": "VeryLikelyOpen", "distance": 828, "geocodes": {"drop_off": {"latitude": 55.863891, "longitude": -4.256875}, "main": {"latitude": 55.863761, "longitude": -4.25689}, "roof": {"latitude": 55.863761, "longitude": -4.25689}}, "link": "/v3/places/513b8a7ee4b06b29ffe1c862", "location": {"address": "61 Bath St", "admin_region": "Scotland", "country": "GB", "cross_street": "", "formatted_address": "61 Bath St, Glasgow, Glasgow City, G2 2DG", "locality": "Glasgow", "post_town": "Glasgow", "postcode": "G2 2DG", "region": "Glasgow City"}, "name": "Rishi's Indian Aroma", "related_places": {}, "timezone": "Europe/London"}, {"fsq_id": "596e6d68d48ec155ebe2eba6", "categories": [{"id": 13065, "name": "Restaurant", "short_name": "Restaurant", "plural_name": "Restaurants", "icon": {"prefix": "https://ss3.4sqi.net/img/categories_v2/food/default_", "suffix": ".png"}}], "chains": [], "closed_bucket": "VeryLikelyOpen", "distance": 499, "geocodes": {"main": {"latitude": 55.860033, "longitude": -4.268691}, "roof": {"latitude": 55.860033, "longitude": -4.268691}}, "link": "/v3/places/596e6d68d48ec155ebe2eba6", "location": {"address": "500 Argyle St", "admin_region": "Scotland", "country": "GB", "cross_street": "", "formatted_address": "500 Argyle St, Glasgow, Glasgow City, G3 8RR", "locality": "Glasgow", "post_town": "Glasgow", "postcode": "G3 8RR", "region": "Glasgow City"}, "name": "Cast Iron Grill", "related_places": {"parent": {"fsq_id": "4b76346af964a5201a432ee3", "categories": [{"id": 19014, "name": "Hotel", "short_name": "Hotel", "plural_name": "Hotels", "icon": {"prefix": "https://ss3.4sqi.net/img/categories_v2/travel/hotel_", "suffix": ".png"}}], "name": "Marriott Hotels & Resorts"}}, "timezone": "Europe/London"}, {"fsq_id": "4c0164bef7ab0f471d0816b6", "categories": [{"id": 13018, "name": "Pub", "short_name": "Pub", "plural_name": "Pubs", "icon": {"prefix": "https://ss3.4sqi.net/img/categories_v2/nightlife/pub_", "suffix": ".png"}}, {"id": 13065, "name": "Restaurant", "short_name": "Restaurant", "plural_name": "Restaurants", "icon": {"prefix": "https://ss3.4sqi.net/img/categories_v2/food/default_", "suffix": ".png"}}], "chains": [], "closed_bucket": "Unsure", "distance": 978, "geocodes": {"main": {"latitude": 55.872066, "longitude": -4.278453}, "roof": {"latitude": 55.872066, "longitude": -4.278453}}, "link": "/v3/places/4c0164bef7ab0f471d0816b6", "location": {"address": "287 Woodlands Rd", "admin_region": "Scotland", "country": "GB", "cross_street": "", "formatted_address": "287 Woodlands Rd, Glasgow, Glasgow City, G3 6NF", "locality": "Glasgow", "post_town": "Glasgow", "postcode": "G3 6NF", "region": "Glasgow City"}, "name": "Old Schoolhouse Glasgow", "related_places": {}, "timezone": "Europe/London"}, {"fsq_id": "4c2f3cf866e40f47117fc18b", "categories": [{"id": 13003, "name": "Bar", "short_name": "Bar", "plural_name": "Bars", "icon": {"prefix": "https://ss3.4sqi.net/img/categories_v2/nightlife/pub_", "suffix": ".png"}}, {"id": 13065, "name": "Restaurant", "short_name": "Restaurant", "plural_name": "Restaurants", "icon": {"prefix": "https://ss3.4sqi.net/img/categories_v2/food/default_", "suffix": ".png"}}], "chains": [], "closed_bucket": "VeryLikelyOpen", "distance": 470, "geocodes": {"main": {"latitude": 55.868415, "longitude": -4.273189}, "roof": {"latitude": 55.868415, "longitude": -4.273189}}, "link": "/v3/places/4c2f3cf866e40f47117fc18b", "location": {"address": "1 Lynedoch St", "admin_region": "Scotland", "country": "GB", "formatted_address": "1 Lynedoch St, Glasgow, Glasgow City, G3 6EF", "locality": "Glasgow", "post_town": "Glasgow", "postcode": "G3 6EF", "region": "Glasgow City"}, "name": "The Drake", "related_places": {}, "timezone": "Europe/London"}, {"fsq_id": "524ec20911d2e6a1074094b5", "categories": [{"id": 13099, "name": "Chinese Restaurant", "short_name": "Chinese", "plural_name": "Chinese Restaurants", "icon": {"prefix": "https://ss3.4sqi.net/img/categories_v2/food/asian_", "suffix": ".png"}}], "chains": [], "closed_bucket": "LikelyOpen", "distance": 566, "geocodes": {"main": {"latitude": 55.869686, "longitude": -4.269372}, "roof": {"latitude": 55.869686, "longitude": -4.269372}}, "link": "/v3/places/524ec20911d2e6a1074094b5", "location": {"address": "175 St Georges Rd", "admin_region": "Scotland", "country": "GB", "cross_street": "", "formatted_address": "175 St Georges Rd, Glasgow, G3 6JD", "locality": "Glasgow", "post_town": "Glasgow", "postcode": "G3 6JD"}, "name": "Ka Ka Lok", "related_places": {}, "timezone": "Europe/London"}, {"fsq_id": "4b4c7488f964a52065b326e3", "categories": [{"id": 13034, "name": "Caf\u00e9", "short_name": "Caf\u00e9", "plural_name": "Caf\u00e9s", "icon": {"prefix": "https://ss3.4sqi.net/img/categories_v2/food/cafe_", "suffix": ".png"}}, {"id": 13035, "name": "Coffee Shop", "short_name": "Coffee Shop", "plural_name": "Coffee Shops", "icon": {"prefix": "https://ss3.4sqi.net/img/categories_v2/food/coffeeshop_", "suffix": ".png"}}, {"id": 13334, "name": "Sandwich Spot", "short_name": "Sandwich Spot", "plural_name": "Sandwich Spots", "icon": {"prefix": "https://ss3.4sqi.net/img/categories_v2/food/deli_", "suffix": ".png"}}], "chains": [], "closed_bucket": "Unsure", "distance": 920, "geocodes": {"main": {"latitude": 55.862346, "longitude": -4.255831}, "roof": {"latitude": 55.862346, "longitude": -4.255831}}, "link": "/v3/places/4b4c7488f964a52065b326e3", "location": {"address": "110A West George St", "admin_region": "Scotland", "country": "GB", "formatted_address": "110A West George St, Glasgow, Glasgow City, G2 1QJ", "locality": "Glasgow", "post_town": "Glasgow", "postcode": "G2 1QJ", "region": "Glasgow City"}, "name": "Cafe Wander", "related_places": {}, "timezone": "Europe/London"}, {"fsq_id": "5660ab33498eb6bd97dbc68a", "categories": [{"id": 13003, "name": "Bar", "short_name": "Bar", "plural_name": "Bars", "icon": {"prefix": "https://ss3.4sqi.net/img/categories_v2/nightlife/pub_", "suffix": ".png"}}, {"id": 13337, "name": "Scottish Restaurant", "short_name": "Scottish", "plural_name": "Scottish Restaurants", "icon": {"prefix": "https://ss3.4sqi.net/img/categories_v2/food/default_", "suffix": ".png"}}, {"id": 13383, "name": "Steakhouse", "short_name": "Steakhouse", "plural_name": "Steakhouses", "icon": {"prefix": "https://ss3.4sqi.net/img/categories_v2/food/steakhouse_", "suffix": ".png"}}], "chains": [], "closed_bucket": "VeryLikelyOpen", "distance": 274, "geocodes": {"main": {"latitude": 55.865054, "longitude": -4.265621}, "roof": {"latitude": 55.865054, "longitude": -4.265621}}, "link": "/v3/places/5660ab33498eb6bd97dbc68a", "location": {"address": "244A Bath St", "admin_region": "Scotland", "country": "GB", "cross_street": "", "formatted_address": "244A Bath St, Glasgow, G2 4JW", "locality": "Glasgow", "post_town": "Glasgow", "postcode": "G2 4JW"}, "name": "Mini Grill", "related_places": {}, "timezone": "Europe/London"}, {"fsq_id": "4b856efdf964a5209b5d31e3", "categories": [{"id": 13018, "name": "Pub", "short_name": "Pub", "plural_name": "Pubs", "icon": {"prefix": "https://ss3.4sqi.net/img/categories_v2/nightlife/pub_", "suffix": ".png"}}, {"id": 13065, "name": "Restaurant", "short_name": "Restaurant", "plural_name": "Restaurants", "icon": {"prefix": "https://ss3.4sqi.net/img/categories_v2/food/default_", "suffix": ".png"}}], "chains": [], "closed_bucket": "Unsure", "distance": 915, "geocodes": {"main": {"latitude": 55.861358, "longitude": -4.256537}, "roof": {"latitude": 55.861358, "longitude": -4.256537}}, "link": "/v3/places/4b856efdf964a5209b5d31e3", "location": {"address": "91 St. Vincent St", "admin_region": "Scotland", "country": "GB", "formatted_address": "91 St. Vincent St, Glasgow, Glasgow City, G2 5TF", "locality": "Glasgow", "post_town": "Glasgow", "postcode": "G2 5TF", "region": "Glasgow City"}, "name": "Drum & Monkey", "related_places": {}, "timezone": "Europe/London"}, {"fsq_id": "5851b284d21e030e684bcabc", "categories": [{"id": 13135, "name": "Cuban Restaurant", "short_name": "Cuban", "plural_name": "Cuban Restaurants", "icon": {"prefix": "https://ss3.4sqi.net/img/categories_v2/food/cuban_", "suffix": ".png"}}, {"id": 13009, "name": "Cocktail Bar", "short_name": "Cocktail", "plural_name": "Cocktail Bars", "icon": {"prefix": "https://ss3.4sqi.net/img/categories_v2/nightlife/cocktails_", "suffix": ".png"}}], "chains": [], "closed_bucket": "VeryLikelyOpen", "distance": 916, "geocodes": {"main": {"latitude": 55.861843, "longitude": -4.256342}, "roof": {"latitude": 55.861843, "longitude": -4.256342}}, "link": "/v3/places/5851b284d21e030e684bcabc", "location": {"address": "36 Renfield St", "admin_region": "Scotland", "country": "GB", "cross_street": "", "formatted_address": "36 Renfield St, Glasgow, Glasgow City, G2 1LU", "locality": "Glasgow", "post_town": "Glasgow", "postcode": "G2 1LU", "region": "Glasgow City"}, "name": "Revoluci\u00f3n de Cuba Glasgow", "related_places": {}, "timezone": "Europe/London"}, {"fsq_id": "62bb356216142710197291d0", "categories": [{"id": 13035, "name": "Coffee Shop", "short_name": "Coffee Shop", "plural_name": "Coffee Shops", "icon": {"prefix": "https://ss3.4sqi.net/img/categories_v2/food/coffeeshop_", "suffix": ".png"}}, {"id": 13065, "name": "Restaurant", "short_name": "Restaurant", "plural_name": "Restaurants", "icon": {"prefix": "https://ss3.4sqi.net/img/categories_v2/food/default_", "suffix": ".png"}}], "chains": [], "closed_bucket": "LikelyOpen", "distance": 513, "geocodes": {"drop_off": {"latitude": 55.86525, "longitude": -4.261972}, "main": {"latitude": 55.865421, "longitude": -4.261952}, "roof": {"latitude": 55.865421, "longitude": -4.261952}}, "link": "/v3/places/62bb356216142710197291d0", "location": {"address": "254 Sauchiehall St", "admin_region": "Scotland", "country": "GB", "cross_street": "", "formatted_address": "254 Sauchiehall St, Glasgow, Glasgow City, G2 3EH", "locality": "Glasgow", "post_town": "Glasgow", "postcode": "G2 3EH", "region": "Glasgow City"}, "name": "Black Sheep Coffee - Sauchiehall Street", "related_places": {}, "timezone": "Europe/London"}, {"fsq_id": "4b894198f964a520602632e3", "categories": [{"id": 13018, "name": "Pub", "short_name": "Pub", "plural_name": "Pubs", "icon": {"prefix": "https://ss3.4sqi.net/img/categories_v2/nightlife/pub_", "suffix": ".png"}}, {"id": 13057, "name": "Gastropub", "short_name": "Gastropub", "plural_name": "Gastropubs", "icon": {"prefix": "https://ss3.4sqi.net/img/categories_v2/food/gastropub_", "suffix": ".png"}}], "chains": [{"id": "07841cd9-3716-4bd6-8ebd-ad13070b3125", "name": "J D Wetherspoon"}], "closed_bucket": "VeryLikelyOpen", "distance": 904, "geocodes": {"main": {"latitude": 55.858831, "longitude": -4.260209}, "roof": {"latitude": 55.858831, "longitude": -4.260209}}, "link": "/v3/places/4b894198f964a520602632e3", "location": {"address": "260-292 Argyle St", "admin_region": "Scotland", "country": "GB", "formatted_address": "260-292 Argyle St, Glasgow, Glasgow City, G2 8QW", "locality": "Glasgow", "post_town": "Glasgow", "postcode": "G2 8QW", "region": "Glasgow City"}, "name": "The Sir John Moore", "related_places": {}, "timezone": "Europe/London"}, {"fsq_id": "4b1144caf964a520837923e3", "categories": [{"id": 13003, "name": "Bar", "short_name": "Bar", "plural_name": "Bars", "icon": {"prefix": "https://ss3.4sqi.net/img/categories_v2/nightlife/pub_", "suffix": ".png"}}, {"id": 13073, "name": "Australian Restaurant", "short_name": "Australian", "plural_name": "Australian Restaurants", "icon": {"prefix": "https://ss3.4sqi.net/img/categories_v2/food/australian_", "suffix": ".png"}}], "chains": [], "closed_bucket": "Unsure", "distance": 929, "geocodes": {"main": {"latitude": 55.865021, "longitude": -4.255106}, "roof": {"latitude": 55.865021, "longitude": -4.255106}}, "link": "/v3/places/4b1144caf964a520837923e3", "location": {"address": "128 Renfield St", "admin_region": "Scotland", "country": "GB", "formatted_address": "128 Renfield St, Glasgow, Glasgow City, G2 3AL", "locality": "Glasgow", "post_town": "Glasgow", "postcode": "G2 3AL", "region": "Glasgow City"}, "name": "Walkabout", "related_places": {}, "timezone": "Europe/London"}, {"fsq_id": "57c9a370498e646cd0826aa1", "categories": [{"id": 13003, "name": "Bar", "short_name": "Bar", "plural_name": "Bars", "icon": {"prefix": "https://ss3.4sqi.net/img/categories_v2/nightlife/pub_", "suffix": ".png"}}, {"id": 13055, "name": "Fried Chicken Joint", "short_name": "Fried Chicken", "plural_name": "Fried Chicken Joints", "icon": {"prefix": "https://ss3.4sqi.net/img/categories_v2/food/friedchicken_", "suffix": ".png"}}], "chains": [], "closed_bucket": "LikelyOpen", "distance": 661, "geocodes": {"main": {"latitude": 55.863345, "longitude": -4.259576}, "roof": {"latitude": 55.863345, "longitude": -4.259576}}, "link": "/v3/places/57c9a370498e646cd0826aa1", "location": {"address": "111 West Regent St", "admin_region": "Scotland", "country": "GB", "cross_street": "", "formatted_address": "111 West Regent St, Glasgow, Glasgow City, G2 2RU", "locality": "Glasgow", "post_town": "Glasgow", "postcode": "G2 2RU", "region": "Glasgow City"}, "name": "Buck's Bar", "related_places": {}, "timezone": "Europe/London"}, {"fsq_id": "512e5e4ee4b02c71f957e6e6", "categories": [{"id": 13003, "name": "Bar", "short_name": "Bar", "plural_name": "Bars", "icon": {"prefix": "https://ss3.4sqi.net/img/categories_v2/nightlife/pub_", "suffix": ".png"}}, {"id": 13065, "name": "Restaurant", "short_name": "Restaurant", "plural_name": "Restaurants", "icon": {"prefix": "https://ss3.4sqi.net/img/categories_v2/food/default_", "suffix": ".png"}}], "chains": [], "closed_bucket": "LikelyOpen", "distance": 870, "geocodes": {"main": {"latitude": 55.862462, "longitude": -4.256571}, "roof": {"latitude": 55.862462, "longitude": -4.256571}}, "link": "/v3/places/512e5e4ee4b02c71f957e6e6", "location": {"address": "134-136 West George St", "admin_region": "Scotland", "country": "GB", "cross_street": "", "formatted_address": "134-136 West George St, Glasgow, Glasgow City, G2 2HG", "locality": "Glasgow", "post_town": "Glasgow", "postcode": "G2 2HG", "region": "Glasgow City"}, "name": "The Merchant", "related_places": {}, "timezone": "Europe/London"}, {"fsq_id": "4bba231b1261d13a1f46ea98", "categories": [{"id": 13018, "name": "Pub", "short_name": "Pub", "plural_name": "Pubs", "icon": {"prefix": "https://ss3.4sqi.net/img/categories_v2/nightlife/pub_", "suffix": ".png"}}, {"id": 13065, "name": "Restaurant", "short_name": "Restaurant", "plural_name": "Restaurants", "icon": {"prefix": "https://ss3.4sqi.net/img/categories_v2/food/default_", "suffix": ".png"}}], "chains": [{"id": "07841cd9-3716-4bd6-8ebd-ad13070b3125", "name": "J D Wetherspoon"}], "closed_bucket": "Unsure", "distance": 255, "geocodes": {"main": {"latitude": 55.865686, "longitude": -4.266551}, "roof": {"latitude": 55.865686, "longitude": -4.266551}}, "link": "/v3/places/4bba231b1261d13a1f46ea98", "location": {"address": "351-363 Sauchiehall St", "admin_region": "Scotland", "country": "GB", "formatted_address": "351-363 Sauchiehall St, Glasgow, Glasgow City, G2 3HU", "locality": "Glasgow", "post_town": "Glasgow", "postcode": "G2 3HU", "region": "Glasgow City"}, "name": "The Henglers Circus", "related_places": {}, "timezone": "Europe/London"}, {"fsq_id": "4c894ce9da5da1cdec563be9", "categories": [{"id": 13018, "name": "Pub", "short_name": "Pub", "plural_name": "Pubs", "icon": {"prefix": "https://ss3.4sqi.net/img/categories_v2/nightlife/pub_", "suffix": ".png"}}], "chains": [], "closed_bucket": "Unsure", "distance": 702, "geocodes": {"main": {"latitude": 55.863859, "longitude": -4.281039}, "roof": {"latitude": 55.863859, "longitude": -4.281039}}, "link": "/v3/places/4c894ce9da5da1cdec563be9", "location": {"address": "1004 Argyle St", "admin_region": "Scotland", "country": "GB", "formatted_address": "1004 Argyle St, Glasgow, Glasgow City, G3 8LZ", "locality": "Glasgow", "post_town": "Glasgow", "postcode": "G3 8LZ", "region": "Glasgow City"}, "name": "The Brass Monkey", "related_places": {}, "timezone": "Europe/London"}, {"fsq_id": "4baa0c6df964a5208b463ae3", "categories": [{"id": 13003, "name": "Bar", "short_name": "Bar", "plural_name": "Bars", "icon": {"prefix": "https://ss3.4sqi.net/img/categories_v2/nightlife/pub_", "suffix": ".png"}}, {"id": 13337, "name": "Scottish Restaurant", "short_name": "Scottish", "plural_name": "Scottish Restaurants", "icon": {"prefix": "https://ss3.4sqi.net/img/categories_v2/food/default_", "suffix": ".png"}}], "chains": [], "closed_bucket": "VeryLikelyOpen", "distance": 815, "geocodes": {"main": {"latitude": 55.86492, "longitude": -4.256891}, "roof": {"latitude": 55.86492, "longitude": -4.256891}}, "link": "/v3/places/4baa0c6df964a5208b463ae3", "location": {"address": "224 Hope St", "admin_region": "Scotland", "country": "GB", "formatted_address": "224 Hope St, Glasgow, Glasgow City, G2 2UG", "locality": "Glasgow", "post_town": "Glasgow", "postcode": "G2 2UG", "region": "Glasgow City"}, "name": "Molly Malone's", "related_places": {}, "timezone": "Europe/London"}, {"fsq_id": "4bd818635cf276b06e6e9c00", "categories": [{"id": 13039, "name": "Deli", "short_name": "Deli", "plural_name": "Delis", "icon": {"prefix": "https://ss3.4sqi.net/img/categories_v2/food/deli_", "suffix": ".png"}}, {"id": 13145, "name": "Fast Food Restaurant", "short_name": "Fast Food", "plural_name": "Fast Food Restaurants", "icon": {"prefix": "https://ss3.4sqi.net/img/categories_v2/food/fastfood_", "suffix": ".png"}}, {"id": 13334, "name": "Sandwich Spot", "short_name": "Sandwich Spot", "plural_name": "Sandwich Spots", "icon": {"prefix": "https://ss3.4sqi.net/img/categories_v2/food/deli_", "suffix": ".png"}}], "chains": [{"id": "ab4bee40-d68a-012e-5619-003048cad9da", "name": "Subway"}], "closed_bucket": "VeryLikelyOpen", "distance": 936, "geocodes": {"main": {"latitude": 55.860206, "longitude": -4.257343}, "roof": {"latitude": 55.860206, "longitude": -4.257343}}, "link": "/v3/places/4bd818635cf276b06e6e9c00", "location": {"address": "107 Union St", "admin_region": "Scotland", "country": "GB", "formatted_address": "107 Union St, Glasgow, G1 3TA", "locality": "Glasgow", "post_town": "Glasgow", "postcode": "G1 3TA"}, "name": "Subway", "related_places": {}, "timezone": "Europe/London"}, {"fsq_id": "4bab03fcf964a520e1913ae3", "categories": [{"id": 13031, "name": "Burger Joint", "short_name": "Burgers", "plural_name": "Burger Joints", "icon": {"prefix": "https://ss3.4sqi.net/img/categories_v2/food/burger_", "suffix": ".png"}}, {"id": 13145, "name": "Fast Food Restaurant", "short_name": "Fast Food", "plural_name": "Fast Food Restaurants", "icon": {"prefix": "https://ss3.4sqi.net/img/categories_v2/food/fastfood_", "suffix": ".png"}}], "chains": [{"id": "ab4a3530-d68a-012e-5619-003048cad9da", "name": "McDonald's"}], "closed_bucket": "VeryLikelyOpen", "distance": 827, "geocodes": {"main": {"latitude": 55.864507, "longitude": -4.256738}, "roof": {"latitude": 55.864507, "longitude": -4.256738}}, "link": "/v3/places/4bab03fcf964a520e1913ae3", "location": {"address": "101/105 Sauchiehall St", "admin_region": "Scotland", "country": "GB", "formatted_address": "101/105 Sauchiehall St, Glasgow, Glasgow City, G2 3DD", "locality": "Glasgow", "post_town": "Glasgow", "postcode": "G2 3DD", "region": "Glasgow City"}, "name": "McDonald's", "related_places": {}, "timezone": "Europe/London"}], "context": {"geo_bounds": {"circle": {"center": {"latitude": 55.864563, "longitude": -4.270055}, "radius": 1000}}}}