,id,name,latitude,longitude,company
0,abu-dhabi-careem-bike,Abu Dhabi Careem BIKE,24.4866,54.3728,['Careem']
1,acces-velo-saguenay,Accès Vélo,48.433333,-71.083333,['PBSC Urban Solutions']
2,aksu,Aksu,41.1664,80.2617,['阿克苏公共服务']
3,alba,Alba,44.716667,8.083333,['Comunicare S.r.l.']
4,albabici,AlbaBici,38.9943,-1.8602,['Instituto Tecnológico de Castilla y León (ITCL)']
5,algira,AlGira,39.2082,-8.6252,"['Município de Almeirim', 'Wegoshare, Lda']"
6,almatybike,Almatybike,43.239101,76.9268076,"['Velobike.kz, LLP', 'Smoove']"
7,alsa-nextbike-leon,Alsa nextbike León,42.5987263,-5.5670959,['Leonbici Nextbike Gmbh Y Autobuses Urbanos De Leon S.a. Ute']
8,ambici-badalona,Ambici,41.447,2.245,"['Nextbike GmbH', 'TIER Mobility SE', 'Transports Metropolitans de Barcelona', 'Projectes i Serveis de Mobilitat S.A']"
9,ambici-castelldefels,Ambici,41.2816,1.97678,"['Nextbike GmbH', 'TIER Mobility SE', 'Transports Metropolitans de Barcelona', 'Projectes i Serveis de Mobilitat S.A']"
10,ambici-cornella-de-llobregat,Ambici,41.3585,2.07081,"['Nextbike GmbH', 'TIER Mobility SE', 'Transports Metropolitans de Barcelona', 'Projectes i Serveis de Mobilitat S.A']"
11,ambici-el-prat-de-llobregat,Ambici,41.3239,2.09317,"['Nextbike GmbH', 'TIER Mobility SE', 'Transports Metropolitans de Barcelona', 'Projectes i Serveis de Mobilitat S.A']"
12,ambici-esplugues-de-llobregat,Ambici,41.3771,2.08938,"['Nextbike GmbH', 'TIER Mobility SE', 'Transports Metropolitans de Barcelona', 'Projectes i Serveis de Mobilitat S.A']"
13,ambici-gava,Ambici,41.303,2.00269,"['Nextbike GmbH', 'TIER Mobility SE', 'Transports Metropolitans de Barcelona', 'Projectes i Serveis de Mobilitat S.A']"
14,ambici-molins-de-rei,Ambici,41.4132,2.02037,"['Nextbike GmbH', 'TIER Mobility SE', 'Transports Metropolitans de Barcelona', 'Projectes i Serveis de Mobilitat S.A']"
15,ambici-sant-boi-de-llobregat,Ambici,41.3458,2.03404,"['Nextbike GmbH', 'TIER Mobility SE', 'Transports Metropolitans de Barcelona', 'Projectes i Serveis de Mobilitat S.A']"
16,ambici-sant-joan-despi,Ambici,41.368,2.05635,"['Nextbike GmbH', 'TIER Mobility SE', 'Transports Metropolitans de Barcelona', 'Projectes i Serveis de Mobilitat S.A']"
17,ambici-sant-just-desvern,Ambici,41.3807,2.07496,"['Nextbike GmbH', 'TIER Mobility SE', 'Transports Metropolitans de Barcelona', 'Projectes i Serveis de Mobilitat S.A']"
18,ambici-santa-coloma-de-gramenet,Ambici,41.4459,2.21033,"['Nextbike GmbH', 'TIER Mobility SE', 'Transports Metropolitans de Barcelona', 'Projectes i Serveis de Mobilitat S.A']"
19,ambici-viladecans,Ambici,41.3165,2.01306,"['Nextbike GmbH', 'TIER Mobility SE', 'Transports Metropolitans de Barcelona', 'Projectes i Serveis de Mobilitat S.A']"
20,andria,Andria in Bici,41.224346932834,16.296983922753956,['Comunicare S.r.l.']
21,aral,Aral,40.5577,81.2879,['阿克苏公共服务']
22,arbike,ARbike,43.473333,11.87,['Comunicare S.r.l.']
23,arriva-nitra,Arriva,48.3088,18.0783,['Nextbike GmbH']
24,arval-scandicci,ARVAL,43.7701,11.1592,['Nextbike GmbH']
25,ascoli-piceno,Ascoli Piceno,42.85,13.583333,['Comunicare S.r.l.']
26,athens-bikes,AthensBikes,37.9838,23.7275,"['Brainbox Technology', 'Smoove SAS']"
27,austin,ATX MetroBike,30.26408,-97.74355,"['BCycle, LLC']"
28,auxrmlevelo,AuxR_M le vélo,47.797221,3.572376,['Fifteen SAS']
29,avelo-quebec,àVélo,46.81305,-71.2168,['PBSC Urban Solutions']
30,aventura,Aventura BCycle,25.95711,-80.1395,"['BCycle, LLC']"
31,aviles-en-bici,Avilés en Bici,43.5554,-5.9222,['Instituto Tecnológico de Castilla y León (ITCL)']
32,aw-bike,AW-bike Ahrweiler,50.5452,7.1212,['nextbike GmbH']
33,baksi-antalya,Baksi,36.862048,30.638866,['Baksi Bike Sharing System']
34,baksi-cabis,Çabis,40.1531,26.4146,['Baksi Bike Sharing System']
35,baksi-nilesplit,Nilesplit,40.2127,28.9627,['Baksi Bike Sharing System']
36,batumvelo,Batumvelo,41.660906,41.678835,['Smoove']
37,bay-wheels,Bay Wheels,37.7141454,-122.25,['Motivate LLC']
38,bealler,Pedaleando por Aller (BeALLER),43.1482,-5.6295,['Instituto Tecnológico de Castilla y León (ITCL)']
39,belfastbikes-belfast,BelfastBikes,54.5969,-5.92918,['Nextbike GmbH']
40,bentonville,Bentonville BCycle,36.3605,-94.1996,"['BCycle, LLC']"
41,bergen-bysykkel,Bysykkel,60.391263,5.322054,['Urban Sharing AS']
42,bergisches-e-bike,Bergisches e-Bike,51.0192,7.18025,['Nextbike GmbH']
43,beryl-bcp,"Beryl - Bournemouth, Christchurch and Poole",50.7196,-1.8734,['Beryl']
44,beryl-brighton,Beryl - Brighton,50.8222,-0.1403,['Beryl']
45,beryl-cornwall,Beryl - Cornwall,50.2616,-5.051,['Beryl']
46,beryl-greater-manchester,Beryl - Greater Manchester,53.4795,-2.2436,['Beryl']
47,beryl-hackney-cargo-bike,Beryl - Hackney Cargo Bike,51.5366,-0.0751,['Beryl']
48,beryl-hereford,Beryl - Hereford,52.0549,-2.7156,['Beryl']
49,beryl-hertsmere,Beryl - Hertsmere,51.6577,-0.2695,['Beryl']
50,beryl-isle-of-wight,Beryl - Isle of Wight,50.6958,-1.2238,['Beryl']
51,beryl-leeds,Beryl - Leeds,53.7971,-1.5438,['Beryl']
52,beryl-norwich,Beryl - Norwich,52.6288,1.2934,['Beryl']
53,beryl-plymouth,Beryl - Plymouth,50.3714,-4.1421,['Beryl']
54,beryl-portsmouth,Beryl - Portsmouth,50.8035,-1.0736,['Beryl']
55,beryl-southampton,Beryl - Southampton,50.9021,-1.3998,['Beryl']
56,beryl-watford,Beryl - Watford,51.6556,-0.3953,['Beryl']
57,beryl-west-midlands,Beryl - West Midlands,52.4798,-1.9014,['Beryl']
58,beryl-westminster-cargo-bike,Beryl - Westminster Cargo Bike,51.5215,-0.184,['Beryl']
59,beryl-wool,Beryl - Wool,50.6883,-2.2361,['Beryl']
60,bia,BIA,40.8599,-8.6246,"['Município de Ovar', 'Share2Go - Mobilidade Partilhada, Sociedade Unipessoal Lda']"
61,bianzone-in-bici,Bianzone in Bici,46.188197,10.109354,['Comunicare S.r.l.']
62,biba,BiBa,38.878,-6.9701,['Instituto Tecnológico de Castilla y León (ITCL)']
63,bibo,BIBO,40.4125,-3.8909,['Movilidad Urbana Sostenible SLU']
64,bici-bolzano,Bici Bolzano,46.49,11.3401,['Ecospazio Logiss S.r.l.']
65,bici-co,BICI&CO,45.8080597,9.0851765,['Comunicare S.r.l.']
66,bici-ferrol-terra,BiciFerrolTerra,43.4896,-8.2193,"['2K SYSTEMS, S.L.', 'Bike Works Naron']"
67,bici-in-busto,Bici in Busto,45.610555,8.852062,['Comunicare S.r.l.']
68,bici-perugia,Bici Perugia,43.1107168,12.3908279,['Comunicare S.r.l.']
69,bicialcazar,BiciAlcázar,39.3901,-3.2101,['Instituto Tecnológico de Castilla y León (ITCL)']
70,biciarousa,BiciArousa,42.5521,-8.8666,['Instituto Tecnológico de Castilla y León (ITCL)']
71,biciarteixo,biciArteixo,43.3053,-8.5069,"['Servizos Urbanos Municipais de Arteixo, S. A.']"
72,bicibur,BiciBur,42.34392,-3.69697,['Instituto Tecnológico de Castilla y León (ITCL)']
73,bicicas,Bicicas,39.9856,-0.0389,"['Maquiver S.L.U.', 'Ajuntament de Castelló de la Plana']"
74,bicicletar,Bicicletar,-3.7321944,-38.510347,"['Mobilicidade Tecnologia LTD', 'Grupo Serttel LTDA']"
75,bicicorunha,Bicicoruña,43.3623,-8.4115,['PBSC Urban Solutions']
76,bicicuenca,Bici Pública Cuenca,-2.897,-79.0038,"['Mobilicidade Tecnologia LTD', 'Grupo Serttel LTDA']"
77,bicielx,Bicielx,38.2665,-0.7,"['Promociones e Iniciativas Municipales de Elche, S.A.']"
78,bicikelj,Bicikelj,46.05645089999999,14.5080702,['JCDecaux']
79,bicilog,BiciLog,42.4658,-2.4402,['Instituto Tecnológico de Castilla y León (ITCL)']
80,bicimad,BiciMAD,40.4168,-3.7038,"['Empresa Municipal de Transportes de Madrid, S.A.']"
81,bicimia,bicimia,45.5378,10.2173,['Comunicare S.r.l.']
82,bicimislata,BiciMislata,39.4763,-0.4182,"['Movilidad Urbana Sostenible, S.L']"
83,bicincitta-acquarica-del-capo,Bicincittà,39.9144573,18.2450324,['Comunicare S.r.l.']
84,bicincitta-acquaviva-delle-fonti,Bicincittà,40.9303721,16.8414374,['Comunicare S.r.l.']
85,bicincitta-alghero,Bicincittà,40.5579517,8.319294900000001,['Comunicare S.r.l.']
86,bicincitta-assemini,Bicincittà,39.28956306007679,9.006601555294765,['Comunicare S.r.l.']
87,bicincitta-borgarello,Bicincittà,45.23963753440171,9.136150475640875,['Comunicare S.r.l.']
88,bicincitta-brancaleone,Bicincittà,37.9679084,16.0757749,['Comunicare S.r.l.']
89,bicincitta-carrara,Bicincittà,44.07731805550891,10.097172450401331,['Comunicare S.r.l.']
90,bicincitta-casaletto-spartano,Bicincittà,40.1532801,15.6211479,['Comunicare S.r.l.']
91,bicincitta-castel-guelfo-the-style-outlets,Bicincittà,44.4328527,11.6750857,['Comunicare S.r.l.']
92,bicincitta-cesena,Mi Muovo in bici,44.1396438,12.2464292,['Comunicare S.r.l.']
93,bicincitta-cisterna-di-latina,Bicincittà,41.5754029,12.8284772,['Comunicare S.r.l.']
94,bicincitta-costa-blu,Costa Blu,42.5009,14.1282,['Comunicare S.r.l.']
95,bicincitta-elmas,Bicincittà,39.2634329,9.0515805,['Comunicare S.r.l.']
96,bicincitta-ente-parco-del-circeo,Bicincittà,41.3151015,13.0330782,['Comunicare S.r.l.']
97,bicincitta-ente-parco-di-montemarcello-magra,Bicincittà,44.1143897,9.9635986,['Comunicare S.r.l.']
98,bicincitta-ente-parco-san-rossore,Bicincittà,43.723826,10.339509,['Comunicare S.r.l.']
99,bicincitta-forli,Mi Muovo in Bici,44.2227398,12.0407312,['Comunicare S.r.l.']
100,bicincitta-gaeta,Bicincittà,41.209620965538036,13.584335125656139,['Comunicare S.r.l.']
101,bicincitta-gallipoli,Bicincittà,40.0558554,17.9925085,['Comunicare S.r.l.']
102,bicincitta-imola,Mi Muovo in bici,44.3559128,11.7161197,['Comunicare S.r.l.']
103,bicincitta-lavis,Bicincittà,46.1408423,11.1124935,['Comunicare S.r.l.']
104,bicincitta-livorno,Bicincittà,43.548473,10.3105674,['Comunicare S.r.l.']
105,bicincitta-mantova,Bicincittà,45.15866370764634,10.783718973016335,['Comunicare S.r.l.']
106,bicincitta-massa,Bici in Massa,44.0146,10.1017,['Comunicare S.r.l.']
107,bicincitta-mezzocorona,Bicincittà,46.2339047,11.1277461,['Comunicare S.r.l.']
108,bicincitta-mezzolombardo,Bicincittà,46.21400260000001,11.0967867,['Comunicare S.r.l.']
109,bicincitta-modena,Mi Muovo in bici,44.647128,10.9252269,['Comunicare S.r.l.']
110,bicincitta-monserrato,Bicincittà,39.2560191,9.1453579,['Comunicare S.r.l.']
111,bicincitta-montecatini-terme,Bicincittà,43.88362791665083,10.764385656591799,['Comunicare S.r.l.']
112,bicincitta-monteriggioni,Sipedala,43.3896,11.2236,['Comunicare S.r.l.']
113,bicincitta-monza,Bicincittà,45.5845001,9.2744485,['Comunicare S.r.l.']
114,bicincitta-morigerati,Bicincittà,40.1422031,15.5298525,['Comunicare S.r.l.']
115,bicincitta-parco-dei-colli-di-bergamo,Bicincittà,45.72295637032245,9.649230073016383,['Comunicare S.r.l.']
116,bicincitta-parco-molentargius-saline,Bicincittà,39.2052545,9.146761099999999,['Comunicare S.r.l.']
117,bicincitta-pista,PisTA!,40.4351,17.2096,['Comunicare S.r.l.']
118,bicincitta-pizzighettone-formigara,Bicincittà,45.186748819167434,9.778087948479424,['Comunicare S.r.l.']
119,bicincitta-porto-torres,Bicincittà,40.8333682,8.402292899999999,['Comunicare S.r.l.']
120,bicincitta-rivarolo-canavese,Bicincittà,45.306633,7.723242,['Comunicare S.r.l.']
121,bicincitta-san-donato-milanese,Bicincittà,45.4092402,9.2684867,['Comunicare S.r.l.']
122,bicincitta-san-giovanni-in-persiceto,Mi Muovo in Bici,44.6405433,11.1893053,['Comunicare S.r.l.']
123,bicincitta-san-lazzaro-di-savena,Mi Muovo in Bici,44.4702725,11.409399,['Comunicare S.r.l.']
124,bicincitta-san-michele-alladige,Bicincittà,46.1878653,11.1330423,['Comunicare S.r.l.']
125,bicincitta-san-teodoro,Bicincittà,40.7722837,9.6695458,['Comunicare S.r.l.']
126,bicincitta-scafati,Bicincittà,40.7620174,14.5363969,['Comunicare S.r.l.']
127,bicincitta-scandiano,Mi Muovo in Bici,44.5982342,10.6909273,['Comunicare S.r.l.']
128,bicincitta-selargius,Bicincittà,39.2596768,9.1629372,['Comunicare S.r.l.']
129,bicincitta-siena,Bicincittà,43.3186,11.3306,['Comunicare S.r.l.']
130,bicincitta-tivat,Bicincittà,42.4349809,18.7066398,['Comunicare S.r.l.']
131,bicincitta-tortoli,Bicincittà,39.92664489852196,9.654953570777934,['Comunicare S.r.l.']
132,bicincitta-treviglio,Bicincittà,45.5293372,9.591435899999999,['Comunicare S.r.l.']
133,bicincitta-trieste,BiTS,45.6495,13.7768,['Comunicare S.r.l.']
134,bicincitta-vicolungo-the-style-outlets,Bicincittà,45.47167229999999,8.4633922,['Comunicare S.r.l.']
135,bicing,Bicing,41.3850639,2.1734035,"['Barcelona de Serveis Municipals, S.A. (BSM)', 'CESPA', 'PBSC']"
136,bicinquartucciu,BicinQuartucciu,39.25043149806156,9.179296426489255,['Comunicare S.r.l.']
137,bicinrivas,BiciNRivas,40.35353,-3.53095,['Instituto Tecnológico de Castilla y León (ITCL)']
138,bicipalma,Bicipalma,39.57119,2.646634,['Nextbike GmbH']
139,bicisanvi,Bicisanvi,38.39611,-0.5236,['Movilidad Urbana Sostenible SLU']
140,bicischio,BiciSchio,45.7170517,11.3597702,['Comunicare S.r.l.']
141,biclis,biclis,39.7495,-8.8074,"['Município de Leiria', 'Share2Go - Mobilidade Partilhada, Sociedade Unipessoal Lda']"
142,bicloo,Bicloo,47.218371,-1.553621,['JCDecaux']
143,bicyklezadobreskutky,Bicykle za dobré skutky,48.996275,21.234341,['Open Source Bike Share']
144,biella,Biella,45.5775,8.051111,['Comunicare S.r.l.']
145,bigi,BiGi,45.695,9.67,['Comunicare S.r.l.']
146,bike-chattanooga,Bike Chattanooga,35.0456297,-85.3096801,"['Motivate International, Inc', 'PBSC']"
147,bike-curitiba,BikeCuritiba,-25.4299,-49.2722,"['M1 Transportes Sustentáveis Ltda.', 'M2 Soluções Em Engenharia Ltda.', 'Tembici']"
148,bike-itau-nordelta,Bike Itaú Nordelta,-34.4146,-58.6493,"['Tembici', 'Itaú Argentina', 'Zurich Insurance Group']"
149,bikebrasilia,BikeBrasilia,-15.795115,-47.887424,['Tembici']
150,bikekia-zilina,BikeKia,49.2217,18.7572,['Nextbike GmbH']
151,bikemi,BikeMi,45.4654542,9.186516,['IGP S.p.A.']
152,bikenmedio,BikEnmedio,42.9995,-4.1393,['Instituto Tecnológico de Castilla y León (ITCL)']
153,bikepoa,BikePOA,-30.033079,-51.23654,"['Tembici', 'PBSC Urban Solutions']"
154,bikerecife,BikeRecife,-8.047129,-34.873437,"['Tembici', 'PBSC Urban Solutions']"
155,bikerio,BikeRio,-22.904315,-43.184776,"['Tembici', 'PBSC Urban Solutions']"
156,bikesalvador,BikeSalvador,-12.973959,-38.508171,"['Tembici', 'PBSC Urban Solutions']"
157,bikesampa,BikeSampa,-23.55,-46.6333,"['Tembici', 'PBSC Urban Solutions']"
158,bikesantiago,BikeSantiago,-33.45,-70.67,"['Tembici', 'PBSC Urban Solutions']"
159,bikesantos,BikeSantos,-23.954052,-46.333345,"['Mobilicidade Tecnologia LTD', 'Grupo Serttel LTDA']"
160,bikeshare-peninsula-papagayo,Peninsula Papagayo Bike-Share,10.6246,-85.6796,"['Ecodesarrollo Papagayo Limitada', 'Wegoshare, Lda']"
161,biketown,BIKETOWN,45.52175423291714,-122.68107935786247,"['Portland Bureau of Transportation (PBOT)', 'Lyft Inc.']"
162,biketown-whq,Biketown WHQ (Nike campus),45.5087,-122.8294,[]
163,bikeu-bra,Bydgoski rower aglomeracyjny,53.12193,18.00038,['Bike U Sp. z o.o.']
164,bikeverona,Verona Bike,45.438611,10.992778,"['IGP S.p.A.', 'Urban Sharing AS']"
165,bikevitoria,Bike Vitória,-20.3202,-40.3375,"['Mobilicidade Tecnologia LTD', 'Grupo Serttel LTDA']"
166,biki,BIKI,41.6522,-4.7243,['Autobuses Urbanos de Valladolid S.A']
167,bilbon-bizi,BilbonBizi,43.2752,-2.93528,['Nextbike GmbH']
168,bismarck,BisPArks BCycle,46.8082,-100.7847,"['BCycle, LLC']"
169,bixi-montreal,Bixi,45.508693,-73.553928,"['Motivate International, Inc.', 'PBSC Urban Solutions', 'BIXI Montréal']"
170,bixi-toronto,Bike Share Toronto,43.653226,-79.3831843,"['Motivate International, Inc.', 'PBSC Urban Solutions']"
171,bizi,Bizi,41.6487908,-0.8895811,['ClearChannel']
172,bizkaibizi-barakaldo,Bizkaibizi,43.2966,-2.987,['UTE Bizkaibizi']
173,bizkaibizi-berango,Bizkaibizi,43.3619,-2.9968,['UTE Bizkaibizi']
174,bizkaibizi-bilbao,Bizkaibizi,43.2617,-2.9491,['UTE Bizkaibizi']
175,bizkaibizi-erandio,Bizkaibizi,43.3029,-2.9756,['UTE Bizkaibizi']
176,bizkaibizi-getxo,Bizkaibizi,43.3476,-3.0088,['UTE Bizkaibizi']
177,bizkaibizi-leioa,Bizkaibizi,43.3266,-2.9897,['UTE Bizkaibizi']
178,bizkaibizi-portugalete,Bizkaibizi,43.318,-3.0214,['UTE Bizkaibizi']
179,bizkaibizi-santurtzi,Bizkaibizi,43.328,-3.0335,['UTE Bizkaibizi']
180,bizkaibizi-sestao,Bizkaibizi,43.3093,-3.0068,['UTE Bizkaibizi']
181,bl-bike-banja-luka,BL bike,44.775,17.1994,['Nextbike GmbH']
182,blue-bikes,Blue Bikes,42.3584308,-71.0597732,"['Motivate International, Inc.', 'PBSC Urban Solutions']"
183,bora,Bora!,40.656392,-7.912545,"['SOLTRÁFEGO, SA']"
184,boulder,Boulder BCycle,40.00811,-105.26385,"['BCycle, LLC']"
185,brindisi,BrindisiByBike,40.637580319936106,17.940774547082572,['Comunicare S.r.l.']
186,broward,Broward BCycle,26.12026,-80.14819,"['BCycle, LLC']"
187,bubi,MOL Bubi,47.497912,19.040235,['Nextbike GmbH']
188,bublr-bikes,Bublr Bikes,43.0369,-87.89667,"['BCycle, LLC']"
189,buga,BUGA,40.6388,-8.6479,"['SOLTRÁFEGO, SA']"
190,burgenland-neusiedler-see,Burgenland,47.839,16.761,['Nextbike GmbH']
191,bysykkel-lillestrom,Bysykkel,59.9559696,11.0503785,['JCDecaux']
192,c-velo,C.vélo,45.7831,3.0824,"['CityBike France', 'PBSC Urban Solutions']"
193,cagliari,Cagliari,39.220817,9.121399,['Comunicare S.r.l.']
194,callabike-berlin,Call-A-Bike,52.5179,13.3895,['Deutsche Bahn AG']
195,callabike-darmstadt,Call-A-Bike,49.8707135,8.6527299,['Deutsche Bahn AG']
196,callabike-frankfurt,Call-A-Bike,50.1109,8.6795,['Deutsche Bahn AG']
197,callabike-koln,Call-A-Bike,50.939,6.9595,['Deutsche Bahn AG']
198,callabike-munchen,Call-A-Bike,48.1375,11.5759,['Deutsche Bahn AG']
199,capital-bikeshare,Capital BikeShare,38.8967584,-77.03701629999999,"['Motivate International, Inc.', 'PBSC Urban Solutions']"
200,carbonia,Carbonia,39.167222,8.522222,['Comunicare S.r.l.']
201,carvelo,carvelo eCargo-Bike Sharing,46.9829,8.2331,"['Mobilitätsakademie AG', 'Touring Club Switzerland (TCS)']"
202,cascavel,Cascavel Vai de Bici,-24.9558,-53.4566,['Mobhis Automação Urbana']
203,cassano-d-adda,Cassano d'Adda,45.5309616,9.5155813,['Comunicare S.r.l.']
204,castellucchio,Castellucchio,45.15047821582959,10.651202201843262,['Comunicare S.r.l.']
205,chantrerie-captainbike,Chantrerie VLS (Captain Bike),47.2868203,-1.5210917,['Ecovelo']
206,charlotte,Charlotte Joyrides,35.22716,-80.83855,"['BCycle, LLC']"
207,chartered-bike-bhopal,Chartered Bike,23.258546,77.401851,['CHARTERED BIKE PRIVATE LIMITED']
208,chartered-bike-bilaspur,Chartered Bike,22.07834,82.14768,['CHARTERED BIKE PRIVATE LIMITED']
209,chartered-bike-moradabad,Chartered Bike,28.83263,78.77346,['CHARTERED BIKE PRIVATE LIMITED']
210,chartered-bike-prayagraj,Chartered Bike,25.43802,81.83383,['CHARTERED BIKE PRIVATE LIMITED']
211,chartered-bike-rajarhat-new-town,Chartered Bike,22.58797,88.4731,['CHARTERED BIKE PRIVATE LIMITED']
212,chartered-bike-ranchi,Chartered Bike,23.37005,85.325004,['CHARTERED BIKE PRIVATE LIMITED']
213,chartered-bike-srinagar,Chartered Bike,34.07471,74.82044,['CHARTERED BIKE PRIVATE LIMITED']
214,chartered-bike-surat,Chartered Bike,21.18626,72.80798,['CHARTERED BIKE PRIVATE LIMITED']
215,chivasso,Chivasso,45.189765,7.888935,['Comunicare S.r.l.']
216,choletbus,Choletbus 2 roues,47.06,-0.8783,['Ecovelo']
217,ciclopi,Ciclopi,43.7228386,10.4016888,['Comunicare S.r.l.']
218,cincy-red-bike,Cincy Red Bike,39.10138,-84.51217,"['BCycle, LLC']"
219,citi-bike-miami,Citi Bike Miami,25.790654,-80.1300455,['DecoBike LLC']
220,citi-bike-nyc,Citi Bike,40.7143528,-74.00597309999999,"['NYC Bike Share, LLC', 'Motivate International, Inc.', 'PBSC Urban Solutions']"
221,citybike-lima,CityBike Lima,-12.1209,-77.0296,"['CityBike Miraflores S.A.C.', 'CityBike San Isidro S.A.C', 'Fifteen', 'Moventia']"
222,citybikelinz,city bike Linz,48.3003,14.2843,['Nextbike GmbH']
223,citybikes-helsinki,City bikes,60.16985569999999,24.938379,"['Helsinki City Transport', 'Helsinki Regional Transport', 'CityBikeFinland', 'Smoove SAS', 'Moventia', 'Alepa']"
224,civitavecchia,Civitavecchia,42.0937524,11.7922462,['Comunicare S.r.l.']
225,clemson,Clemson University Bike Share,34.67847,-82.8351,"['BCycle, LLC']"
226,clujbike,Cluj Bike,46.775,23.5975,['Municipiul Cluj-Napoca']
227,co-bikes-exeter,Co-bikes,50.7272,-3.53605,['Nextbike GmbH']
228,cogo,CoGo,39.983333,-82.983333,"['Motivate International, Inc.', 'PBSC Urban Solutions']"
229,cork,TFI Bikes,51.893604,-8.494174,['The National Transport Authority']
230,cuneo,Cuneo,44.384238,7.541428,['Comunicare S.r.l.']
231,cyclam,Cycl’AM,49.7719,4.7161,['Ecovelo']
232,cyclolibre,CYCLOlibre,43.2127,2.3492,['Ecovelo']
233,cyclopolis-aigialeia,Cyclopolis,38.2511101325,22.0821570196,['Cyclopolis Systems']
234,cyclopolis-arxaiaolympia,Cyclopolis,37.6419700934,21.6247265179,['Cyclopolis Systems']
235,cyclopolis-chania,Cyclopolis,35.5148425,24.0177549,['Cyclopolis Systems']
236,cyclopolis-edessa,Cyclopolis,40.8033168,22.0436732,['Cyclopolis Systems']
237,cyclopolis-florina,Cyclopolis,40.8016111,21.4245222,['Cyclopolis Systems']
238,cyclopolis-igoumenitsa,Cyclopolis,39.5031199,20.2639271,['Cyclopolis Systems']
239,cyclopolis-kiato,Cyclopolis,38.0132674508,22.7493819902,['Cyclopolis Systems']
240,cyclopolis-limnos,Cyclopolis,39.8747861,25.0586722,['Cyclopolis Systems']
241,cyclopolis-loutraki,Cyclopolis,37.9782137,22.9767486,['Cyclopolis Systems']
242,cyclopolis-marathon,Cyclopolis,38.0855680022,23.9776389963,['Cyclopolis Systems']
243,cyclopolis-maroussi,Cyclopolis,38.0568722388,23.8083299536,['Cyclopolis Systems']
244,cyclopolis-moschatotavros,Cyclopolis,37.9538991434,23.6824746661,['Cyclopolis Systems']
245,cyclopolis-nafplio,Cyclopolis,37.5639397319,22.8093402872,['Cyclopolis Systems']
246,cyclopolis-neasmyrni,Cyclopolis,37.9381,23.7126,['Cyclopolis Systems']
247,cyclopolis-rhodes,Cyclopolis,36.4509118,28.2246966,['Cyclopolis Systems']
248,cyclopolis-syros,Cyclopolis,37.443861,24.9393979,['Cyclopolis Systems']
249,cyclovis,Cyclovis,49.3817,3.3236,['Ecovelo']
250,cykl,Cykl,51.974,5.6671,['Open Source Bike Share']
251,dbizi,Dbizi,43.3186,-1.9836,"['UTE BIZISS', 'Movilidad Urbana Sostenible SLU', 'URBASER, S.A.', 'AENOR INTERNACIONAL S.A.', 'PBSC Urban Solutions']"
252,dcs-bike,DCS Bike,49.5346,8.47004,['Nextbike GmbH']
253,denver,Lyft,39.72055,-104.95253,['Lyft Inc.']
254,desmoines,Des Moines BCycle,41.6005448,-93.6091064,"['BCycle, LLC']"
255,divia-velodi,DiviaVélodi,47.3215806,5.0414701,['Cykleo SAS']
256,divvy,Divvy,41.8781136,-87.6297982,"['Motivate International, Inc.', 'PBSC Urban Solutions']"
257,docomo-cycle-aichi,Docomo Bike Share Aichi,35.1835,136.904,"['DOCOMO BIKE SHARE, INC.']"
258,docomo-cycle-fukui,Docomo Bike Share Fukui,36.0665,136.2138,"['DOCOMO BIKE SHARE, INC.']"
259,docomo-cycle-gifu,Docomo Bike Share Gifu,35.4512,137.02627,"['DOCOMO BIKE SHARE, INC.']"
260,docomo-cycle-hiroshima,Docomo Bike Share Hiroshima,34.3904,132.4527,"['DOCOMO BIKE SHARE, INC.']"
261,docomo-cycle-hyogo,Docomo Bike Share Hyōgo,34.8147,134.689,"['DOCOMO BIKE SHARE, INC.']"
262,docomo-cycle-ibaraki,Docomo Bike Share Ibaraki,36.3732,140.2549,"['DOCOMO BIKE SHARE, INC.']"
263,docomo-cycle-ishikawa,Docomo Bike Share Ishikawa,36.5594,136.658,"['DOCOMO BIKE SHARE, INC.']"
264,docomo-cycle-kagoshima,Docomo Bike Share Kagoshima,31.588,130.5547,"['DOCOMO BIKE SHARE, INC.']"
265,docomo-cycle-kanagawa,Docomo Bike Share Kanagawa,35.4504,139.625,"['DOCOMO BIKE SHARE, INC.']"
266,docomo-cycle-kyoto,Docomo Bike Share Kyoto,35.0001,135.7587,"['DOCOMO BIKE SHARE, INC.']"
267,docomo-cycle-miyagi,Docomo Bike Share Miyagi,38.2607,140.8814,"['DOCOMO BIKE SHARE, INC.']"
268,docomo-cycle-nara,Docomo Bike Share Nara,34.6839,135.8087,"['DOCOMO BIKE SHARE, INC.']"
269,docomo-cycle-niigata,Docomo Bike Share Niigata,37.9186,139.0488,"['DOCOMO BIKE SHARE, INC.']"
270,docomo-cycle-oita,Docomo Bike Share Ōita,33.2393,131.6124,"['DOCOMO BIKE SHARE, INC.']"
271,docomo-cycle-okayama,Docomo Bike Share Okayama,34.603,133.765,"['DOCOMO BIKE SHARE, INC.']"
272,docomo-cycle-okinawa,Docomo Bike Share Okinawa,26.2097,127.6841,"['DOCOMO BIKE SHARE, INC.']"
273,docomo-cycle-osaka,Docomo Bike Share Osaka,34.693,135.5028,"['DOCOMO BIKE SHARE, INC.']"
274,docomo-cycle-shiga,Docomo Bike Share Shiga,35.0378,135.9801,"['DOCOMO BIKE SHARE, INC.']"
275,docomo-cycle-tokyo,Docomo Bike Share Tokyo,35.6827,139.766,"['DOCOMO BIKE SHARE, INC.']"
276,docomo-cycle-yamanashi,Docomo Bike Share Yamanashi,35.6848,138.733,"['DOCOMO BIKE SHARE, INC.']"
277,donkey-gh,Donkey Republic - Gent,51.05,3.7303,['Donkey Republic']
278,dubai-careem-bike,Dubai Careem BIKE,25.1713,55.2324,['Careem']
279,dublinbikes,dublinbikes,53.3498053,-6.2603097,['JCDecaux']
280,e-motion-rovereto,e.motion,45.88710661061543,11.042242751867644,['Comunicare S.r.l.']
281,e-motion-trento,e.motion,46.06643205823519,11.122145390351879,['Comunicare S.r.l.']
282,easybike-didymoteicho,EasyBike,41.3502539849,26.4972960949,"['Brainbox Technology', 'Smoove SAS']"
283,easybike-glyfada,EasyBike,37.8715809825,23.7355544376,"['Brainbox Technology', 'Smoove SAS']"
284,easybike-igoumenitsa,EasyBike,39.5005770633,20.2635206985,"['Brainbox Technology', 'Smoove SAS']"
285,easybike-ioannina,EasyBike,39.6639818,20.8522784,"['Brainbox Technology', 'Smoove SAS']"
286,easybike-irakleio,EasyBike,35.338735,25.144213,"['Brainbox Technology', 'Smoove SAS']"
287,easybike-karditsa,EasyBike,39.3634604,21.9211192,"['Brainbox Technology', 'Smoove SAS']"
288,easybike-kinouria,EasyBike,37.1476704305,22.8933729935,"['Brainbox Technology', 'Smoove SAS']"
289,easybike-komotini,EasyBike,41.117833,25.4041307,"['Brainbox Technology', 'Smoove SAS']"
290,easybike-mani,EasyBike,41.4097472,26.4024952,"['Brainbox Technology', 'Smoove SAS']"
291,easybike-patra,EasyBike,38.2410966371,21.7259683418,"['Brainbox Technology', 'Smoove SAS']"
292,easybike-rethymno,EasyBike,35.3667571777,24.4832845736,"['Brainbox Technology', 'Smoove SAS']"
293,easybike-samos,EasyBike,37.754065919,26.9787850189,"['Brainbox Technology', 'Smoove SAS']"
294,ecobici,EcoBici,19.4326077,-99.133208,"['5M2 S.A. DE C.V.', 'BKT BICIPÚBLICA S.A. DE C.V.', 'Lyft Inc.']"
295,ecobici-buenos-aires,Ecobici,-34.630665,-58.41156,"['Tembici', 'Itaú Argentina']"
296,edeka-gruenheide-mark,EDEKA Grünheide,52.4247,13.8203,['Nextbike GmbH']
297,eifel,Eifel e-Bike,50.5771,6.64673,['Nextbike GmbH']
298,elpaso,El Paso BCycle,31.76148,-106.48507,"['BCycle, LLC']"
299,emobi-osijek,eMobi (Croatia),45.554,18.6943,['Nextbike GmbH']
300,encicla,EnCicla,6.2443,-75.5735,['Sistema de Bicicletas Públicas del Valle de Aburrá']
301,enna,Enna,37.56342572664775,14.27973747253418,['Comunicare S.r.l.']
302,eoulling-sejong,어울링 (Eoulling),36.4901,127.2829,['Sejong City Transportation Corporation']
303,facherrad-karlsruhe,Fächerrad,49.0102,8.41827,['Nextbike GmbH']
304,famagusta,Famagusta Bike Share,35.123,33.9346,['PBSC Urban Solutions']
305,famose,Fa.Mo.Se,43.7603,13.1139,"['Comuni di Senigallia e Mondolfo', 'TIER Mobility SE']"
306,figas,Figas,40.1548,-8.8613,"['Município de Figueira da Foz', 'Wegoshare, Lda']"
307,foli,Fölläri bikes,60.4506,22.2666,"['Turku Region Traffic Föli', 'DonkeyRepublic Admin ApS']"
308,fortworth,Fort Worth Bike Sharing,32.7516,-97.32888,"['BCycle, LLC']"
309,free-bike-sharing,FRee Bike sharing,41.645081,13.342123,['Comunicare S.r.l.']
310,frelo-freiburg,Frelo,47.9958,7.84453,['Nextbike GmbH']
311,galway,TFI Bikes,53.2783491544,-9.05069143207,['The National Transport Authority']
312,ganxeta-reus,Ganxeta,41.1589,1.10623,"['REUS MOBILITAT I SERVEIS, S.A. (RMS)']"
313,gbici,Gbici,40.308,-3.7301,['Instituto Tecnológico de Castilla y León (ITCL)']
314,gijon,Gijón Bici,43.5396116,-5.6663604,"['Citybike España S.L.U.', 'Fifteen SAS']"
315,gimme-bike,Gimme Bike,45.8183902,8.823913,['Comunicare S.r.l.']
316,gira,Gira,38.724954,-9.149334,['EMEL']
317,girocleta,Girocleta,41.9794005,2.8214264,['ICNITA S.L.']
318,gobiki,Biki,21.3043,-157.856,['Bikeshare Hawaii Island']
319,goodbike,GoodBike,45.4064349,11.8767611,['Bicincitta Italia S.r.l.']
320,grad-drnis-drnis,Nextbike,43.8425,16.1197,['Nextbike GmbH']
321,grad-ivanic-grad-ivanic-grad,Grad Ivanić-Grad,45.7062,16.3919,['Nextbike GmbH']
322,grad-karlovac-karlovac,Grad Karlovac,45.4905,15.5503,['Nextbike GmbH']
323,grad-makarska-makarska,Grad Makarska,43.2992,17.0184,['Nextbike GmbH']
324,grad-metkovic-metkovic,Grad Metković,43.0654,17.642,['Nextbike GmbH']
325,grad-sibenik-sibenik,Grad Šibenik,43.733,15.8982,['Nextbike GmbH']
326,grad-sisak-sisak,Grad Sisak,45.4875,16.3753,['Nextbike GmbH']
327,grad-slavonski-brod-slavonski-brod,Grad Slavonski Brod,45.1656,18.0183,['Nextbike GmbH']
328,grad-split,Grad Split (Croatia),43.5162,16.4637,['Nextbike GmbH']
329,grad-split-opcina-hrvace,Grad Split (Croatia),43.7553,16.6197,['Nextbike GmbH']
330,grad-split-opcina-klis,Grad Split (Croatia),43.5605,16.5269,['Nextbike GmbH']
331,grad-split-opcina-otok-dalmatinski,Grad Split (Croatia),43.6889,16.7361,['Nextbike GmbH']
332,grad-split-podstrana,Grad Split (Croatia),43.4934,16.5598,['Nextbike GmbH']
333,grad-split-sinj,Grad Split (Croatia),43.7031,16.6364,['Nextbike GmbH']
334,grad-split-solin,Grad Split (Croatia),43.5441,16.4833,['Nextbike GmbH']
335,grad-split-trogir,Grad Split (Croatia),43.5234,16.2476,['Nextbike GmbH']
336,grad-velika-gorica-velika-gorica,Grad Velika Gorica,45.7161,16.0683,['Nextbike GmbH']
337,grad-vukovar,Grad Vukovar (Croatia),45.3575,18.9895,['Nextbike GmbH']
338,grad-zadar-zadar,Grad Zadar,44.0058,15.2183,['Nextbike GmbH']
339,grad-zapresic,Grad Zaprešić (Croatia),45.8622,15.8049,['Nextbike GmbH']
340,green-bike-aruba,Green Bike,12.5524,-70.0491,"['Friendly Green Bike Company Aruba, V.B.A.', 'PBSC Urban Solutions']"
341,greenbikeslc,GREENbike,40.76745,-111.88736,"['BCycle, LLC']"
342,greenville,Greenville BCycle,34.85261759999999,-82.3940104,"['BCycle, LLC']"
343,greifswald,StadtRad Greifswald,54.0961,13.3787,['Nextbike GmbH']
344,hellocycling-aichi,HELLO CYCLING Aichi,35.1827,136.9096,['OpenStreet Corp.']
345,hellocycling-chiba,HELLO CYCLING Chiba,35.6687,140.0201,['OpenStreet Corp.']
346,hellocycling-ehime,HELLO CYCLING Ehime,33.8445,132.76913,['OpenStreet Corp.']
347,hellocycling-fukuoka,HELLO CYCLING Fukuoka,33.8823,130.8759,['OpenStreet Corp.']
348,hellocycling-gifu,HELLO CYCLING Gifu,35.3348,137.1236,['OpenStreet Corp.']
349,hellocycling-hiroshima,HELLO CYCLING Hiroshima,34.40061,133.19824,['OpenStreet Corp.']
350,hellocycling-hyougo,HELLO CYCLING Hyougo,34.7356,135.3697,['OpenStreet Corp.']
351,hellocycling-ibaraki,HELLO CYCLING Ibaraki,36.0852,140.2008,['OpenStreet Corp.']
352,hellocycling-iwate,HELLO CYCLING Iwate,39.6992,141.1343,['OpenStreet Corp.']
353,hellocycling-kagawa,HELLO CYCLING Kagawa,34.4898,134.26,['OpenStreet Corp.']
354,hellocycling-kanagawa,HELLO CYCLING Kanagawa,35.3629,139.4677,['OpenStreet Corp.']
355,hellocycling-kumamoto,HELLO CYCLING Kumamoto,32.21207,130.75388,['OpenStreet Corp.']
356,hellocycling-kyoto,HELLO CYCLING Kyoto,35.01897,135.75747,['OpenStreet Corp.']
357,hellocycling-nagano,HELLO CYCLING Nagano,36.2395,137.9697,['OpenStreet Corp.']
358,hellocycling-nara,HELLO CYCLING Nara,34.6819,135.8007,['OpenStreet Corp.']
359,hellocycling-okinawa,HELLO CYCLING Okinawa,26.2127,127.6828,['OpenStreet Corp.']
360,hellocycling-osaka,HELLO CYCLING Osaka,34.6917,135.5091,['OpenStreet Corp.']
361,hellocycling-saga,HELLO CYCLING Saga,33.2622,130.2988,['OpenStreet Corp.']
362,hellocycling-saitama,HELLO CYCLING Saitama,35.86017,139.64347,['OpenStreet Corp.']
363,hellocycling-shizuoka,HELLO CYCLING Shizuoka,34.9769,138.3855,['OpenStreet Corp.']
364,hellocycling-tochigi,HELLO CYCLING Tochigi,36.75349,139.6115,['OpenStreet Corp.']
365,hellocycling-tokyo,HELLO CYCLING Tokyo,35.671,139.765,['OpenStreet Corp.']
366,heraeus-hanau,Heraeus Hanau,50.1387,8.94429,['Heraeus Holding GmbH']
367,hi-bike-fort-william,Hi-Bike Fort William,56.8171,-5.1054,"['HITRANS', 'Wegoshare, Lda']"
368,hi-bike-inverness,Hi-Bike Inverness,57.4767,-4.2269,"['HITRANS', 'Wegoshare, Lda']"
369,hibike,Hibike,19.6417,-155.9962,['Bikeshare Hawaii Island']
370,ibizi-ibiza-city,ibizi,38.9066,1.42046,['Nextbike GmbH']
371,idecycle,IDEcycle,43.2957547,-0.3685668,['Cykleo SAS']
372,indego,Indego,39.95378,-75.16374,"['City of Philadelphia', 'Bicycle Transit Systems', 'BCycle, LLC']"
373,indiana-pacers-bikeshare,Indiana Pacers Bikeshare,39.76593,-86.16216,"['BCycle, LLC']"
374,infralobo,Smart Bikes by Infralobo,37.055,-8.0643,"['Infralobo', 'Wegoshare, Lda']"
375,integrabike,Integrabike,-23.5015,-47.4526,"['Prefeiture de Sorocaba', 'Urbes']"
376,jackson,Jackson County BCycle,42.2462,-84.4031,"['BCycle, LLC']"
377,jastrebarsko-jastrebarsko,Nextbike,45.6692,15.6541,['Nextbike GmbH']
378,jesinbici,JesinBici,43.522601,13.244448,['Comunicare S.r.l.']
379,joco-new-york,JOCO New York,40.7572,-73.9859,"['BEAM BIKE CORP.', 'JOCO']"
380,karuvelo,Karu'Vélo,16.2411,-61.5331,['Ecovelo']
381,kolumbus-rogaland,Bysykkelen,58.9689,5.731,['Kolumbus']
382,komornicki-system-rowerowy-komorniki,Komornicki System Rowerowy Poland,52.3347,16.8094,['Nextbike GmbH']
383,kotobike,Kotobike,35.0115,135.7518,['QBEI.inc']
384,kuitunbike,Kuitun Bike,44.429,84.9009,[]
385,kvb-rad-koln,KVB Rad,50.9429,6.95649,['Nextbike GmbH']
386,lastenvelo-freiburg,LastenVelo Freiburg,47.9981,7.8439,['LastenVelo Freiburg e.V.']
387,le-marcel,Le Marcel,48.2997,4.0792,['Ecovelo']
388,le-velo,LeVélo,43.296482,5.36978,"['LeVélo AMP Métropole', 'Ville de Marseille', 'Fifteen SAS']"
389,le-velo-star,LE vélo Star,48.114167,-1.680833,"['Keolis', 'Rennes Metropole']"
390,lecce,lecce,40.35040350928062,18.177824020385742,['Comunicare S.r.l.']
391,lecco,Bicincittà,45.8565698,9.397670399999999,['Comunicare S.r.l.']
392,lelocleroule,LeLocleroule,47.0554,6.7466,['Donkey Republic']
393,li-bia-velo,Li bia velo,50.465328,4.867665,['JCDecaux']
394,libelo,Libélo,44.922726,4.905634,['PBSC Urban Solutions']
395,limerick,TFI Bikes,52.668746,-8.627809,['The National Transport Authority']
396,lincoln,BikeLNK,40.8087,-96.7075,"['BCycle, LLC']"
397,linkbike-penang,LinkBike,5.4192,100.3281,['FAST RENT BIKE (PG) Sdn. Bhd']
398,longanoinbici,LonganoinBici,38.149812517944284,15.212116241455078,['Comunicare S.r.l.']
399,lovelolibreservice,Lovélo Libre Service,49.4432552,1.0999821,"['Citybike Normandie', 'INURBA Mobility']"
400,lovesharing-canary-islands-fuerteventura,Lovesharing (Canary Islands),28.3584,-14.064,['Nextbike GmbH']
401,lovesharing-canary-islands-gran-canaria,Lovesharing (Canary Islands),27.8154,-15.5182,['Nextbike GmbH']
402,lovesharing-canary-islands-lanzarote,Lovesharing (Canary Islands),29.0491,-13.5729,['Nextbike GmbH']
403,lrm-lublin-lublin,LRM Lublin,51.2469,22.5697,['Nextbike GmbH']
404,lundahoj,Lundahoj,55.7046601,13.1910073,['JCDecaux']
405,lviv-odessa,Nextbike,46.463,30.7042,['Nextbike GmbH']
406,madison,BCycle,43.07571,-89.38527,"['BCycle, LLC']"
407,malmobybike,Malmö by bike,55.605,13.0038,['ClearChannel']
408,manerba-in-bici,Manerba in Bici,45.561179,10.559406,['Comunicare S.r.l.']
409,mar-e-bici,Mar e Bici,42.805855,10.196514,['Comunicare S.r.l.']
410,marseillan,Marseillan vélo libre-service,43.3572,3.5283,['Ecovelo']
411,mbajk,MBajk,46.5547,15.6459,['JCDecaux']
412,mcallen,RGV BCycle,26.20438,-98.2261,"['BCycle, LLC']"
413,medina-careem-bike,Medina Careem BIKE,24.4682,39.612,['Careem']
414,meglio-in-bici,Meglio in Bici,45.520541,9.341984,['Comunicare S.r.l.']
415,mein-konrad-konstanz,Mein konrad,47.6732,9.1663,['Nextbike GmbH']
416,meiob,meioB,39.6024,-8.4069,['CIM Médio Tejo']
417,memphis,Explore Bike Share,35.1486,-90.045,"['BCycle, LLC']"
418,metro-bike-share,Metro Bike Share,34.04855,-118.25905,"['Los Angeles County Metropolitan Transportation Authority (Metro)', 'Bicycle Transit Systems', 'BCycle, LLC']"
419,metropolradruhr-bochum,metropolradruhr,51.4813,7.2133,['Nextbike GmbH']
420,metropolradruhr-bottrop,metropolradruhr,51.5263,6.94611,['Nextbike GmbH']
421,metropolradruhr-dortmund,metropolradruhr,51.5141,7.46255,['Nextbike GmbH']
422,metropolradruhr-duisburg,metropolradruhr,51.4487,6.77513,['Nextbike GmbH']
423,metropolradruhr-essen,metropolradruhr,51.4425,7.02301,['Nextbike GmbH']
424,metropolradruhr-gelsenkirchen,metropolradruhr,51.5404,7.07039,['Nextbike GmbH']
425,metropolradruhr-hamm,metropolradruhr,51.6775,7.84836,['Nextbike GmbH']
426,metropolradruhr-herne,metropolradruhr,51.5363,7.21493,['Nextbike GmbH']
427,metropolradruhr-mulheim-adr,metropolradruhr,51.4308,6.87401,['Nextbike GmbH']
428,metropolradruhr-oberhausen,metropolradruhr,51.4936,6.85169,['Nextbike GmbH']
429,metrorower,Metrorower,50.2664,19.0217,"['Górnośląsko-Zagłębiowska Metropolia', 'Nextbike GZM']"
430,mibici-guadalajara,MIBICI,20.6737883,-103.3704325,"['BKT bici publica S.A. de C.V.', 'PBSC Urban Solutions']"
431,mibicitubici,Mi bici tu bici,-32.95,-60.65,"['Mobilicidade Tecnologia LTD', 'Municipalidad de Rosario']"
432,mibisivalencia,MIBISI,39.4364,-0.4647,['Movilidad Urbana Sostenible SLU']
433,mimuovofe,Mi Muovo in Bici,44.8350382,11.6240562,['Comunicare S.r.l.']
434,mobibike-dresden,MOBIbike,51.0535,13.7387,['Nextbike GmbH']
435,mobibikes,Mobi,49.2827,-123.1207,"['Vanncouver Bike Share Inc.', 'CycleHop LLC', 'City of Vancouver', 'Shaw Communications Inc.', 'Fifteen']"
436,mogo-detroit,MoGo,42.331548,-83.0465,"['PBSC Urban Solutions', 'Shift Transit']"
437,monabike,MonaBike,43.733333,7.416667,['PBSC Urban Solutions']
438,monopoli-bike,Monopoli BIKE,40.94519109440738,17.311687995336918,['Comunicare S.r.l.']
439,movemix-bike,Movemix Bike,51.4938,11.9628,['Nextbike GmbH']
440,muybici,MuyBici,37.9922399,-1.1306544,['Labici Bicicletas Públicas SL']
441,mvg-meinrad-nextbike-mainz,meinRad MVG Mainz,45.9469,13.6208,['Mainzer Verkehrsgesellschaft mbH']
442,mvrad-anklam,MV-Rad,53.8614,13.6907,['Nextbike GmbH']
443,mvrad-hq,MV-Rad,53.6707,12.4255,['Nextbike GmbH']
444,nashville,Nashville BCycle,36.15768,-86.773,"['BCycle, LLC']"
445,nbici,nbici,42.8116631,-1.6482653,['Bicincitta Italia S.r.l.']
446,neuchatelroule,Neuchâtelroule,46.9916,6.9269,['Donkey Republic']
447,nextbike-10vorwien,Nextbike,48.3403,16.279,['Nextbike GmbH']
448,nextbike-auckland-waterfront,Nextbike,-36.841,174.763,['Nextbike GmbH']
449,nextbike-bergamo,nextbike Bergamo,45.6986,9.67567,['Nextbike GmbH']
450,nextbike-berlin,Nextbike,52.5087,13.3563,['Nextbike GmbH']
451,nextbike-berounsko,nextbike Berounsko,49.9616,14.064,['Nextbike GmbH']
452,nextbike-bielefeld,meinSiggi,52.0257,8.53286,['Nextbike GmbH']
453,nextbike-bonn,Nextbike,50.7367,7.09541,['Nextbike GmbH']
454,nextbike-brno,nextbike Brno,49.1911,16.6148,['Nextbike GmbH']
455,nextbike-brno-kurim,nextbike Brno,49.2994,16.5368,['Nextbike GmbH']
456,nextbike-cardiff,Nextbike,51.4848,-3.19062,['Nextbike GmbH']
457,nextbike-christchurch,Nextbike,-43.5341,172.621,['Nextbike GmbH']
458,nextbike-dusseldorf,Nextbike,51.2243,6.77204,['Nextbike GmbH']
459,nextbike-dvur-kralove,nextbike Dvůr Králové,50.4278,15.8162,['Nextbike GmbH']
460,nextbike-ennetmoos,Nextbike,46.9573,8.3377,['Nextbike GmbH']
461,nextbike-erfurt,Nextbike,50.9785,11.0334,['Nextbike GmbH']
462,nextbike-focsani,nextbike Romania,45.6947,27.1851,['Nextbike GmbH']
463,nextbike-frydek-mistek,nextbike Frýdek-Místek,49.6832,18.3457,['Nextbike GmbH']
464,nextbike-giessen,Nextbike,50.5943,8.68097,['Nextbike GmbH']
465,nextbike-glasgow,Nextbike,55.8589,-4.25549,['Nextbike GmbH']
466,nextbike-gross-enzersdorf,Nextbike,48.1986,16.5496,['Nextbike GmbH']
467,nextbike-gutersloh,Nextbike,51.9049,8.39275,['Nextbike GmbH']
468,nextbike-havirov,nextbike Havířov,49.7799,18.4328,['Nextbike GmbH']
469,nextbike-hergiswil,Nextbike,46.9905,8.30829,['Nextbike GmbH']
470,nextbike-hodonin,nextbike Hodonín,48.8489,17.1327,['Nextbike GmbH']
471,nextbike-hollabrunn,Nextbike,48.562,16.0785,['Nextbike GmbH']
472,nextbike-horw,Nextbike,47.0188,8.30828,['Nextbike GmbH']
473,nextbike-hradec-kralove,nextbike Hradec Králové,50.2079,15.8334,['Nextbike GmbH']
474,nextbike-ivano-frankivsk,Nextbike,48.9281,24.7103,['Nextbike GmbH']
475,nextbike-jicin,nextbike Jičín,50.4367,15.3743,['Nextbike GmbH']
476,nextbike-jihlava,nextbike Jihlava,49.4078,15.6061,['Nextbike GmbH']
477,nextbike-kassel,Nextbike,51.3127,9.47975,['Nextbike GmbH']
478,nextbike-kladno,nextbike Kladno,50.1435,14.1082,['Nextbike GmbH']
479,nextbike-klagenfurt,Nextbike,46.6335,14.3085,['Nextbike GmbH']
480,nextbike-koprivnice,nextbike Kopřivnice,49.5934,18.1422,['Nextbike GmbH']
481,nextbike-krnov,nextbike Krnov,50.0703,17.8837,['Nextbike GmbH']
482,nextbike-leipzig,Nextbike,51.3415,12.3625,['Nextbike GmbH']
483,nextbike-limassol,Nextbike,34.6823,33.0464,['Nextbike GmbH']
484,nextbike-lippstadt,Nextbike,51.6755,8.34394,['Nextbike GmbH']
485,nextbike-luzern,Nextbike,47.0472,8.30446,['Nextbike GmbH']
486,nextbike-lviv,Nextbike,49.8402,24.0182,['Nextbike GmbH']
487,nextbike-malta,Nextbike,35.9192,14.4889,['Nextbike GmbH']
488,nextbike-marburg,Nextbike,50.8019,8.76444,['Nextbike GmbH']
489,nextbike-mladoboleslavsko-mlada-boleslav,nextbike Mladoboleslavsko,50.4278,14.8999,['Nextbike GmbH']
490,nextbike-mladoboleslavsko-mnichovo-hradiste,nextbike Mladoboleslavsko,50.5218,14.9741,['Nextbike GmbH']
491,nextbike-modling,Nextbike,48.1047,16.3202,['Nextbike GmbH']
492,nextbike-most,nextbike Most,50.5014,13.6361,['Nextbike GmbH']
493,nextbike-nicosia,Nextbike,35.1728,33.3653,['Nextbike GmbH']
494,nextbike-norderstedt,Nextbike,53.6969,10.002,['Nextbike GmbH']
495,nextbike-novy-jicin,nextbike Nový Jičín,49.5976,18.008,['Nextbike GmbH']
496,nextbike-oberdorf,Nextbike,46.9563,8.3884,['Nextbike GmbH']
497,nextbike-olbramovicevotice,nextbike OlbramoviceVotice,49.6525,14.6355,['Nextbike GmbH']
498,nextbike-oldenburg,OLi-Bike,53.1448,8.22485,['Bremer Tageszeitungen AG']
499,nextbike-olomouc,nextbike Olomouc,49.5929,17.2459,['Nextbike GmbH']
500,nextbike-opava,nextbike Opava,49.9289,18.2634,['Nextbike GmbH']
501,nextbike-ortenaukreis,Nextbike Ortenaukreis,48.4721,7.94243,['nextbike GmbH']
502,nextbike-ostrava,nextbike Ostrava,49.8344,18.2823,['Nextbike GmbH']
503,nextbike-ostrava-hlucin,nextbike Ostrava,49.898,18.1923,['Nextbike GmbH']
504,nextbike-ostrava-vresina,nextbike Ostrava,49.825,18.1206,['Nextbike GmbH']
505,nextbike-pardubice,nextbike Pardubice,50.0343,15.7812,['Nextbike GmbH']
506,nextbike-pisek,nextbike Písek,49.3051,14.1463,['Nextbike GmbH']
507,nextbike-potsdam,Nextbike,52.3997,13.0676,['Nextbike GmbH']
508,nextbike-praha,nextbike Praha,50.0592,14.5761,['Nextbike GmbH']
509,nextbike-praha-ricany,nextbike Praha,49.9976,14.6685,['Nextbike GmbH']
510,nextbike-prerov,nextbike Prerov,49.4574,17.4408,['Nextbike GmbH']
511,nextbike-prostejov,nextbike Prostejov,49.4722,17.1055,['Nextbike GmbH']
512,nextbike-russelsheim-am-main,Nextbike,49.9881,8.42142,['Nextbike GmbH']
513,nextbike-rychnovsko,nextbike Rychnovsko,50.1668,16.2828,['Nextbike GmbH']
514,nextbike-sarajevo,Nextbike,43.85,18.39,['Nextbike GmbH']
515,nextbike-sarnen,Nextbike,46.8963,8.24614,['Nextbike GmbH']
516,nextbike-serfaus,Nextbike,47.0387,10.6048,['Nextbike GmbH']
517,nextbike-stans,Nextbike,46.9593,8.36836,['Nextbike GmbH']
518,nextbike-stansstad,Nextbike,46.9801,8.34098,['Nextbike GmbH']
519,nextbike-stirling,Nextbike,56.1165,-3.9369,['Nextbike GmbH']
520,nextbike-stpolten,Nextbike,48.2058,15.6232,['Nextbike GmbH']
521,nextbike-sursee,Nextbike,47.1713,8.10877,['Nextbike GmbH']
522,nextbike-thermenregion,Nextbike,47.9892,16.2646,['Nextbike GmbH']
523,nextbike-trutnov,nextbike Trutnov,50.5616,15.9126,['Nextbike GmbH']
524,nextbike-tulln,Nextbike,48.3269,16.0569,['Nextbike GmbH']
525,nextbike-tuzla,Nextbike,44.5392,18.675,['Nextbike GmbH']
526,nextbike-uherske-hradiste,nextbike Uherské Hradiště,49.0678,17.4665,['Nextbike GmbH']
527,nextbike-university-of-surrey,Nextbike,51.2422,-0.590594,['Nextbike GmbH']
528,nextbike-urdaibai,BBK Klimabizi,43.395,-2.68815,['Nextbike GmbH']
529,nextbike-vinnytsia,Nextbike,49.2328,28.4625,['Nextbike GmbH']
530,nextbike-vrchlabi,nextbike Vrchlabí,50.6222,15.6126,['Nextbike GmbH']
531,nextbike-wachau,Nextbike,48.3188,15.4166,['Nextbike GmbH']
532,nextbike-wienerwald,Nextbike,48.1926,16.141,['Nextbike GmbH']
533,nextbike-wiesbaden,Nextbike,50.0709,8.24322,['Nextbike GmbH']
534,nextbike-wolfenschiessen,Nextbike,46.9079,8.39767,['Nextbike GmbH']
535,nextbike-wrneustadt,Nextbike,47.8167,16.2426,['Nextbike GmbH']
536,nextbike-wurzburg,Nextbike,49.8,9.93333,['Nextbike GmbH']
537,nextbike-zagreb,Nextbike,45.7984,15.9789,['Nextbike GmbH']
538,nextbike-zlin,nextbike Zlín,49.238,17.6788,['Nextbike GmbH']
539,nibelungen-bike-braunschweig,Nibelungen-Bike,52.2597,10.5307,['Nextbike GmbH']
540,nicosia,Nicosia Bike Share,35.1886,33.357,['PBSC Urban Solutions']
541,nomago-gorica,Nomago Bikes - GO2GO,45.9576,13.6406,['Nextbike GmbH']
542,nomago-gorizia,GO2GO - Gorizia,45.9469,13.6208,['Nextbike GmbH']
543,nomago-ljubljana,Nomago Bikes - LJUBLJANA,46.0577,14.5013,['Nextbike GmbH']
544,nomago-portoroz,Nomago Bikes - PORTOROZ,45.5054,13.5979,['Nextbike GmbH']
545,nomago-zanaprej,Nomago Bikes - ZANAPREJ,46.1392,14.9785,['Nextbike GmbH']
546,nomagobikes-celje,NomagoBikes,46.2388,15.2693,['Nextbike GmbH']
547,nomagobikes-lasko,NomagoBikes,46.1458,15.2312,['Nextbike GmbH']
548,notoinbici,NotoinBici,36.889437754839854,15.074658393859863,['Comunicare S.r.l.']
549,novara,Novara,45.44574,8.622165,['Comunicare S.r.l.']
550,nubija-changwon,누비자 (Nubija),35.22369091380072,128.67059887227657,['Changwon City']
551,oeynrad-bad-oeynhausen,Oeynrad,52.2051,8.80074,['Nextbike GmbH']
552,olbia-bike,Olbia Bike,40.9240543,9.4994397,['Comunicare S.r.l.']
553,oleski-rower-miejski-olesno,Oleski Rower Miejski Poland,50.8773,18.4212,['Nextbike GmbH']
554,omaha,Heartland BCycle,41.25832,-96.00853,"['BCycle, LLC']"
555,ontibici,Ontibici,38.8211,-0.609,['Movilidad Urbana Sostenible S.L.']
556,opcina-brinje-brinje,Općina Brinje,44.9977,15.1258,['Nextbike GmbH']
557,opcina-pitomaca,Općina Pitomača (Croatia),45.9077,17.2622,['Nextbike GmbH']
558,optymo,Optymo,47.641111,6.849444,['SMTC 90']
559,oslo-bysykkel,Bysykkel,59.913869,10.752245,['Urban Sharing AS']
560,ossola,Comunità Montana Valli dell'Ossola,46.127196,8.499169,['Comunicare S.r.l.']
561,ov-fiets,OV-fiets,52.1449,5.5603,['NS Groep NV']
562,parkinbici,Parkinbici,41.7817081,15.8516421,['Comunicare S.r.l.']
563,parma,Mi Muovo in Bici,44.801485,10.3279036,['Comunicare S.r.l.']
564,passofundo,Passo Fundo Vai de Bici,-28.2555,-52.3981,['Mobhis Automação Urbana']
565,pavia-in-bici,Pavia in bici,45.1847248,9.1582069,['Comunicare S.r.l.']
566,peacehealth-rides,PeaceHealth Rides,44.0502,-123.0949,['Social Bicycles Inc.']
567,perivelo,Périvélo,45.1929,0.7217,['Ecovelo']
568,petites-reines,Les Petites Reines,46.4971,-1.7805,['Ecovelo']
569,piacenza,Mi Muovo in Bici,45.0473754,9.6865813,['Comunicare S.r.l.']
570,pickebike-aubonne,PickeBike Aubonne,46.4949,6.3963,['PickeBike']
571,pickebike-basel,PickeBike Basel,47.5579,7.5902,['PickeBike']
572,pickebike-fribourg,PickeBike Fribourg,46.8039,7.1505,['PickeBike']
573,pinerolo,Pinerolo,44.8850256,7.3499953,['Comunicare S.r.l.']
574,piotrkowski-rower-miejski-piotrkow-trybunalski,Piotrkowski Rower Miejski Poland,51.3975,19.6779,['Nextbike GmbH']
575,pittsburgh,Pogoh,40.4406,-79.9893,"['Bike Share Pittsburgh Inc.', 'PBSC Urban Solutions']"
576,pobiedziski-rower-gminny-pobiedziska,Pobiedziski Rower Gminny Poland,52.4765,17.2866,['Nextbike GmbH']
577,pombike,Pombike,39.915278,-8.632222,"['SOLTRÁFEGO, SA']"
578,pordenone,Pordenone,45.94790101663391,12.674491020251475,['Comunicare S.r.l.']
579,portofino-park-and-bike,Portofino Park and Bike,44.335084,9.211264,['Comunicare S.r.l.']
580,prata-camportaccio,Prata Camportaccio,46.3042146,9.3964914,['Comunicare S.r.l.']
581,publibike-bern,PubliBike Bern,46.94841,7.43767,['PubliBike AG']
582,publibike-fribourg,PubliBike Fribourg,46.805708,7.160339,['PubliBike AG']
583,publibike-lausanne-morges,PubliBike Lausanne-Morges,46.516649,6.62948,['PubliBike AG']
584,publibike-region-de-nyon,PubliBike Région de Nyon,46.381706,6.240311,['PubliBike AG']
585,publibike-sottoceneri-ti,PubliBike Sottoceneri (TI),46.00491,8.95244,['PubliBike AG']
586,publibike-zuerich,PubliBike Zürich,47.38728,8.53767,['PubliBike AG']
587,punpunbikeshare,Pun Pun Bike Share,13.75,100.516667,['BTS Group Holdings']
588,qrobici,Qrobici,20.5939,-100.3958,"['Municipio de Querétaro', 'EMU (Estrategias de movilidad Urbana)']"
589,ready4green-graben,Graben - ready4green,51.1242,10.8984,['Nextbike GmbH']
590,redding,Redding BCycle,40.5875,-122.386,"['BCycle, LLC']"
591,reddy-bike-share,Reddy Bike Share,42.89373841865211,-78.8718044757843,"['Shared Mobility Inc.', 'Social Bicycles Inc.']"
592,reggio-emilia,Mi Muovo in Bici,44.6989932,10.6296859,['Comunicare S.r.l.']
593,regivelo-kreuzlingen,Regivelo,47.646,9.1716,"['Regivelo', 'Donkey Republic']"
594,relay-atlanta,HOPR,33.7627941119619,-84.38727110624313,['CycleHop LLC']
595,revgmobic,mobic,50.8493,6.6687,['Rhein-Erft-Verkehrsgesellschaft mbH']
596,rietinbici,Rietinbici,42.40262397383167,12.86099910736084,['Comunicare S.r.l.']
597,rimini,Mi Muovo in Bici,44.0570817,12.5646003,['Comunicare S.r.l.']
598,rivibike,Rivibike,-23.7998,-46.0223,"['Sobloco Construtora S/A', 'Associação dos Amigos da Riviera', 'Tembici']"
599,rmbikes,RMBikes,39.3374,-8.9374,"['Município de Rio Maior', 'Wegoshare, Lda']"
600,rower-powiatowy-sokolow-podlaski,Rower Powiatowy Sokołów Podlaski,52.4082,22.2525,['Nextbike GmbH']
601,rowerowe-lodzkie-rl-koluszki,Rowerowe Łódzkie,51.7401,19.835,['Nextbike GmbH']
602,rowerowe-lodzkie-rl-kutno,Rowerowe Łódzkie,52.2317,19.3564,['Nextbike GmbH']
603,rowerowe-lodzkie-rl-lask,Rowerowe Łódzkie,51.5893,19.142,['Nextbike GmbH']
604,rowerowe-lodzkie-rl-lodz-rl,Rowerowe Łódzkie,51.7674,19.4575,['Nextbike GmbH']
605,rowerowe-lodzkie-rl-lowicz,Rowerowe Łódzkie,52.1057,19.9381,['Nextbike GmbH']
606,rowerowe-lodzkie-rl-pabianice,Rowerowe Łódzkie,51.6651,19.3548,['Nextbike GmbH']
607,rowerowe-lodzkie-rl-sieradz,Rowerowe Łódzkie,51.5902,18.7382,['Nextbike GmbH']
608,rowerowe-lodzkie-rl-skierniewice,Rowerowe Łódzkie,51.9539,20.1469,['Nextbike GmbH']
609,rowerowe-lodzkie-rl-zdunska-wola,Rowerowe Łódzkie,51.6011,18.938,['Nextbike GmbH']
610,rowerowe-lodzkie-rl-zgierz,Rowerowe Łódzkie,51.8551,19.4068,['Nextbike GmbH']
611,rsvg-bike,RSVG-Bike,50.7669,7.37457,['Nextbike GmbH']
612,rtc-bike-share,RTC Bike Share,36.1438,-115.15682,"['RTC Southern Nevada, Inc', 'BCycle, LLC']"
613,rubis-velo,Rubis'Vélo,46.2056,5.2289,['Ecovelo']
614,rva-bikes,RVA Bike Share,37.53833,-77.43464,"['Richmond Department of Public Works', 'Wegoshare, Lda']"
615,rvk,RVK,50.7069,6.87607,['Nextbike GmbH']
616,saluzzo,Saluzzo,44.6445404,7.492735499999999,['Comunicare S.r.l.']
617,sanantonio,SWell Cycle,29.43701,-98.48236,"['BCycle, LLC']"
618,santa-barbara,Santa Barbara BCycle,34.42178,-119.7001,"['BCycle, LLC']"
619,santa-cruz,Santa Cruz BCycle,36.97484,-122.0277,"['BCycle, LLC']"
620,santana,Sântana Velo,46.3461,21.5064,['PBSC Urban Solutions']
621,santander-brunel,Santander Cycles - Brunel,51.5463,-0.48048,['Nextbike GmbH']
622,santander-cycles,Santander Cycles,51.51121389999999,-0.1198244,"['PBSC', 'Serco Group plc']"
623,santander-cycles-mk-milton-keynes,Santander Cycles MK,52.0406,-0.759417,['Nextbike GmbH']
624,santander-cycles-swansea-swansea-university,Santander Cycles,51.6106,-3.9764,['Nextbike GmbH']
625,santander-monchengladbach,Santander Mönchengladbach,51.1817,6.43578,['Nextbike GmbH']
626,sap-walldorf,SAP Walldorf,49.2945,8.62324,['Nextbike GmbH']
627,saturn,Saturn,43.82,28.7445,['Nextbike GmbH']
628,savigliano,Savigliano,44.6470327,7.662463499999999,['Comunicare S.r.l.']
629,savona,Savona,44.29516444397244,8.463126708984431,['Comunicare S.r.l.']
630,sbp-quito,SBP Quito,-0.189,-78.4891,['ESPE INNOVATIVA']
631,scegli-in-bici,Scegli in Bici,45.134914104864116,10.0222648619018,['Comunicare S.r.l.']
632,sellero,Sellero,46.06304765446406,10.353434085845947,['Comunicare S.r.l.']
633,semo,semo,49.22,1.17,['Ecovelo']
634,senica-bajk,SENICA BAJK,48.676,17.3642,['Nextbike GmbH']
635,seoul-bike,Seoul Bike 따릉이,37.5664,126.9785,['Seoul Metropolitan Government']
636,sevici,Sevici,37.3880961,-5.9823299,['JCDecaux']
637,shymkentbike,Shymkentbike,42.3184,69.5978,"['Velobike.kz, LLP', 'Smoove']"
638,sibiu,Sibiu Bike Share,45.7963,24.1518,['PBSC Urban Solutions']
639,sitycleta-las-palmas-las-palmas-de-gran-canaria,Sitycleta,28.1236,-15.4366,['Nextbike GmbH']
640,sixt-riga,SiXT,56.9453,24.1033,['Nextbike GmbH']
641,ski-rower-chelm,Chełmski Rower,51.1318,23.4755,['Nextbike GmbH']
642,skrova-bike,Skrova Bysykkel,68.1669,14.6611,"['UIP Drift AS', 'Skrova Outdoor Photo Spot (SOPS)', 'Skrova Næringsforening', 'Urban Sharing']"
643,slatina-velo-city,Slatina Velo City,44.4299,24.3716,['Nextbike GmbH']
644,slovnaft-bajk,Slovnaft BAjk,48.1514,17.1056,"['Dopravný podnik Bratislava', 'Bratislavská integrovaná doprava, a.s.', 'Hlavné mesto SR Bratislava']"
645,sobi-hamilton,SoBi,43.25643601915583,-79.86929655075073,['Social Bicycles Inc.']
646,sobi-long-beach,SoBi,33.76897,-118.19164,['Social Bicycles Inc.']
647,sondrio,Sondrio,46.1698583,9.8787674,['Comunicare S.r.l.']
648,speziainbici,Speziainbici,44.1024504,9.824082599999999,['Comunicare S.r.l.']
649,sprintrad,sprintRAD,52.3721,9.73569,['Nextbike GmbH']
650,sprottenflotte-kiel,Sprottenflotte,54.2837,10.13213,['Donkey Republic']
651,stadtrad-hamburg-db,StadtRAD Hamburg,53.550308,10.00063,['Deutsche Bahn AG']
652,stadtrad-innsbruck,Stadtrad,47.2632,11.3961,['Nextbike GmbH']
653,stadtrad-lueneburg,StadtRAD Lüneburg,53.248697,10.407776,['Deutsche Bahn AG']
654,stadtrad-stuttgart,RegioRadStuttgart,48.778147,9.1801512,['Deutsche Bahn AG']
655,stari-grad-hvar,Hvar,43.1841,16.5886,['Nextbike GmbH']
656,styr-staell-goeteborg,"Styr & Ställ (Sweden, Göteborg)",57.6902,11.9881,['Nextbike GmbH']
657,summit-bike-share,Summit Bike Share,40.6474,-111.4981,"['Summit County Department of Transportation', 'Wegoshare, Lda']"
658,swa-rad-augsburg,SWA Rad,48.3647,10.8916,['Nextbike GmbH']
659,system-roweru-gminnego-pielgrzymka,System Roweru Gminnego Poland,51.1185,15.8153,['Nextbike GmbH']
660,tallinja-bike,Tallinja Bike,35.8992,14.5141,['Instituto Tecnológico de Castilla y León (ITCL)']
661,tanlib,Vélo tanlib,46.3258,-0.4606,['Ecovelo']
662,tashu,Tashu,36.349,127.3848,['Daejeon Metropolitan City']
663,telofun,Tel-O-Fun,32.087053,34.789776,['FSM Ground Services Ltd.']
664,tembici-bogota,Tembici,4.6569,-74.0656,"['M1 Transportes Sustentáveis Ltda.', 'Tembici']"
665,tempo-velo,Tempo Vélo,44.2049,0.6212,['Ecovelo']
666,terni,Terni,42.5636168,12.6426604,['Comunicare S.r.l.']
667,thessbike,ThessBike,40.6403167,22.9352716,"['Brainbox Technology', 'Smoove SAS']"
668,thun,Donkey Republic Thun,46.7576,7.6287,['Donkey Republic']
669,ti-velo,Ti Vélo,48.4512,-4.2551,['Fifteen SAS']
670,tigullionbike,Tigullionbike,44.272554,9.395714,['Comunicare S.r.l.']
671,tirano-in-bici,Tirano in Bici,46.216168,10.1696056,['Comunicare S.r.l.']
672,tlp-velo,Tarbes et Lourdes vls,43.23,0.07,['Ecovelo']
673,to-bike,[TO]BIKE,45.07098200000001,7.685676,['Comunicare S.r.l.']
674,torvelo,Torvelo,53.0138,18.5984,['Bike U Sp. z o.o.']
675,toyama-cyclocity,cyclocity,36.6959518,137.2136768,['JCDecaux']
676,tradate,Tradate,45.70938576720161,8.915993391601548,['Comunicare S.r.l.']
677,treviso,Treviso,45.6669011,12.243039,['Comunicare S.r.l.']
678,trofinetes,Trofinetes,41.3436,-8.553,"['Município de Trofa', 'Share2Go - Mobilidade Partilhada, Sociedade Unipessoal Lda']"
679,trondheim-bysykkel,Bysykkel,63.4307238,10.3936781,['Urban Sharing AS']
680,tuebici,TUeBICI,43.46230569999999,-3.8099803,['UTE BICIS SANTANDER']
681,tugo-bike-share,Tugo Bike Share,32.2225,-110.9749,"['PBSC Urban Solutions', 'Shift Transit']"
682,twisto-velo,Twisto vélo,49.1813403,-0.3635615,['Cykleo SAS']
683,tychowski-rower-miejski,Tychowski Rower Miejski,53.9288,16.2568,['Nextbike GmbH']
684,udine,Udine,46.0710668,13.2345794,['Comunicare S.r.l.']
685,ugento,Ugento,39.9273518,18.1582962,['Comunicare S.r.l.']
686,usedomrad-usedom,UsedomRad,53.9779,13.9925,['Nextbike GmbH']
687,ustica,Ustica,38.7031179,13.1682675,['Comunicare S.r.l.']
688,v3-bordeaux,V³,44.837789,-0.57918,['Keolis Bordeaux Métropole']
689,vagrad,VAG_Rad,49.4487,11.0794,['VAG Verkehrs-Aktiengesellschaft']
690,vaibike,VaiBike,42.5954,-8.7659,['Instituto Tecnológico de Castilla y León (ITCL)']
691,valenbisi,Valenbisi,39.4699075,-0.3762881,['JCDecaux']
692,valentine,Valentine BCycle,42.8747,-100.5511,"['BCycle, LLC']"
693,vel-in,Vél'in,50.95,1.85,['Veolia']
694,velam,Vélam,49.894067,2.295753,['JCDecaux']
695,velectin,Velect’in,50.948056,1.856389,['Ecovelo']
696,velhop,Vélhop,48.583611,7.748056,['Strasbourg Mobilités']
697,velib,Vélib' Métropole,48.856614,2.3522219,['Smovengo']
698,velibeo,Vélibéo,45.1583,1.5321,['Ecovelo']
699,velitul,Vélitul,48.0706687,-0.7734022,['Cykleo SAS']
700,velivert,VéliVert,45.396667,4.290833,['Fifteen']
701,velo,Vélô,43.604652,1.444209,['JCDecaux']
702,velo-antwerpen,Velo Antwerpen,51.216667,4.4,['ClearChannel']
703,velo-baulois,Le Vélo Baulois,47.2867,-2.3908,['Ecovelo']
704,velo2,Velo2,49.03561699999999,2.060325,['JCDecaux']
705,velobaie,VeloBaie,48.514,-2.765,"['VeloBaie', 'Fifteen SAS']"
706,velobike,Velobike,51.166667,71.416667,"['Velobike.kz, LLP', 'Smoove']"
707,velobike-moscow,Velobike,55.75,37.616667,['ЗАО «СитиБайк»']
708,velobike-murmansk,Velobike,68.968,33.074,['ЗАО «СитиБайк»']
709,velobike-nizhniy-novgorod,Velobike,56.194,44.003,['ЗАО «СитиБайк»']
710,velocite-besancon,VéloCité,47.237829,6.024053899999999,['JCDecaux']
711,velocite-laon,Vélo'Cité,49.5639,3.6244,['Ecovelo']
712,velocite-mulhouse,VéloCité,47.750839,7.335888,['JCDecaux']
713,velocity-aachen,Velocity,50.776667,6.083611,['Velocity Region Aachen GmbH']
714,velodaqui,Vélos d’Aquí,42.5449,3.0235,['Ecovelo']
715,veloh,Veloh,49.6301025,6.1520185,['JCDecaux']
716,velok,Vël'Ok,49.5024,5.9722,['CIGL ESCH']
717,velomagg,Vélomagg,43.6119,3.8772,"['TaM', 'Fifteen']"
718,velomodalis,Vélo Modalis,45.7,-0.33,['Fifteen SAS']
719,velopark-drobeta,Drobeta Velopark,44.6326,22.6564,['Nextbike GmbH']
720,velopartage-geneve,VéloPartage,46.2021,6.1457,"['Genèveroule', 'Donkey Republic']"
721,veloplus-velotao,Vélo+/VéloTAO,47.9027336,1.9086066,['Cykleo SAS']
722,velopop,Vélopop,43.943689,4.805833,"['TCRA Public Transport Region Avignon', 'Fifteen']"
723,velostanlib,vélOstan'lib,48.692054,6.184417,['JCDecaux']
724,velov,Vélo'V,45.764043,4.835659,['JCDecaux']
725,velozef,VéloZef,48.3905,-4.48732,['Fifteen SAS']
726,velyceo,vélYcéo,47.2806,-2.2086,['Ecovelo']
727,venezia,Venezia,45.4408474,12.3155151,['Comunicare S.r.l.']
728,vercelli,Vercelli,45.32022720000001,8.418573499999999,['Comunicare S.r.l.']
729,verdeciclos,VerdeCiclos,42.6041,-8.6419,['Instituto Tecnológico de Castilla y León (ITCL)']
730,veturilo-nextbike-warsaw,VETURILO 3.0,52.2581,20.9949,['Nextbike GmbH']
731,via-velo,VIA Vélo,48.2181,-1.6947,['Ecovelo']
732,villo,villo,50.8503396,4.3517103,['JCDecaux']
733,vilnius-cyclocity,Cyclocity,54.6871555,25.2796514,['JCDecaux']
734,vilvolt,Vilvolt,48.1833,6.4508,"['Vilvolt CA Épinal', ""Communauté d'agglomération Épinal"", 'Fifteen SAS']"
735,visa-frankfurt,VISA,50.1072,8.66375,['Nextbike GmbH']
736,vitelinhas,Vitelinhas,41.4513,-8.1728,"['Município de Fafe', 'Share2Go - Mobilidade Partilhada, Sociedade Unipessoal Lda']"
737,vlille,V'Lille,50.62925,3.057256,['Keolis']
738,vrn-bensheim,VRN,49.6803,8.6189,['Nextbike GmbH']
739,vrn-burstadt,VRN,49.6461,8.44917,['Nextbike GmbH']
740,vrn-eppelheim,VRN,49.4025,8.6331,['Nextbike GmbH']
741,vrn-heidelberg,VRN,49.4023,8.67577,['Nextbike GmbH']
742,vrn-heppenheim,VRN,49.6431,8.63889,['Nextbike GmbH']
743,vrn-hockenheim,VRN,49.3227,8.54258,['Nextbike GmbH']
744,vrn-kaiserslautern,VRN,49.4413,7.75566,['Nextbike GmbH']
745,vrn-landau,VRN,49.1975,8.11693,['Nextbike GmbH']
746,vrn-ludwigshafen,VRN,49.4741,8.43287,['Nextbike GmbH']
747,vrn-mannheim,VRN,49.4869,8.45638,['Nextbike GmbH']
748,vrn-schwetzingen,VRN,49.3863,8.5756,['Nextbike GmbH']
749,vrn-speyer,VRN,49.3126,8.45295,['Nextbike GmbH']
750,vrn-weinheim,VRN,49.545,8.66027,['Nextbike GmbH']
751,vrn-worms,VRN,49.6394,8.34618,['Nextbike GmbH']
752,vvtregiorad-ellmau,VVT REGIORAD Tirol,47.5134,12.3025,['Nextbike GmbH']
753,vvtregiorad-kufstein,VVT REGIORAD Tirol,47.583,12.1692,['Nextbike GmbH']
754,waterford,TFI Bikes,52.2475049,-7.1130299,['The National Transport Authority']
755,we-cycle,WE-cycle,39.194951,-106.837002,"['PBSC', 'Alta Bicycle Share, Inc']"
756,we-love-bike,We Love bike,45.3097228,9.503715999999999,['Comunicare S.r.l.']
757,westbike-erkelenz,westBike,51.0753,6.31233,['Nextbike GmbH']
758,westbike-geilenkirchen,westBike,50.9671,6.11886,['Nextbike GmbH']
759,westbike-heinsberg,westBike,51.0597,6.11849,['Nextbike GmbH']
760,westbike-hueckelhoven,westBike,51.0529,6.21933,['Nextbike GmbH']
761,westbike-wegberg,westBike,51.1427,6.2813,['Nextbike GmbH']
762,westcargo-bath,WESTcargo Bath,51.3814,-2.35519,['Nextbike GmbH']
763,westcargo-bristol,WESTcargo Bristol,51.4587,-2.57355,['Nextbike GmbH']
764,whitebikes,WhiteBikes,48.149424,17.113922,['Open Source Bike Share']
765,wienmobil-rad,WienMobil Rad,48.2081743,16.3738189,['Nextbike GmbH']
766,winsenrad,WinsenRad,53.3547,10.2067,['Nextbike GmbH']
767,wk-bike-bremen-bremen,WK-Bike,53.0781,8.80132,['Nextbike GmbH']
768,wolf-ride-bike-share,Wolf Ride Bike Share (Stony Brook University),40.9124,-73.1249,['Stony Brook University']
769,wrm-wroclaw,WRM,51.1097,17.0485,['Nextbike GmbH']
770,wupsi,wupsiRad Leverkusen,51.0732,7.00814,['Nextbike GmbH']
771,xian-public-bicycle,Xi'an Public Bicycle,34.2688,108.9458,['西安城市公共自行车服务管理有']
772,yelo-velo,Yélo Vélo,46.1591,-1.1509,"[""Communauté d'Agglomération de La Rochelle""]"
773,youbike-chiayi-city,YouBike,23.4797,120.4397,"['YouBike Co., Ltd.']"
774,youbike-hsinchu-city,YouBike,24.8018,120.9714,"['YouBike Co., Ltd.']"
775,youbike-hsinchu-county,YouBike,24.8269,121.0129,"['YouBike Co., Ltd.']"
776,youbike-hsinchu-science-park,YouBike,24.7818,121.005,"['YouBike Co., Ltd.']"
777,youbike-kaohsiung-city,YouBike,22.6314,120.3018,"['YouBike Co., Ltd.']"
778,youbike-miaoli-county,YouBike,24.5648,120.8185,"['YouBike Co., Ltd.']"
779,youbike-new-taipei,YouBike,25.0169826,121.4627868,"['YouBike Co., Ltd.']"
780,youbike-pingtung-county,YouBike,22.683,120.4879,"['YouBike Co., Ltd.']"
781,youbike-putian-city,YouBike,25.4504,119.0126,"['YouBike Co., Ltd.']"
782,youbike-taichung,YouBike,24.1477358,120.6736482,"['YouBike Co., Ltd.']"
783,youbike-tainan-city,YouBike,22.9923,120.185,"['YouBike Co., Ltd.']"
784,youbike-taipei,YouBike,25.0329636,121.5654268,"['YouBike Co., Ltd.']"
785,youbike-taoyuan,YouBike,24.9936281,121.3009798,"['YouBike Co., Ltd.']"
786,yoy-san-luis-potosi,YOY - San Luis Potosi,22.438,-100.514,['Nextbike GmbH']
787,yoy-san-luis-potosi-cancun,YOY - San Luis Potosi,21.1675,-86.8498,['Nextbike GmbH']
788,yverdon-les-bains,Donkey Republic Yverdon-les-Bains,46.7788,6.6414,['Donkey Republic']
789,zebullo,ZébullO,49.2628,4.0347,['Ecovelo']
790,zena-by-bike,Zena By Bike,44.40430089372731,8.92908986230462,['Bicincitta Italia S.r.l.']
791,zoov-paris-sud,Zoov,48.7429,2.238,['Fifteen SAS']
