{"network": {"id": "nextbike-glasgow", "name": "Nextbike", "location": {"latitude": 55.8589, "longitude": -4.25549, "city": "Glasgow", "country": "GB"}, "href": "/v2/networks/nextbike-glasgow", "company": ["Nextbike GmbH"], "system": "Nextbike", "stations": [{"id": "066c99293af108ece27d9b0436c30cc4", "name": "Riverside Museum", "latitude": 55.865683, "longitude": -4.305367, "timestamp": "2024-10-18T21:22:01.206554Z", "free_bikes": 4, "empty_slots": 2, "extra": {"uid": "19738176", "number": "8416", "slots": 6, "bike_uids": ["81103", "46982", "46665", "829983"]}}, {"id": "0a106cbc148d5a0c2535b51c1dbe3b4d", "name": "Parkhead", "latitude": 55.846524, "longitude": -4.197475, "timestamp": "2024-10-18T21:22:01.207376Z", "free_bikes": 4, "empty_slots": 4, "extra": {"uid": "150125231", "number": "8470", "slots": 8, "bike_uids": ["46871", "828262", "46720", "46493"]}}, {"id": "0cc8c09950e1435ee7782478ed292fef", "name": "Tollcross International Swimming Centre", "latitude": 55.84425, "longitude": -4.176167, "timestamp": "2024-10-18T21:22:01.207061Z", "free_bikes": 4, "empty_slots": 2, "extra": {"uid": "55599921", "number": "8200", "slots": 6, "bike_uids": ["840033", "46734", "46515", "828134"]}}, {"id": "0e94d2ad012bff0cf23497963ff5fd77", "name": "Shields Road", "latitude": 55.845807, "longitude": -4.275232, "timestamp": "2024-10-18T21:22:01.206421Z", "free_bikes": 1, "empty_slots": 7, "extra": {"uid": "7145152", "number": "8403", "slots": 8, "bike_uids": ["81175"]}}, {"id": "101c6cd7749f373507e9444f5222b7f2", "name": "Shawlands Shopping Centre (Kilmarnock Road)", "latitude": 55.829057, "longitude": -4.282675, "timestamp": "2024-10-18T21:22:01.205670Z", "free_bikes": 4, "empty_slots": 4, "extra": {"uid": "3812605", "number": "8453", "slots": 8, "bike_uids": ["826907", "46550", "828983", "828140"]}}, {"id": "1036625d677b2d21e2aaec9fec0aa3cb", "name": "Shields Road Subway", "latitude": 55.849924, "longitude": -4.273727, "timestamp": "2024-10-18T21:22:01.207504Z", "free_bikes": 0, "empty_slots": 9, "extra": {"uid": "262742542", "number": "8482", "slots": 10, "bike_uids": [""]}}, {"id": "10998482c3187c80b1fc322bee154cb6", "name": "Alexandra Parade (West) - ELECTRIC", "latitude": 55.864472, "longitude": -4.223208, "timestamp": "2024-10-18T21:22:01.205989Z", "free_bikes": 0, "empty_slots": 8, "extra": {"uid": "6269637", "number": "8468", "slots": 8, "bike_uids": [""]}}, {"id": "1172741997ccd599fa530bfb8451808c", "name": "City of Glasgow College (Riverside Campus) - ELECTRIC", "latitude": 55.850554, "longitude": -4.248127, "timestamp": "2024-10-18T21:22:01.205408Z", "free_bikes": 3, "empty_slots": 3, "extra": {"uid": "349453", "number": "8442", "slots": 6, "bike_uids": ["21956", "828973", "46415"]}}, {"id": "1179f511143ae9898181016b37d85b5a", "name": "Whiteinch Library", "latitude": 55.874555, "longitude": -4.333357, "timestamp": "2024-10-18T21:22:01.207132Z", "free_bikes": 6, "empty_slots": 2, "extra": {"uid": "55600284", "number": "8203", "slots": 8, "bike_uids": ["825670", "828961", "46483", "46446", "46430", "47911"]}}, {"id": "12aac9e40a335ee43b231c94972a7a69", "name": "St Rollox", "latitude": 55.878152, "longitude": -4.242439, "timestamp": "2024-10-18T21:22:01.206794Z", "free_bikes": 0, "empty_slots": 8, "extra": {"uid": "31234437", "number": "8236", "slots": 8, "bike_uids": [""]}}, {"id": "1d0ef65099a882d9ca47c5e290a642a9", "name": "Corkerhill Railway Station", "latitude": 55.836355, "longitude": -4.335149, "timestamp": "2024-10-18T21:22:01.206885Z", "free_bikes": 6, "empty_slots": 4, "extra": {"uid": "42446574", "number": "8208", "slots": 10, "bike_uids": ["46795", "46784", "828212", "47929", "829996", "828135"]}}, {"id": "27e224157e6a5dcec09cd3ad37b62315", "name": "Springfield Quay 2", "latitude": 55.854391, "longitude": -4.274764, "timestamp": "2024-10-18T21:22:01.205878Z", "free_bikes": 2, "empty_slots": 4, "extra": {"uid": "6269603", "number": "8462", "slots": 6, "bike_uids": ["826856", "22807"]}}, {"id": "28ae77e57c39887ceab9e2b2eb3a0e3a", "name": "University of Strathclyde (South) - ELECTRIC", "latitude": 55.860633, "longitude": -4.2419, "timestamp": "2024-10-18T21:22:01.205254Z", "free_bikes": 2, "empty_slots": 9, "extra": {"uid": "266170", "number": "8433", "slots": 12, "bike_uids": ["46911", "46894"]}}, {"id": "2a86fb913aad33c3e3deee02dd93f76d", "name": "Buchanan Street Bus Station - ELECTRIC", "latitude": 55.864993, "longitude": -4.252567, "timestamp": "2024-10-18T21:22:01.205568Z", "free_bikes": 2, "empty_slots": 8, "extra": {"uid": "380893", "number": "8404", "slots": 10, "bike_uids": ["08282", "829981"]}}, {"id": "2b7a24c5351796cdc372275308f7cfc9", "name": "Springburn Railway Station", "latitude": 55.882232, "longitude": -4.230428, "timestamp": "2024-10-18T21:22:01.206812Z", "free_bikes": 3, "empty_slots": 5, "extra": {"uid": "31475534", "number": "8237", "slots": 8, "bike_uids": ["46466", "829306", "829125"]}}, {"id": "2c49302c8bb3a00373f898594228a941", "name": "London Road Central", "latitude": 55.847638, "longitude": -4.202957, "timestamp": "2024-10-18T21:22:01.207440Z", "free_bikes": 2, "empty_slots": 8, "extra": {"uid": "213996907", "number": "8474", "slots": 10, "bike_uids": ["46972", "46882"]}}, {"id": "2cfbd10e44bf17c20e682172e1cb026d", "name": "Glasgow Kelvin College East", "latitude": 55.857858, "longitude": -4.203123, "timestamp": "2024-10-18T21:22:01.207583Z", "free_bikes": 1, "empty_slots": 9, "extra": {"uid": "262744830", "number": "8489", "slots": 10, "bike_uids": ["46904"]}}, {"id": "2ee7f8a8347b8ee388d6beeef94c837d", "name": "Scotstoun South", "latitude": 55.875431, "longitude": -4.342325, "timestamp": "2024-10-18T21:22:01.207217Z", "free_bikes": 8, "empty_slots": 2, "extra": {"uid": "105741829", "number": "8311", "slots": 12, "bike_uids": ["46874", "828243", "828976", "828962", "46598", "46469", "47924", "47968"]}}, {"id": "3860eb7809fcced150d10d78ca2a165c", "name": "University Hospital, Queen Eliza", "latitude": 55.862838, "longitude": -4.341885, "timestamp": "2024-10-18T21:22:01.205610Z", "free_bikes": 8, "empty_slots": 0, "extra": {"uid": "751103", "number": "8450", "slots": 8, "bike_uids": ["47041", "829308", "46981", "828966", "46672", "46501", "829979", "829144"]}}, {"id": "3870596cc1a00a724f4ed1037e103977", "name": "Pollokshaws West Railway Station", "latitude": 55.824907, "longitude": -4.299678, "timestamp": "2024-10-18T21:22:01.207483Z", "free_bikes": 2, "empty_slots": 8, "extra": {"uid": "262741426", "number": "8481", "slots": 10, "bike_uids": ["828924", "46600"]}}, {"id": "3c3dcd5ab1d1b41a307a4436823f798a", "name": "Kelvinhall Subway", "latitude": 55.870857, "longitude": -4.300665, "timestamp": "2024-10-18T21:22:01.207262Z", "free_bikes": 2, "empty_slots": 4, "extra": {"uid": "105742172", "number": "8314", "slots": 6, "bike_uids": ["46685", "829197"]}}, {"id": "3ddf8661cd54b63e042898f8c83b38e0", "name": "Glasgow Caledonian University - ELECTRIC", "latitude": 55.865817, "longitude": -4.251367, "timestamp": "2024-10-18T21:22:01.205160Z", "free_bikes": 2, "empty_slots": 4, "extra": {"uid": "266157", "number": "8405", "slots": 6, "bike_uids": ["828220", "828213"]}}, {"id": "3ff58e3afee22e9aeef8b1e95650e749", "name": "St George's Cross - ELECTRIC", "latitude": 55.871367, "longitude": -4.269117, "timestamp": "2024-10-18T21:22:01.204840Z", "free_bikes": 2, "empty_slots": 3, "extra": {"uid": "264294", "number": "8408", "slots": 4, "bike_uids": ["46611", "829986"]}}, {"id": "4569cc932fe326799b99930cad84c476", "name": "Possil Health Centre (Saracen Street) - ELECTRIC", "latitude": 55.881493, "longitude": -4.254465, "timestamp": "2024-10-18T21:22:01.206490Z", "free_bikes": 0, "empty_slots": 8, "extra": {"uid": "19548440", "number": "8414", "slots": 8, "bike_uids": [""]}}, {"id": "47a68fd067ea7f71ee08c1fbdd7c9c9b", "name": "Glasgow Science Centre", "latitude": 55.8585, "longitude": -4.292972, "timestamp": "2024-10-18T21:22:01.206836Z", "free_bikes": 3, "empty_slots": 7, "extra": {"uid": "41822435", "number": "8426", "slots": 10, "bike_uids": ["46440", "829153", "829080"]}}, {"id": "540d5877eb2aa25add536be07be49962", "name": "Kelvinbridge Subway - ELECTRIC", "latitude": 55.87501, "longitude": -4.280371, "timestamp": "2024-10-18T21:22:01.205024Z", "free_bikes": 0, "empty_slots": 7, "extra": {"uid": "264303", "number": "8418", "slots": 8, "bike_uids": [""]}}, {"id": "5542f3a29121984f8bab4d281d63bedd", "name": "People's Palace", "latitude": 55.852086, "longitude": -4.237032, "timestamp": "2024-10-18T21:22:01.207561Z", "free_bikes": 2, "empty_slots": 8, "extra": {"uid": "262744061", "number": "8485", "slots": 10, "bike_uids": ["828994", "828253"]}}, {"id": "573cb802d312c0c7388eeb86b7df2b16", "name": "Maryhill Library", "latitude": 55.891127, "longitude": -4.290879, "timestamp": "2024-10-18T21:22:01.206977Z", "free_bikes": 0, "empty_slots": 8, "extra": {"uid": "42613824", "number": "8213", "slots": 8, "bike_uids": [""]}}, {"id": "57d53cfefc9f5e8871e9758b1f6128f8", "name": "Clifton St / Kelvingrove Park East", "latitude": 55.86698, "longitude": -4.278874, "timestamp": "2024-10-18T21:22:01.207177Z", "free_bikes": 0, "empty_slots": 9, "extra": {"uid": "55600478", "number": "8205", "slots": 10, "bike_uids": [""]}}, {"id": "5a527c8ff4d91a318d173dbdbce298c0", "name": "Eglinton Toll - ELECTRIC", "latitude": 55.843308, "longitude": -4.26217, "timestamp": "2024-10-18T21:22:01.205503Z", "free_bikes": 5, "empty_slots": 4, "extra": {"uid": "349458", "number": "8446", "slots": 6, "bike_uids": ["46938", "46910", "46975", "46698", "46606"]}}, {"id": "5a611496ed54f7f74525c262367db06f", "name": "Yorkhill Street South", "latitude": 55.864135, "longitude": -4.292988, "timestamp": "2024-10-18T21:22:01.207195Z", "free_bikes": 3, "empty_slots": 5, "extra": {"uid": "66595311", "number": "8310", "slots": 8, "bike_uids": ["46900", "46633", "46474"]}}, {"id": "5aef9920fd2384a972eafa84aa577439", "name": "Argyle Street Railway Station - ELECTRIC", "latitude": 55.857575, "longitude": -4.249976, "timestamp": "2024-10-18T21:22:01.205137Z", "free_bikes": 7, "empty_slots": 3, "extra": {"uid": "264392", "number": "8411", "slots": 7, "bike_uids": ["828955", "46873", "46657", "46462", "46441", "47934", "829998"]}}, {"id": "5c9021a0e68ddd0d3e47cc90e59c77c8", "name": "Pollokshields East Railway", "latitude": 55.841494, "longitude": -4.269701, "timestamp": "2024-10-18T21:22:01.206909Z", "free_bikes": 3, "empty_slots": 7, "extra": {"uid": "42487653", "number": "8210", "slots": 10, "bike_uids": ["47499", "47019", "46673"]}}, {"id": "5d5e2ae1a3a0fe0075c7a9d3432e736b", "name": "Cessnock Subway Station - ELECTRIC", "latitude": 55.85196, "longitude": -4.294538, "timestamp": "2024-10-18T21:22:01.205456Z", "free_bikes": 3, "empty_slots": 6, "extra": {"uid": "349455", "number": "8444", "slots": 10, "bike_uids": ["829254", "828989", "829967"]}}, {"id": "5dc194cece6b94f85ccf2c373802e7cc", "name": "CoMo Pop up hub (temp)", "latitude": 55.82533, "longitude": -4.257, "timestamp": "2024-10-18T21:22:01.207605Z", "free_bikes": 3, "empty_slots": 0, "extra": {"uid": "481710184", "number": "8499", "slots": 1, "bike_uids": ["46985", "46661", "46465"]}}, {"id": "6006222102c4bdaf1e119fc089393312", "name": "Port Dundas", "latitude": 55.877822, "longitude": -4.254817, "timestamp": "2024-10-18T21:22:01.206299Z", "free_bikes": 1, "empty_slots": 7, "extra": {"uid": "6269638", "number": "8469", "slots": 8, "bike_uids": ["46767"]}}, {"id": "6250eaa7a4d4ffac2452eb0509ccbd59", "name": "Broomhill", "latitude": 55.871005, "longitude": -4.321313, "timestamp": "2024-10-18T21:22:01.206746Z", "free_bikes": 5, "empty_slots": 7, "extra": {"uid": "31234355", "number": "8233", "slots": 12, "bike_uids": ["840031", "828939", "47928", "47970", "829969"]}}, {"id": "64351cf3fd58727dbb26147dec40e855", "name": "Duke Street Railway Station", "latitude": 55.858222, "longitude": -4.213473, "timestamp": "2024-10-18T21:22:01.205775Z", "free_bikes": 1, "empty_slots": 7, "extra": {"uid": "3812792", "number": "8458", "slots": 8, "bike_uids": ["99603"]}}, {"id": "654cfe414a7d682dfffd1259586b364f", "name": "Scottish Event Campus (formerly S.E.C.C)", "latitude": 55.859081, "longitude": -4.287211, "timestamp": "2024-10-18T21:22:01.204955Z", "free_bikes": 8, "empty_slots": 0, "extra": {"uid": "264300", "number": "8415", "slots": 8, "bike_uids": ["22383", "81167", "47619", "46833", "46746", "46644", "46425", "829136"]}}, {"id": "65a1fded1cfdaf39b8c7ea2cc561144b", "name": "Bellahouston Park", "latitude": 55.849072, "longitude": -4.314376, "timestamp": "2024-10-18T21:22:01.207085Z", "free_bikes": 4, "empty_slots": 4, "extra": {"uid": "55600054", "number": "8201", "slots": 8, "bike_uids": ["828236", "46812", "47931", "828120"]}}, {"id": "66bf0c2b0588b8c742caeb43d89a82c2", "name": "Alexandra Park (south entrance) Alexandra Parade Railway Station", "latitude": 55.863128, "longitude": -4.210282, "timestamp": "2024-10-18T21:22:01.205752Z", "free_bikes": 3, "empty_slots": 3, "extra": {"uid": "3812776", "number": "8457", "slots": 7, "bike_uids": ["46507", "47910", "829982"]}}, {"id": "6c5f3eaafa4323831910bb404125cef9", "name": "Glasgow Central West", "latitude": 55.858587, "longitude": -4.259847, "timestamp": "2024-10-18T21:22:01.206598Z", "free_bikes": 3, "empty_slots": 5, "extra": {"uid": "28521334", "number": "8216", "slots": 8, "bike_uids": ["829273", "46811", "46579"]}}, {"id": "6dd6aeaa689caacc619659b44bebb9c7", "name": "Clyde Place Quay", "latitude": 55.854931, "longitude": -4.260144, "timestamp": "2024-10-18T21:22:01.207522Z", "free_bikes": 1, "empty_slots": 9, "extra": {"uid": "262743248", "number": "8483", "slots": 10, "bike_uids": ["828972"]}}, {"id": "6e1c95db152793f835bd905855c13c04", "name": "Glasgow Green - Saltmarket / Clyde Place - ELECTRIC", "latitude": 55.853176, "longitude": -4.246661, "timestamp": "2024-10-18T21:22:01.205830Z", "free_bikes": 6, "empty_slots": 4, "extra": {"uid": "3812886", "number": "8460", "slots": 8, "bike_uids": ["82759", "828927", "828209", "46666", "829991", "829970"]}}, {"id": "6f47ac14f7aaa6b2c04936f30a5c2bb6", "name": "University of Glasgow (East) - ELECTRIC", "latitude": 55.871763, "longitude": -4.27807, "timestamp": "2024-10-18T21:22:01.205276Z", "free_bikes": 2, "empty_slots": 5, "extra": {"uid": "266171", "number": "8435", "slots": 5, "bike_uids": ["828239", "46551"]}}, {"id": "70c80c14fe5f7f1049a85e33856137ec", "name": "Trongate", "latitude": 55.855961, "longitude": -4.244671, "timestamp": "2024-10-18T21:22:01.205232Z", "free_bikes": 3, "empty_slots": 2, "extra": {"uid": "266169", "number": "8431", "slots": 5, "bike_uids": ["46960", "46913", "46557"]}}, {"id": "71b02b6f26f03e58c97dec1e1c9faa00", "name": "Botanic Gardens - ELECTRIC", "latitude": 55.878278, "longitude": -4.288487, "timestamp": "2024-10-18T21:22:01.205001Z", "free_bikes": 3, "empty_slots": 4, "extra": {"uid": "264302", "number": "8417", "slots": 8, "bike_uids": ["46585", "46405", "829957"]}}, {"id": "7245bbeaa7a5357af921174d7ae855d4", "name": "Broomielaw - ELECTRIC", "latitude": 55.8566, "longitude": -4.263521, "timestamp": "2024-10-18T21:22:01.204932Z", "free_bikes": 2, "empty_slots": 14, "extra": {"uid": "264299", "number": "8413", "slots": 16, "bike_uids": ["47553", "46695"]}}, {"id": "7ad6b0b3be3cb3d85e687bdf53358611", "name": "The Round Toll", "latitude": 55.87422, "longitude": -4.26136, "timestamp": "2024-10-18T21:22:01.206642Z", "free_bikes": 1, "empty_slots": 6, "extra": {"uid": "28521431", "number": "8218", "slots": 8, "bike_uids": ["47920"]}}, {"id": "7f57f6deed054209b94f5d22e1bb5b68", "name": "Firhill Road - ELECTRIC", "latitude": 55.878787, "longitude": -4.26877, "timestamp": "2024-10-18T21:22:01.206382Z", "free_bikes": 2, "empty_slots": 4, "extra": {"uid": "6270126", "number": "8464", "slots": 7, "bike_uids": ["46406", "829255"]}}, {"id": "7fd473d65bb4ead7217d778a38d56dc2", "name": "Mount Vernon Railway Station", "latitude": 55.840336, "longitude": -4.135251, "timestamp": "2024-10-18T21:22:01.206932Z", "free_bikes": 6, "empty_slots": 2, "extra": {"uid": "42553766", "number": "8211", "slots": 8, "bike_uids": ["46774", "828278", "46674", "46542", "46499", "46454"]}}, {"id": "7fde42277f0af769fa2844ac44fb18bb", "name": "Cathcart Railway Station", "latitude": 55.817338, "longitude": -4.262688, "timestamp": "2024-10-18T21:22:01.206859Z", "free_bikes": 7, "empty_slots": 5, "extra": {"uid": "42417389", "number": "8206", "slots": 12, "bike_uids": ["47506", "828979", "46766", "46668", "829987", "828194", "828141"]}}, {"id": "80c191c76711807560f1dee0ec98b9c4", "name": "Langside Hall - ELECTRIC", "latitude": 55.831951, "longitude": -4.277989, "timestamp": "2024-10-18T21:22:01.205691Z", "free_bikes": 0, "empty_slots": 4, "extra": {"uid": "3812694", "number": "8454", "slots": 4, "bike_uids": [""]}}, {"id": "8486f63f1088194889096079329cdbdb", "name": "Shawlands Railway Station - ELECTRIC", "latitude": 55.827371, "longitude": -4.29567, "timestamp": "2024-10-18T21:22:01.205707Z", "free_bikes": 7, "empty_slots": 2, "extra": {"uid": "3812713", "number": "8455", "slots": 8, "bike_uids": ["22752", "46993", "828940", "46735", "46592", "46456", "828222"]}}, {"id": "85c3b5be1873561dc445f46324d143b7", "name": "St Enoch Square - ELECTRIC", "latitude": 55.856859, "longitude": -4.255593, "timestamp": "2024-10-18T21:22:01.204863Z", "free_bikes": 2, "empty_slots": 6, "extra": {"uid": "264295", "number": "8410", "slots": 12, "bike_uids": ["828260", "828087"]}}, {"id": "8af6d6e52a43dc3df9086e10ab9da2a1", "name": "Waterloo Street - ELECTRIC", "latitude": 55.86077, "longitude": -4.264535, "timestamp": "2024-10-18T21:22:01.204739Z", "free_bikes": 2, "empty_slots": 10, "extra": {"uid": "264283", "number": "8402", "slots": 12, "bike_uids": ["22202", "828970"]}}, {"id": "90ca952e355fd4673ea26061d13d8841", "name": "Anniesland Library", "latitude": 55.890398, "longitude": -4.324766, "timestamp": "2024-10-18T21:22:01.206993Z", "free_bikes": 3, "empty_slots": 4, "extra": {"uid": "42613965", "number": "8214", "slots": 8, "bike_uids": ["21866", "22990", "46727"]}}, {"id": "90f4aed9eeacf63d2f1a9af8ba77d5bc", "name": "Battlefield - ELECTRIC", "latitude": 55.827395, "longitude": -4.265319, "timestamp": "2024-10-18T21:22:01.205946Z", "free_bikes": 2, "empty_slots": 7, "extra": {"uid": "6269629", "number": "8466", "slots": 10, "bike_uids": ["46533", "47932"]}}, {"id": "982a00e7910b5eaae622461281c86b53", "name": "Dalmarnock Railway Station - ELECTRIC", "latitude": 55.842561, "longitude": -4.217704, "timestamp": "2024-10-18T21:22:01.205730Z", "free_bikes": 5, "empty_slots": 2, "extra": {"uid": "3812770", "number": "8456", "slots": 8, "bike_uids": ["46609", "46487", "46455", "829978", "829245"]}}, {"id": "9b7e254f4f98c7ab070e5a9958d420ef", "name": "Glasgow Forge (Gallowgate)", "latitude": 55.852705, "longitude": -4.201594, "timestamp": "2024-10-18T21:22:01.206531Z", "free_bikes": 3, "empty_slots": 5, "extra": {"uid": "19548760", "number": "8436", "slots": 8, "bike_uids": ["47324", "47592", "46752"]}}, {"id": "a087989280fd941fd9c41c3e787940ae", "name": "University of Strathclyde (North)", "latitude": 55.862983, "longitude": -4.241, "timestamp": "2024-10-18T21:22:01.205104Z", "free_bikes": 0, "empty_slots": 2, "extra": {"uid": "264309", "number": "8424", "slots": 3, "bike_uids": [""]}}, {"id": "a1829c3fd840369355ada2949567d15a", "name": "Central Station - ELECTRIC", "latitude": 55.860776, "longitude": -4.258597, "timestamp": "2024-10-18T21:22:01.206447Z", "free_bikes": 1, "empty_slots": 12, "extra": {"uid": "19164571", "number": "8401", "slots": 14, "bike_uids": ["47960"]}}, {"id": "a19e9249f64251a331f70f78845241c9", "name": "Queen Margaret Drive / Maryhill Road", "latitude": 55.8849, "longitude": -4.281414, "timestamp": "2024-10-18T21:22:01.204980Z", "free_bikes": 1, "empty_slots": 7, "extra": {"uid": "264301", "number": "8419", "slots": 8, "bike_uids": ["46530"]}}, {"id": "a5fe191b595724ce2fa7372b3ccca653", "name": "Kelvingrove Art Gallery - ELECTRIC", "latitude": 55.868352, "longitude": -4.289405, "timestamp": "2024-10-18T21:22:01.205042Z", "free_bikes": 0, "empty_slots": 9, "extra": {"uid": "264304", "number": "8420", "slots": 10, "bike_uids": [""]}}, {"id": "a8db8c24388d5d0ce7143678dfa0e676", "name": "Gorbals Library", "latitude": 55.848564, "longitude": -4.250996, "timestamp": "2024-10-18T21:22:01.207015Z", "free_bikes": 3, "empty_slots": 5, "extra": {"uid": "42614033", "number": "8215", "slots": 8, "bike_uids": ["46567", "46492", "828142"]}}, {"id": "a9d5888ec8ab5a638fbe933e0a5311de", "name": "Queens Park West", "latitude": 55.835042, "longitude": -4.272346, "timestamp": "2024-10-18T21:22:01.205547Z", "free_bikes": 5, "empty_slots": 3, "extra": {"uid": "349461", "number": "8448", "slots": 8, "bike_uids": ["46764", "46569", "46495", "829995", "829989"]}}, {"id": "aa439d2a415edfcb198febf8bf3cd7a7", "name": "St Andrews Drive - Dalziel Drive", "latitude": 55.840988, "longitude": -4.289947, "timestamp": "2024-10-18T21:22:01.207284Z", "free_bikes": 4, "empty_slots": 2, "extra": {"uid": "105742240", "number": "8315", "slots": 6, "bike_uids": ["81127", "46984", "46792", "46703"]}}, {"id": "aaaa2f4104d5aac71e81537d91745779", "name": "Blythswood Square", "latitude": 55.863885, "longitude": -4.263682, "timestamp": "2024-10-18T21:22:01.207544Z", "free_bikes": 0, "empty_slots": 7, "extra": {"uid": "262743571", "number": "8484", "slots": 8, "bike_uids": [""]}}, {"id": "ab5e5dc12c8217d4077ba0df3970feb5", "name": "Glasgow Green", "latitude": 55.84945, "longitude": -4.23375, "timestamp": "2024-10-18T21:22:01.204907Z", "free_bikes": 10, "empty_slots": 3, "extra": {"uid": "264298", "number": "8412", "slots": 12, "bike_uids": ["82314", "828971", "828988", "828215", "828201", "46775", "46498", "46437", "46413", "46402"]}}, {"id": "abb478d282fc4352a662a4fb1308a544", "name": "Woodside (North) - ELECTRIC", "latitude": 55.875061, "longitude": -4.270678, "timestamp": "2024-10-18T21:22:01.205929Z", "free_bikes": 0, "empty_slots": 7, "extra": {"uid": "6269626", "number": "8465", "slots": 8, "bike_uids": [""]}}, {"id": "abb4b8f19b7371a31a1773ddf19dac8c", "name": "Springfield Rd", "latitude": 55.848885, "longitude": -4.20064, "timestamp": "2024-10-18T21:22:01.207155Z", "free_bikes": 5, "empty_slots": 1, "extra": {"uid": "55600387", "number": "8204", "slots": 6, "bike_uids": ["46699", "46653", "46571", "829192", "828123"]}}, {"id": "ad008187b01147da4b6986fec9f25495", "name": "Bath Street", "latitude": 55.864132, "longitude": -4.259101, "timestamp": "2024-10-18T21:22:01.206685Z", "free_bikes": 0, "empty_slots": 7, "extra": {"uid": "28521513", "number": "8219", "slots": 8, "bike_uids": [""]}}, {"id": "af1d0f25cbc75377878349fde4d86133", "name": "Merchant Square - ELECTRIC", "latitude": 55.858167, "longitude": -4.245483, "timestamp": "2024-10-18T21:22:01.204814Z", "free_bikes": 4, "empty_slots": 4, "extra": {"uid": "264293", "number": "8407", "slots": 8, "bike_uids": ["46996", "828986", "46848", "829237"]}}, {"id": "af89fc71d4e9b25fd63a7ae8861f4c03", "name": "Hampden Park and Ride", "latitude": 55.827974, "longitude": -4.247278, "timestamp": "2024-10-18T21:22:01.207306Z", "free_bikes": 2, "empty_slots": 2, "extra": {"uid": "105742309", "number": "8316", "slots": 4, "bike_uids": ["828902", "828183"]}}, {"id": "b205037f7c8a72a7acf2af890570bb16", "name": "Riddrie South", "latitude": 55.867405, "longitude": -4.192788, "timestamp": "2024-10-18T21:22:01.206954Z", "free_bikes": 3, "empty_slots": 5, "extra": {"uid": "42613734", "number": "8212", "slots": 8, "bike_uids": ["840023", "823505", "828265"]}}, {"id": "b60e67062c32d2147f8892de3a446610", "name": "Anderston West", "latitude": 55.861585, "longitude": -4.274518, "timestamp": "2024-10-18T21:22:01.207398Z", "free_bikes": 1, "empty_slots": 7, "extra": {"uid": "150125330", "number": "8472", "slots": 8, "bike_uids": ["828132"]}}, {"id": "b98603df18dece74e168037c3fe67a2c", "name": "Sauchiehall Street", "latitude": 55.865291, "longitude": -4.261756, "timestamp": "2024-10-18T21:22:01.205909Z", "free_bikes": 1, "empty_slots": 6, "extra": {"uid": "6269618", "number": "8463", "slots": 7, "bike_uids": ["46459"]}}, {"id": "ba4133ab0ad5c5b405a541c5dfa5814f", "name": "Finnieston Street", "latitude": 55.863422, "longitude": -4.280677, "timestamp": "2024-10-18T21:22:01.205320Z", "free_bikes": 2, "empty_slots": 6, "extra": {"uid": "315912", "number": "8438", "slots": 8, "bike_uids": ["828224", "829100"]}}, {"id": "ba6d3b1c4cafd1b3e29f950f613c4605", "name": "Queens Park Railway Station - ELECTRIC", "latitude": 55.834976, "longitude": -4.265485, "timestamp": "2024-10-18T21:22:01.205524Z", "free_bikes": 8, "empty_slots": 8, "extra": {"uid": "349460", "number": "8447", "slots": 8, "bike_uids": ["827878", "828248", "46940", "828211", "46820", "46519", "46453", "829955"]}}, {"id": "bbf0e6792d57d47cb2e66509a3712d22", "name": "Govan Cross", "latitude": 55.863, "longitude": -4.311378, "timestamp": "2024-10-18T21:22:01.205480Z", "free_bikes": 3, "empty_slots": 5, "extra": {"uid": "349456", "number": "8445", "slots": 8, "bike_uids": ["47081", "46793", "46643"]}}, {"id": "bc208a63ac25b883b9eb6e28bfff2f28", "name": "Shakespeare Street (Maryhill) - ELECTRIC", "latitude": 55.886934, "longitude": -4.285022, "timestamp": "2024-10-18T21:22:01.206471Z", "free_bikes": 0, "empty_slots": 4, "extra": {"uid": "19548002", "number": "8427", "slots": 4, "bike_uids": [""]}}, {"id": "bfdb33b93e6a6a80f01c46a8284203e0", "name": "George Square - ELECTRIC", "latitude": 55.86155, "longitude": -4.2494, "timestamp": "2024-10-18T21:22:01.204785Z", "free_bikes": 4, "empty_slots": 6, "extra": {"uid": "264292", "number": "8406", "slots": 10, "bike_uids": ["46835", "46414", "828155", "828987"]}}, {"id": "c04c3fc64f0ba6c420bd3184f474bfc9", "name": "University of Glasgow (West)", "latitude": 55.872774, "longitude": -4.292135, "timestamp": "2024-10-18T21:22:01.205061Z", "free_bikes": 0, "empty_slots": 8, "extra": {"uid": "264306", "number": "8422", "slots": 8, "bike_uids": [""]}}, {"id": "c5fd8640b5ba2ad276663dac367fa293", "name": "Mount Florida Railway Station", "latitude": 55.827282, "longitude": -4.259255, "timestamp": "2024-10-18T21:22:01.205968Z", "free_bikes": 2, "empty_slots": 4, "extra": {"uid": "6269636", "number": "8467", "slots": 4, "bike_uids": ["22069", "46725"]}}, {"id": "c7102adc0e91f9d347ac0e230471e8bc", "name": "Carrick Quay", "latitude": 55.85476, "longitude": -4.25164, "timestamp": "2024-10-18T21:22:01.206664Z", "free_bikes": 2, "empty_slots": 6, "extra": {"uid": "28521474", "number": "8231", "slots": 8, "bike_uids": ["21959", "46556"]}}, {"id": "c8234c56f76f3f84d81c54ceedbdab54", "name": "Anderston Railway Station", "latitude": 55.859996, "longitude": -4.270163, "timestamp": "2024-10-18T21:22:01.207241Z", "free_bikes": 1, "empty_slots": 5, "extra": {"uid": "105741985", "number": "8312", "slots": 6, "bike_uids": ["826617"]}}, {"id": "caf64729d7f752ab99f5a2c600a089c6", "name": "St Andrews Drive @ Maxwell Drive", "latitude": 55.845518, "longitude": -4.286476, "timestamp": "2024-10-18T21:22:01.206772Z", "free_bikes": 2, "empty_slots": 5, "extra": {"uid": "31234411", "number": "8235", "slots": 8, "bike_uids": ["46782", "46619"]}}, {"id": "d1cfef68e6b380467d3f8927379319b3", "name": "Glasgow Cathedral - ELECTRIC", "latitude": 55.862973, "longitude": -4.237745, "timestamp": "2024-10-18T21:22:01.204885Z", "free_bikes": 1, "empty_slots": 5, "extra": {"uid": "264296", "number": "8409", "slots": 6, "bike_uids": ["46539"]}}, {"id": "d204cd406e1b7af53252157f13d4df60", "name": "Burrell Collection", "latitude": 55.829914, "longitude": -4.306877, "timestamp": "2024-10-18T21:22:01.207108Z", "free_bikes": 9, "empty_slots": 0, "extra": {"uid": "55600156", "number": "8202", "slots": 6, "bike_uids": ["46963", "46924", "46891", "46716", "46488", "46450", "46853", "829052", "829050"]}}, {"id": "d33c72793e492060711833bcbbd2667e", "name": "King Street South", "latitude": 55.85586, "longitude": -4.24695, "timestamp": "2024-10-18T21:22:01.206702Z", "free_bikes": 5, "empty_slots": 3, "extra": {"uid": "28521547", "number": "8230", "slots": 8, "bike_uids": ["21383", "829216", "47284", "46594", "826997"]}}, {"id": "d609f2455b3dbc528814c140c6d86413", "name": "Gartnavel General Hospital", "latitude": 55.883971, "longitude": -4.31046, "timestamp": "2024-10-18T21:22:01.205590Z", "free_bikes": 1, "empty_slots": 5, "extra": {"uid": "733236", "number": "8449", "slots": 6, "bike_uids": ["829984"]}}, {"id": "d80f772bb69ca8c783940446811dda56", "name": "Kelvinhaugh Street / Argyle Street - ELECTRIC", "latitude": 55.865222, "longitude": -4.286127, "timestamp": "2024-10-18T21:22:01.205653Z", "free_bikes": 0, "empty_slots": 7, "extra": {"uid": "3812438", "number": "8451", "slots": 8, "bike_uids": [""]}}, {"id": "d9eacbf78518d186400386d90f0cf49c", "name": "Broomhill Cross", "latitude": 55.875865, "longitude": -4.319601, "timestamp": "2024-10-18T21:22:01.207461Z", "free_bikes": 2, "empty_slots": 8, "extra": {"uid": "213997157", "number": "8480", "slots": 10, "bike_uids": ["828910", "829299"]}}, {"id": "dd9ad2381ac6eb2e2826d3d8104297ec", "name": "Queen Street Railway ", "latitude": 55.862102, "longitude": -4.252307, "timestamp": "2024-10-18T21:22:01.207039Z", "free_bikes": 6, "empty_slots": 2, "extra": {"uid": "45172531", "number": "8740", "slots": 10, "bike_uids": ["828237", "46890", "46638", "828974", "828159", "828090"]}}, {"id": "e1d3e09da4969404a689700ed36b5d56", "name": "Partick Interchange ", "latitude": 55.869707, "longitude": -4.308459, "timestamp": "2024-10-18T21:22:01.205299Z", "free_bikes": 2, "empty_slots": 6, "extra": {"uid": "266218", "number": "8423", "slots": 8, "bike_uids": ["47539", "47881"]}}, {"id": "e6e70fe059c3461f05eff24ccab6c09d", "name": "Ibrox", "latitude": 55.850987, "longitude": -4.301448, "timestamp": "2024-10-18T21:22:01.206577Z", "free_bikes": 5, "empty_slots": 1, "extra": {"uid": "21603723", "number": "8452", "slots": 8, "bike_uids": ["47894", "46917", "46888", "46660", "46500"]}}, {"id": "e7b590304d2ae958110e34961830ce68", "name": "Maryland Drive", "latitude": 55.846552, "longitude": -4.332797, "timestamp": "2024-10-18T21:22:01.207353Z", "free_bikes": 8, "empty_slots": 1, "extra": {"uid": "115737132", "number": "8209", "slots": 10, "bike_uids": ["21179", "827847", "825569", "46510", "46468", "46438", "46435", "829249"]}}, {"id": "e828a82c55b279cd1e7f5f9997d86d4b", "name": "Gallery of Modern Art - ELECTRIC", "latitude": 55.859716, "longitude": -4.251945, "timestamp": "2024-10-18T21:22:01.205209Z", "free_bikes": 5, "empty_slots": 7, "extra": {"uid": "266168", "number": "8430", "slots": 12, "bike_uids": ["828992", "47475", "46870", "828264", "46623"]}}, {"id": "e90cf64c1ad4360e9827143bd9234ef8", "name": "Springfield Quay 1", "latitude": 55.855185, "longitude": -4.273478, "timestamp": "2024-10-18T21:22:01.205855Z", "free_bikes": 4, "empty_slots": 2, "extra": {"uid": "6269590", "number": "8461", "slots": 6, "bike_uids": ["46893", "46841", "46838", "46506"]}}, {"id": "e9411faefce1d3a87601ad2dae1d1efc", "name": "Hyndland Road ", "latitude": 55.876975, "longitude": -4.306222, "timestamp": "2024-10-18T21:22:01.206724Z", "free_bikes": 1, "empty_slots": 7, "extra": {"uid": "31234332", "number": "8232", "slots": 8, "bike_uids": ["828245"]}}, {"id": "eb47a36e3d5fe5bc456397413bd2aa75", "name": "Bridge Street Subway - ELECTRIC", "latitude": 55.8525, "longitude": -4.25885, "timestamp": "2024-10-18T21:22:01.205120Z", "free_bikes": 0, "empty_slots": 5, "extra": {"uid": "264316", "number": "8432", "slots": 5, "bike_uids": [""]}}, {"id": "ec3d6eba43f27b84b35067a84fbc00c9", "name": "Barrowlands - ELECTRIC", "latitude": 55.855152, "longitude": -4.235294, "timestamp": "2024-10-18T21:22:01.205363Z", "free_bikes": 4, "empty_slots": 5, "extra": {"uid": "349451", "number": "8440", "slots": 10, "bike_uids": ["22839", "46992", "829997", "828189"]}}, {"id": "ed8440d874a0b4205ddbcc0bc56f3d49", "name": "Emirates Arena", "latitude": 55.846362, "longitude": -4.208322, "timestamp": "2024-10-18T21:22:01.205185Z", "free_bikes": 4, "empty_slots": 8, "extra": {"uid": "266166", "number": "8428", "slots": 12, "bike_uids": ["828985", "46655", "46541", "829290"]}}, {"id": "ef89ae581497a99c0a1d61db38e53380", "name": "Paisley Road Toll - ELECTRIC ", "latitude": 55.85378, "longitude": -4.279158, "timestamp": "2024-10-18T21:22:01.205434Z", "free_bikes": 6, "empty_slots": 4, "extra": {"uid": "349454", "number": "8443", "slots": 10, "bike_uids": ["38331", "47895", "828943", "46771", "46740", "828954"]}}, {"id": "f3ad8b8957d8be86ce18b8c9a43f02e1", "name": "Bellgrove Railway Station (North) - ELECTRIC ", "latitude": 55.858123, "longitude": -4.224511, "timestamp": "2024-10-18T21:22:01.205342Z", "free_bikes": 2, "empty_slots": 4, "extra": {"uid": "349450", "number": "8439", "slots": 6, "bike_uids": ["828959", "46616"]}}, {"id": "f5ac5a0223f0c88e225aa7c4d63d55f5", "name": "Broomielaw West ", "latitude": 55.85658, "longitude": -4.26887, "timestamp": "2024-10-18T21:22:01.206621Z", "free_bikes": 3, "empty_slots": 5, "extra": {"uid": "28521383", "number": "8217", "slots": 8, "bike_uids": ["46473", "46407", "46401"]}}, {"id": "f6210447e1724487afe0ce63b011aecd", "name": "Knightswood Park", "latitude": 55.895974, "longitude": -4.354877, "timestamp": "2024-10-18T21:22:01.207419Z", "free_bikes": 1, "empty_slots": 9, "extra": {"uid": "213996668", "number": "8473", "slots": 10, "bike_uids": ["38718"]}}, {"id": "f66dbb6e5176c4419ad1be87ea0c300d", "name": "Speirs Wharf - ELECTRIC", "latitude": 55.870992, "longitude": -4.260426, "timestamp": "2024-10-18T21:22:01.205802Z", "free_bikes": 2, "empty_slots": 3, "extra": {"uid": "3812875", "number": "8459", "slots": 7, "bike_uids": ["47857", "46559"]}}, {"id": "f6b64fd82fe6e607f1fc788ace31c3a1", "name": "Fullarton", "latitude": 55.837175, "longitude": -4.170209, "timestamp": "2024-10-18T21:22:01.207327Z", "free_bikes": 5, "empty_slots": 7, "extra": {"uid": "114446999", "number": "8234", "slots": 12, "bike_uids": ["47873", "46754", "46724", "47964", "829960"]}}, {"id": "f806566ccd2263bd5dbb624cdd0fb7f3", "name": "Bridgeton", "latitude": 55.848939, "longitude": -4.226823, "timestamp": "2024-10-18T21:22:01.205388Z", "free_bikes": 1, "empty_slots": 6, "extra": {"uid": "349452", "number": "8441", "slots": 8, "bike_uids": ["46943"]}}, {"id": "f93ab2c803d81c14f7e2f1765911de04", "name": "Charing Cross Railway Station", "latitude": 55.864563, "longitude": -4.270055, "timestamp": "2024-10-18T21:22:01.205633Z", "free_bikes": 2, "empty_slots": 6, "extra": {"uid": "3456076", "number": "8421", "slots": 8, "bike_uids": ["47356", "829319"]}}, {"id": "fa6bc682e8627d66891c2b6250c81b1e", "name": "Mitchell Library", "latitude": 55.864788, "longitude": -4.271852, "timestamp": "2024-10-18T21:22:01.205078Z", "free_bikes": 11, "empty_slots": 0, "extra": {"uid": "264308", "number": "8425", "slots": 6, "bike_uids": ["829295", "47831", "46955", "46787", "46709", "828967", "46560", "46540", "46420", "828204", "829270"]}}, {"id": "faf9e8803c8d80741d74f98cb9ba8337", "name": "Cambridge Street - ELECTRIC", "latitude": 55.865063, "longitude": -4.260291, "timestamp": "2024-10-18T21:22:01.206508Z", "free_bikes": 1, "empty_slots": 6, "extra": {"uid": "19548484", "number": "8434", "slots": 7, "bike_uids": ["828261"]}}]}}